[
    {
        "id":"966",
        "name":"1 Arena Twu (24 hrs)",
        "street":"No 3 (GF) Lot A3, 1 Arena Pusat Komersil BDC, KM 5, Jalan Datuk Chong Thien Vun",
        "city":"Tawau",
        "state":"Sabah",
        "postcode":"91000",
        "country":"Malaysia",
        "phone":"",
        "opening_hours":null,
        "lat":4.258608,
        "lng":117.919224,
        "brand":"7-Eleven"
    },
    {
        "id":"2068",
        "name":"1 Petaling Sg Besi",
        "street":"No G-3 (GF), Pangsapuri 1 Petaling, Jalan 1C\/149",
        "city":"Jalan Sungai Besi",
        "state":"Kuala Lumpur",
        "postcode":"57100",
        "country":"Malaysia",
        "phone":"",
        "opening_hours":null,
        "lat":3.0682,
        "lng":101.705595,
        "brand":"7-Eleven"
    },
    {
        "id":"1009",
        "name":"101 Mall Puchong",
        "street":"Lot G 005A, IOI Mall Bt 9, Jalan Puchong",
        "city":"Puchong",
        "state":"Selangor",
        "postcode":"47170",
        "country":"Malaysia",
        "phone":"",
        "opening_hours":null,
        "lat":3.043998,
        "lng":101.618431,
        "brand":"7-Eleven"
    },
    {
        "id":"2639",
        "name":"138 Jalan Imbi KL (24 hrs)",
        "street":"No 138 (GF)",
        "city":"Jalan Imbi",
        "state":"Kuala Lumpur",
        "postcode":"55100",
        "country":"Malaysia",
        "phone":"",
        "opening_hours":null,
        "lat":3.145618,
        "lng":101.714845,
        "brand":"7-Eleven"
    },
    {
        "id":"2644",
        "name":"19 Digital Mall SJ",
        "street":"Lot No G-29 (GF), Nineteen Digital Mall, Jalan Persiaran Kewajipan, USJ 19",
        "city":"Subang Jaya",
        "state":"Selangor",
        "postcode":"47620",
        "country":"Malaysia",
        "phone":"",
        "opening_hours":null,
        "lat":3.033204,
        "lng":101.588798,
        "brand":"7-Eleven"
    },
    {
        "id":"1222",
        "name":"1st Avenue PG (24 hrs)",
        "street":"2-13A, 2nd Floor, 1st Avenue, 182",
        "city":"Jalan Magazine",
        "state":"Pulau Pinang",
        "postcode":"10300",
        "country":"Malaysia",
        "phone":"",
        "opening_hours":null,
        "lat":5.413689,
        "lng":100.33113,
        "brand":"7-Eleven"
    },
    {
        "id":"1698",
        "name":"3 Element Seri Kembangan SEL (24 hrs)",
        "street":"No 07-G, 3 Element, Persiaran Putra Permai Selesa, Pusat Bandar Putra Permai",
        "city":"Seri Kembangan",
        "state":"Selangor",
        "postcode":"43300",
        "country":"Malaysia",
        "phone":"",
        "opening_hours":null,
        "lat":2.9831131,
        "lng":101.6671371,
        "brand":"7-Eleven"
    },
    {
        "id":"2192",
        "name":"3rd Mile Bazaar KCH (24 hrs)",
        "street":"No 51 (GF), Lot 1021, Jalan Rock, 3rd Miles Bazaar",
        "city":"Kuching",
        "state":"Sarawak",
        "postcode":"93250",
        "country":"Malaysia",
        "phone":"",
        "opening_hours":null,
        "lat":1.519232,
        "lng":110.334261,
        "brand":"7-Eleven"
    },
    {
        "id":"1697",
        "name":"7CAFE TMN. PENYU PP (24 hrs)",
        "street":"No 1412, Jalan Besar, Taman Penyu",
        "city":"Sungai Bakap",
        "state":"Pulau Pinang",
        "postcode":"14200",
        "country":"Malaysia",
        "phone":"",
        "opening_hours":null,
        "lat":5.2150978,
        "lng":100.4972652,
        "brand":"7-Eleven"
    },
    {
        "id":"272",
        "name":"7CAFE UniMAP PEL (24 hrs)",
        "street":"46-G, Jalan MU Satu, Medan Universiti Ulu Pauh",
        "city":"Arau",
        "state":"Perlis",
        "postcode":"2600",
        "country":"Malaysia",
        "phone":"",
        "opening_hours":null,
        "lat":6.52496,
        "lng":100.314,
        "brand":"7-Eleven"
    },
    {
        "id":"1991",
        "name":"7th Mile Bazaar KCH",
        "street":"SL 46A (GF), Jalan Penrissen, 7ML Bazaar",
        "city":"Kuching",
        "state":"Sarawak",
        "postcode":"93250",
        "country":"Malaysia",
        "phone":"",
        "opening_hours":null,
        "lat":1.469668,
        "lng":110.329629,
        "brand":"7-Eleven"
    },
    {
        "id":"935",
        "name":"Adika Commercial KGU",
        "street":"Lot 36, Ground Floor, Adika Commercial Complex, Jalan Masak",
        "city":"Keningau",
        "state":"Sabah",
        "postcode":"89000",
        "country":"Malaysia",
        "phone":"",
        "opening_hours":null,
        "lat":5.33515,
        "lng":116.150092,
        "brand":"7-Eleven"
    },
    {
        "id":"922",
        "name":"Adnan Shop Com KGU",
        "street":"Lot 18 (GF), Adnan Shopping Complex, Jalan Bariawa Laut",
        "city":"Keningau",
        "state":"Sabah",
        "postcode":"89000",
        "country":"Malaysia",
        "phone":"",
        "opening_hours":null,
        "lat":5.339629,
        "lng":116.15373,
        "brand":"7-Eleven"
    },
    {
        "id":"1561",
        "name":"Afiniti Residence, Johor",
        "street":"LG 1-02 Afiniti Residences, No 5 Jalan Medini Utara 4, Medini Iskandrar",
        "city":"Nusajaya",
        "state":"Johor",
        "postcode":"79200",
        "country":"Malaysia",
        "phone":"",
        "opening_hours":null,
        "lat":1.4275493,
        "lng":103.6342961,
        "brand":"7-Eleven"
    },
    {
        "id":"694",
        "name":"Air Hitam, JB",
        "street":"Lot 773 (GF), Jalan Batu Pahat",
        "city":"Ayer Hitam",
        "state":"Johor",
        "postcode":"86100",
        "country":"Malaysia",
        "phone":"",
        "opening_hours":null,
        "lat":1.917263,
        "lng":103.179444,
        "brand":"7-Eleven"
    },
    {
        "id":"217",
        "name":"Airport Sport Nilai N9 (24 hrs)",
        "street":"PT 22318, Lot No 1 (GF), Jalan Kolej, Desa Kolej, Putra Nilai",
        "city":"Nilai",
        "state":"Negeri Sembilan",
        "postcode":"71800",
        "country":"Malaysia",
        "phone":"",
        "opening_hours":null,
        "lat":2.8152331,
        "lng":101.7758826,
        "brand":"7-Eleven"
    },
    {
        "id":"1741",
        "name":"Al-Bayt Square Miri SWK",
        "street":"Lot 3531 (GF), Al \u2013 Bayt Square, Jalan Miri Pujut",
        "city":"Miri",
        "state":"Sarawak",
        "postcode":"98000",
        "country":"Malaysia",
        "phone":"",
        "opening_hours":null,
        "lat":4.412939,
        "lng":114.010261,
        "brand":"7-Eleven"
    },
    {
        "id":"2413",
        "name":"Alam Avenue Sek16 SA",
        "street":"No A-2-G (GF), Jalan Serai Wangi F16\/F, Alam Avenue, Persiaran Selangor, Seksyen 16",
        "city":"Shah Alam",
        "state":"Selangor",
        "postcode":"40200",
        "country":"Malaysia",
        "phone":"",
        "opening_hours":null,
        "lat":3.057604,
        "lng":101.49164,
        "brand":"7-Eleven"
    },
    {
        "id":"1873",
        "name":"Alam Budiman, Shah Alam (24 hrs)",
        "street":"No 33 (GF) Jalan Pulau Lumut P U10\/P, Taman Alam Budiman",
        "city":"Shah Alam",
        "state":"Selangor",
        "postcode":"40150",
        "country":"Malaysia",
        "phone":"",
        "opening_hours":null,
        "lat":3.144501,
        "lng":101.481512,
        "brand":"7-Eleven"
    },
    {
        "id":"1814",
        "name":"Alam Idaman Apmnt, SA",
        "street":"G-10, Alam Idaman Apartment, No 2, Jalan Budiman 22\/3",
        "city":"Shah Alam",
        "state":"Selangor",
        "postcode":"40300",
        "country":"Malaysia",
        "phone":"",
        "opening_hours":null,
        "lat":3.066906,
        "lng":101.554586,
        "brand":"7-Eleven"
    },
    {
        "id":"458",
        "name":"Alam Jaya Kajang",
        "street":"No. 36 Jalan Alam Jaya 15, Taman Aman Jaya, Batu 9 Cheras",
        "city":"Kajang",
        "state":"Selangor",
        "postcode":"43200",
        "country":"Malaysia",
        "phone":"",
        "opening_hours":null,
        "lat":3.080411,
        "lng":101.764925,
        "brand":"7-Eleven"
    },
    {
        "id":"2189",
        "name":"Alamanda Sik Kedah (24 hrs)",
        "street":"No. 4 (GF), Susur Alamanda 2, Pusat Perniagaan Alamanda",
        "city":"Sik",
        "state":"Kedah",
        "postcode":"8200",
        "country":"Malaysia",
        "phone":"",
        "opening_hours":null,
        "lat":5.815314,
        "lng":100.740163,
        "brand":"7-Eleven"
    },
    {
        "id":"982",
        "name":"ALAMESRA KOTA KINABALU,SABAH (24 hrs)",
        "street":"Lot 18 (GF), Block B, Lorong Plaza Permai 1, Alamesra PH 1, Jalan Sulaman",
        "city":"Kota Kinabalu",
        "state":"Sabah",
        "postcode":"88450",
        "country":"Malaysia",
        "phone":"",
        "opening_hours":null,
        "lat":6.0326737,
        "lng":116.1316708,
        "brand":"7-Eleven"
    },
    {
        "id":"553",
        "name":"Alma Bkt Mertajam Pg (24 hrs)",
        "street":"No 3091 (GF) Jalan Rozhan, Taman Rozhan Alma",
        "city":"Bukit Mertajam",
        "state":"Pulau Pinang",
        "postcode":"1400",
        "country":"Malaysia",
        "phone":"",
        "opening_hours":null,
        "lat":5.332547,
        "lng":100.480882,
        "brand":"7-Eleven"
    },
    {
        "id":"2202",
        "name":"Alma II BM PG (24 hrs)",
        "street":"No 9 (GF), Jalan Perniagaan, Pusat Perniagaan Alma",
        "city":"Bukit Mertajam",
        "state":"Pulau Pinang",
        "postcode":"14000",
        "country":"Malaysia",
        "phone":"",
        "opening_hours":null,
        "lat":5.33005,
        "lng":100.47699,
        "brand":"7-Eleven"
    },
    {
        "id":"247",
        "name":"Alor Lintang Trg (24 hrs)",
        "street":"Lot 2667 (GF), Jalan Amir Alor Lintang II, Taman Muji",
        "city":"Kampung Raja",
        "state":"Terengganu",
        "postcode":"22200",
        "country":"Malaysia",
        "phone":"",
        "opening_hours":null,
        "lat":5.7781226,
        "lng":102.5478515,
        "brand":"7-Eleven"
    },
    {
        "id":"2460",
        "name":"Alor Mengkudu AS Kdh (24 hrs)",
        "street":"No 4 (GF), Kompleks Perniagaan Taman Saga, Jalan Alor Mengkudu",
        "city":"Alor Setar",
        "state":"Kedah",
        "postcode":"5400",
        "country":"Malaysia",
        "phone":"",
        "opening_hours":null,
        "lat":6.094713,
        "lng":100.379947,
        "brand":"7-Eleven"
    },
    {
        "id":"1396",
        "name":"Alsagoff Pontian Joh",
        "street":"No 280, Ground Floor, Jalan Alsagoff",
        "city":"Pontian",
        "state":"Johor",
        "postcode":"82000",
        "country":"Malaysia",
        "phone":"",
        "opening_hours":null,
        "lat":1.485892,
        "lng":103.389282,
        "brand":"7-Eleven"
    },
    {
        "id":"1889",
        "name":"Aman Central A. Setar (24 hrs)",
        "street":"Unit No. G-09, Ground Floor, Aman Central",
        "city":"Alor Setar",
        "state":"Kedah",
        "postcode":"5000",
        "country":"Malaysia",
        "phone":"",
        "opening_hours":null,
        "lat":6.1248416,
        "lng":100.366019,
        "brand":"7-Eleven"
    },
    {
        "id":"2078",
        "name":"Aman Perdana Klang (24 hrs)",
        "street":"No 47 (GF) Jalan Aman Perdana 10C\/KU5, Taman Aman Perdana",
        "city":"Klang",
        "state":"Selangor",
        "postcode":"40150",
        "country":"Malaysia",
        "phone":"",
        "opening_hours":null,
        "lat":3.093205,
        "lng":101.408231,
        "brand":"7-Eleven"
    },
    {
        "id":"441",
        "name":"Aman Puri Kepong (24 hrs)",
        "street":"No. 1-33A-A (GF), Jalan Desa 1\/3, Aman Puri",
        "city":"Kepong",
        "state":"Kuala Lumpur",
        "postcode":"52100",
        "country":"Malaysia",
        "phone":"",
        "opening_hours":null,
        "lat":3.211531,
        "lng":101.615837,
        "brand":"7-Eleven"
    },
    {
        "id":"1731",
        "name":"Aman Square Sg Petani KDH (24 hrs)",
        "street":"No 2 (GF), Aman Square Jalan Kuala Ketil",
        "city":"Sungai Petani",
        "state":"Kedah",
        "postcode":"8000",
        "country":"Malaysia",
        "phone":"",
        "opening_hours":null,
        "lat":5.6347082,
        "lng":100.5140072,
        "brand":"7-Eleven"
    },
    {
        "id":"663",
        "name":"Aman Suria PJ",
        "street":"No. B-G-16 (GF), Jalan PJU 1\/43, Taman Aman Suria,",
        "city":"Petaling Jaya",
        "state":"Selangor",
        "postcode":"47301",
        "country":"Malaysia",
        "phone":"",
        "opening_hours":null,
        "lat":3.122034,
        "lng":101.59527,
        "brand":"7-Eleven"
    },
    {
        "id":"1170",
        "name":"Amanjaya Mall KED",
        "street":"Lot G15B, Ground Floor, No 1, Jalan Jati 1, Kompleks Amanjaya",
        "city":"Sungai Petani",
        "state":"Kedah",
        "postcode":"8000",
        "country":"Malaysia",
        "phone":"",
        "opening_hours":null,
        "lat":5.673552,
        "lng":100.508928,
        "brand":"7-Eleven"
    },
    {
        "id":"1709",
        "name":"AMBER QUAYSIDE SEL (24 hrs)",
        "street":"Ground Floor Unit 2 (GF-02), Quayside Shoppes @ Twentyfive.7, Persiaran Oleander, Gamuda Kemuning 25.7",
        "city":"Telok Panglima Garang",
        "state":"Selangor",
        "postcode":"42500",
        "country":"Malaysia",
        "phone":"",
        "opening_hours":null,
        "lat":2.9550513,
        "lng":101.5517824,
        "brand":"7-Eleven"
    },
    {
        "id":"392",
        "name":"Ambong Kepong",
        "street":"No 11 (GF), Jalan Ambong Kiri 2",
        "city":"Kepong Baru",
        "state":"Kuala Lumpur",
        "postcode":"51200",
        "country":"Malaysia",
        "phone":"",
        "opening_hours":null,
        "lat":3.210226,
        "lng":101.647398,
        "brand":"7-Eleven"
    },
    {
        "id":"1720",
        "name":"Amerin Hotel, Tmn Perling JB JOH",
        "street":"Lot G-03, Ground Floor, Amerin Hotel, No. 35, Jalan Persisiran Perling 1, Taman Perling",
        "city":"Johor Bahru",
        "state":"Johor",
        "postcode":"81200",
        "country":"Malaysia",
        "phone":"",
        "opening_hours":null,
        "lat":1.496814,
        "lng":103.682841,
        "brand":"7-Eleven"
    },
    {
        "id":"1516",
        "name":"Amerin Mall, Seri Kembangan (24hrs)",
        "street":"No. G-10, Ground Floor, The Amerin Mall, Jalan Impian Indah, Taman Impian Indah",
        "city":"Seri Kembangan",
        "state":"Selangor",
        "postcode":"43300",
        "country":"Malaysia",
        "phone":"",
        "opening_hours":null,
        "lat":3.0249731,
        "lng":101.7511225,
        "brand":"7-Eleven"
    },
    {
        "id":"1343",
        "name":"Ampang B. Centre Alor Setar KDH (24 hrs)",
        "street":"TG2 (GF), Kompleks Perniagaan Ampang, Lebuhraya Sultanah Bahiyah",
        "city":"Alor Setar",
        "state":"Kedah",
        "postcode":"5050",
        "country":"Malaysia",
        "phone":"",
        "opening_hours":null,
        "lat":6.111827,
        "lng":100.351557,
        "brand":"7-Eleven"
    },
    {
        "id":"2260",
        "name":"Ampang Baru PK (24 hrs)",
        "street":"No 9 (GF), Jalan Ampang Baru 6B, Ampang Baru New Village",
        "city":"Ipoh",
        "state":"Perak",
        "postcode":"31350",
        "country":"Malaysia",
        "phone":"",
        "opening_hours":null,
        "lat":4.584689,
        "lng":101.126674,
        "brand":"7-Eleven"
    },
    {
        "id":"445",
        "name":"Ampang Hilir (24hrs)",
        "street":"No. 55, Jalan Sulaiman 3, Taman Ampang Hilir",
        "city":"Ampang",
        "state":"Selangor",
        "postcode":"68000",
        "country":"Malaysia",
        "phone":"",
        "opening_hours":null,
        "lat":3.150535,
        "lng":101.748467,
        "brand":"7-Eleven"
    },
    {
        "id":"301",
        "name":"Ampang Jaya Sel (24hrs)",
        "street":"No. 18, Lorong Kerja Ayer Lama",
        "city":"Ampang",
        "state":"Selangor",
        "postcode":"68000",
        "country":"Malaysia",
        "phone":"",
        "opening_hours":null,
        "lat":3.160793,
        "lng":101.758641,
        "brand":"7-Eleven"
    },
    {
        "id":"423",
        "name":"Ampang Jln Wawasan (24hrs)",
        "street":"No 11G, Jalan Wawasan Ampang 2\/3, Bandar Baru Ampang",
        "city":"Ampang",
        "state":"Selangor",
        "postcode":"68000",
        "country":"Malaysia",
        "phone":"",
        "opening_hours":null,
        "lat":3.145653,
        "lng":101.767119,
        "brand":"7-Eleven"
    },
    {
        "id":"20",
        "name":"Ampang Point, KL (24hrs)",
        "street":"No. 55, Jalan Mamanda 9",
        "city":"Taman Dato Razali",
        "state":"Selangor",
        "postcode":"68000",
        "country":"Malaysia",
        "phone":"",
        "opening_hours":null,
        "lat":3.158987,
        "lng":101.751715,
        "brand":"7-Eleven"
    },
    {
        "id":"111",
        "name":"Ampang Utama KL (24hrs)",
        "street":"No C-17 (GF), Jalan Ampang Utama 1\/1, Taman Ampang Utama",
        "city":"Ampang",
        "state":"Selangor",
        "postcode":"68000",
        "country":"Malaysia",
        "phone":"",
        "opening_hours":null,
        "lat":3.154387,
        "lng":101.751214,
        "brand":"7-Eleven"
    },
    {
        "id":"393",
        "name":"Ampangan Sbn N9 (24 hrs)",
        "street":"No. 19 (GF), Bangunan Uda, Bandar Baru Ampangan, Batu 2 Jalan Kuala Pilah",
        "city":"Seremban",
        "state":"Negeri Sembilan",
        "postcode":"70400",
        "country":"Malaysia",
        "phone":"",
        "opening_hours":null,
        "lat":2.723953,
        "lng":101.962738,
        "brand":"7-Eleven"
    },
    {
        "id":"165",
        "name":"Angerik Perdana,KJG",
        "street":"No 13 (GF), Jalan Anggerik Perdana 1, Taman Anggerik Perdana",
        "city":"Semenyih",
        "state":"Selangor",
        "postcode":"43500",
        "country":"Malaysia",
        "phone":"",
        "opening_hours":null,
        "lat":2.973719,
        "lng":101.824671,
        "brand":"7-Eleven"
    },
    {
        "id":"2594",
        "name":"Anggerik Eria SA",
        "street":"No. 7 (GF), Jalan Anggerik Eria AU 31\/AU, Kota Kemuning, Seksyen 31",
        "city":"Shah Alam",
        "state":"Selangor",
        "postcode":"40460",
        "country":"Malaysia",
        "phone":"",
        "opening_hours":null,
        "lat":2.993318,
        "lng":101.531157,
        "brand":"7-Eleven"
    },
    {
        "id":"262",
        "name":"Anggun City SEL (24 hrs)",
        "street":"No 19-1 (GF), Jalan Anggun City 1, Pusat Komersial Anggun City, Taman Anggun",
        "city":"Rawang",
        "state":"Selangor",
        "postcode":"48000",
        "country":"Malaysia",
        "phone":"",
        "opening_hours":null,
        "lat":3.3174164,
        "lng":101.5360432,
        "brand":"7-Eleven"
    },
    {
        "id":"215",
        "name":"Antara Gapi Serendah (24 hrs)",
        "street":"No. 1 (GF), Jalan Gapi 1A\/3, Antara Gapi",
        "city":"Serendah",
        "state":"Selangor",
        "postcode":"48200",
        "country":"Malaysia",
        "phone":"",
        "opening_hours":null,
        "lat":3.423097,
        "lng":101.627765,
        "brand":"7-Eleven"
    },
    {
        "id":"919",
        "name":"Api-Api Centre KK (24 hrs)",
        "street":"No 3-0-7 (GF), Block 3, Api-Api Centre, Lebuhraya Pantai Baru",
        "city":"Kota Kinabalu",
        "state":"Sabah",
        "postcode":"88000",
        "country":"Malaysia",
        "phone":"",
        "opening_hours":null,
        "lat":5.97524,
        "lng":116.070358,
        "brand":"7-Eleven"
    },
    {
        "id":"893",
        "name":"Api-Api KK (24 hrs)",
        "street":"3-0-11, Lot 3G\/11, Block 3, Lorong Api-Api, Api-Api Centre",
        "city":"Kota Kinabalu",
        "state":"Sabah",
        "postcode":"88000",
        "country":"Malaysia",
        "phone":"",
        "opening_hours":null,
        "lat":5.975867,
        "lng":116.070025,
        "brand":"7-Eleven"
    },
    {
        "id":"1247",
        "name":"Arc Ampang Ukay SEL (24hrs)",
        "street":"B2-14, Arc @ Ampang Ukay, Persiaran Ampang Ukay",
        "city":"Ampang",
        "state":"Selangor",
        "postcode":"68000",
        "country":"Malaysia",
        "phone":"",
        "opening_hours":null,
        "lat":3.172092,
        "lng":101.7568,
        "brand":"7-Eleven"
    },
    {
        "id":"467",
        "name":"Arena Green B.Jalil (24hrs)",
        "street":"No. D-0-5 &amp; D-0-6 Block D, Arena Green Artment, Jalan 1\/155A",
        "city":"Bukit Jalil",
        "state":"Kuala Lumpur",
        "postcode":"57000",
        "country":"Malaysia",
        "phone":"",
        "opening_hours":null,
        "lat":3.052465,
        "lng":101.687919,
        "brand":"7-Eleven"
    },
    {
        "id":"1572",
        "name":"Arena Square Jln Yahya Ahmad, Dungun Trg (24 hrs)",
        "street":"Lot 6275 (GF), Bangunan Wisma Bukit Besi, Jalan Yahaya Ahmad",
        "city":"Dungun",
        "state":"Terengganu",
        "postcode":"23000",
        "country":"Malaysia",
        "phone":"",
        "opening_hours":null,
        "lat":4.767734,
        "lng":103.4199151,
        "brand":"7-Eleven"
    },
    {
        "id":"1699",
        "name":"ASPIRA GARDEN JHR (24 hrs)",
        "street":"No 17 (GF), Jalan Niaga Aspira 1\/1, Gerbang Nusajaya",
        "city":"Iskandar Puteri",
        "state":"Johor",
        "postcode":"79200",
        "country":"Malaysia",
        "phone":"",
        "opening_hours":null,
        "lat":1.4201357,
        "lng":103.5933643,
        "brand":"7-Eleven"
    },
    {
        "id":"632",
        "name":"Assunta, PJ (24 hrs)",
        "street":"Assunta Hospital, Jalan Templer",
        "city":"Petaling Jaya",
        "state":"Selangor",
        "postcode":"46000",
        "country":"Malaysia",
        "phone":"",
        "opening_hours":null,
        "lat":3.093441,
        "lng":101.645054,
        "brand":"7-Eleven"
    },
    {
        "id":"2408",
        "name":"AssyakirinSquare Swk (24 hrs)",
        "street":"No 240 (PT 7869), Jalan Sultan Iskandar, Assyakirin Commerce Square PH2",
        "city":"Bintulu",
        "state":"Sarawak",
        "postcode":"97000",
        "country":"Malaysia",
        "phone":"",
        "opening_hours":null,
        "lat":3.197832,
        "lng":113.055672,
        "brand":"7-Eleven"
    },
    {
        "id":"33",
        "name":"Astana Utama Sek 13 (24 hrs)",
        "street":"No 26 (GF), Jalan Astana D 13\/D, Pusat Niaga Astana Utama Sek 13",
        "city":"Puncak Alam",
        "state":"Selangor",
        "postcode":"42300",
        "country":"Malaysia",
        "phone":"",
        "opening_hours":null,
        "lat":3.244711,
        "lng":101.426387,
        "brand":"7-Eleven"
    },
    {
        "id":"2042",
        "name":"Astana View Kuantan (24 hrs)",
        "street":"No. B20 (GF), Lorong IM 15\/18, Bandar Indera Mahkota",
        "city":"Kuantan",
        "state":"Pahang",
        "postcode":"25200",
        "country":"Malaysia",
        "phone":"",
        "opening_hours":null,
        "lat":3.829075,
        "lng":103.271281,
        "brand":"7-Eleven"
    },
    {
        "id":"1066",
        "name":"ATTA Hotel, BM PEN (24 hrs)",
        "street":"No 9, Solok Betek 1, Taman Sri Jaya",
        "city":"Bukit Mertajam",
        "state":"Pulau Pinang",
        "postcode":"14000",
        "country":"Malaysia",
        "phone":"",
        "opening_hours":null,
        "lat":5.364107,
        "lng":100.449899,
        "brand":"7-Eleven"
    },
    {
        "id":"82",
        "name":"AU2 Keramat KL",
        "street":"No. 17, Jalan AU 2A\/17",
        "city":"Taman Sri Keramat",
        "state":"Kuala Lumpur",
        "postcode":"54200",
        "country":"Malaysia",
        "phone":"",
        "opening_hours":null,
        "lat":3.172142,
        "lng":101.750914,
        "brand":"7-Eleven"
    },
    {
        "id":"357",
        "name":"AU4 Ampang (24hrs)",
        "street":"No. 8, Jalan AU4\/1, Taman Sri Keramat Tengah, Taman Bukit Teratai",
        "city":"Ampang",
        "state":"Selangor",
        "postcode":"68000",
        "country":"Malaysia",
        "phone":"",
        "opening_hours":null,
        "lat":3.197077,
        "lng":101.75922,
        "brand":"7-Eleven"
    },
    {
        "id":"1342",
        "name":"Aurora Place Bkt Jalil KL",
        "street":"A-01-04, Aurora Place Bukit Jalil, No. 1, Jalan Persiaran Jalil 1",
        "city":"Bukit Jalil",
        "state":"Kuala Lumpur",
        "postcode":"57000",
        "country":"Malaysia",
        "phone":"",
        "opening_hours":null,
        "lat":3.053749,
        "lng":101.670095,
        "brand":"7-Eleven"
    },
    {
        "id":"278",
        "name":"Aurora Place KL",
        "street":"A-01-04, Aurora Place Bukit Jalil, No. 1, Jalan Persiaran Jalil 1, Bandar Bukit Jalil",
        "city":"Bukit Jalil",
        "state":"Kuala Lumpur",
        "postcode":"57000",
        "country":"Malaysia",
        "phone":"",
        "opening_hours":null,
        "lat":3.0541064,
        "lng":101.6701151,
        "brand":"7-Eleven"
    },
    {
        "id":"1751",
        "name":"Aurora Walk,Bahau, N9",
        "street":"No 9 (GF) Aurora Walk, Jalan Tecoma 1, Pusat Perniagaan Tecoma",
        "city":"Bahau",
        "state":"Negeri Sembilan",
        "postcode":"72100",
        "country":"Malaysia",
        "phone":"",
        "opening_hours":null,
        "lat":2.808301,
        "lng":102.395955,
        "brand":"7-Eleven"
    },
    {
        "id":"991",
        "name":"Austin Heights JB (24 hrs)",
        "street":"No. 111 (GF), Jalan Austin Heights 3, Austin Heights,Taman Mount Austin",
        "city":"Johor Bahru",
        "state":"Johor",
        "postcode":"81100",
        "country":"Malaysia",
        "phone":"",
        "opening_hours":null,
        "lat":1.561657,
        "lng":103.778653,
        "brand":"7-Eleven"
    },
    {
        "id":"2010",
        "name":"Austin Waterpark,JB (24 hrs)",
        "street":"No 22 (GF) Jalan Austin Height 8\/2, Taman Mount Austin",
        "city":"Johor Bahru",
        "state":"Johor",
        "postcode":"81100",
        "country":"Malaysia",
        "phone":"",
        "opening_hours":null,
        "lat":1.56177,
        "lng":103.776459,
        "brand":"7-Eleven"
    },
    {
        "id":"1920",
        "name":"Auto City Juru PG (24 hrs)",
        "street":"No 1819-C, Jalan Perusahaan, Auto-City, North South Highway Juru Interchange",
        "city":"Prai",
        "state":"Penang",
        "postcode":"13600",
        "country":"Malaysia",
        "phone":"",
        "opening_hours":null,
        "lat":5.338128,
        "lng":100.429078,
        "brand":"7-Eleven"
    },
    {
        "id":"2220",
        "name":"Avenue K, KL",
        "street":"Lot UC-4, Upper Concourse Level, Avenue K, 156",
        "city":"Jalan Ampang",
        "state":"Kuala Lumpur",
        "postcode":"50450",
        "country":"Malaysia",
        "phone":"",
        "opening_hours":null,
        "lat":3.159183,
        "lng":101.713539,
        "brand":"7-Eleven"
    },
    {
        "id":"157",
        "name":"AVIA Plus SEL (24 hrs)",
        "street":"G-19, Avia Plus, Jalan Desa Utama, Bandar Country Homes",
        "city":"Rawang",
        "state":"Selangor",
        "postcode":"48000",
        "country":"Malaysia",
        "phone":"",
        "opening_hours":null,
        "lat":3.323572,
        "lng":101.526664,
        "brand":"7-Eleven"
    },
    {
        "id":"1476",
        "name":"Awana Skyway, Genting Highlands",
        "street":"Lot No 3-10 &amp; 3-K02, Level 3, Awana Skyway Station Genting Highlands Resort",
        "city":"Genting Highlands",
        "state":"Pahang",
        "postcode":"69000",
        "country":"Malaysia",
        "phone":"",
        "opening_hours":null,
        "lat":3.404054,
        "lng":101.783447,
        "brand":"7-Eleven"
    },
    {
        "id":"2418",
        "name":"Ayer Itam Pg",
        "street":"No 17C (GF), Jalan Ayer Itam MK 13",
        "city":"Ayer Hitam",
        "state":"Pulau Pinang",
        "postcode":"11400",
        "country":"Malaysia",
        "phone":"",
        "opening_hours":null,
        "lat":5.404256,
        "lng":100.289018,
        "brand":"7-Eleven"
    },
    {
        "id":"338",
        "name":"Ayer Keroh Height Mlk (24 hrs)",
        "street":"No. 12, Ayer Keroh Heights",
        "city":"Ayer Keroh",
        "state":"Melaka",
        "postcode":"75450",
        "country":"Malaysia",
        "phone":"",
        "opening_hours":null,
        "lat":2.255407,
        "lng":102.291386,
        "brand":"7-Eleven"
    },
    {
        "id":"886",
        "name":"Ayer Tawar Prk (24 hrs)",
        "street":"No 11 (GF) Jalan Seri Sentosa 1, Taman Medan Seri Sentosa",
        "city":"Ayer Tawar",
        "state":"Perak",
        "postcode":"32400",
        "country":"Malaysia",
        "phone":"",
        "opening_hours":null,
        "lat":4.293818,
        "lng":100.753073,
        "brand":"7-Eleven"
    },
    {
        "id":"2566",
        "name":"B.B KangkarPulai Jhr (24 hrs)",
        "street":"No 21 (GF), Jalan Pulai Bistari 1, Bandar Baru Kangkar Pulai",
        "city":"Pulai",
        "state":"Johor",
        "postcode":"81110",
        "country":"Malaysia",
        "phone":"",
        "opening_hours":null,
        "lat":1.564121,
        "lng":103.591257,
        "brand":"7-Eleven"
    },
    {
        "id":"1379",
        "name":"B.B PASIR PEKAN KLT (24 hrs)",
        "street":"PT 3300 Ground Floor, Taman Sri Kota, Bandar Baru Pasir Pekan, Wakaf Bharu",
        "city":"Tumpat",
        "state":"Kelantan",
        "postcode":"1625",
        "country":"Malaysia",
        "phone":"",
        "opening_hours":null,
        "lat":6.119406433,
        "lng":102.2161102,
        "brand":"7-Eleven"
    },
    {
        "id":"1049",
        "name":"B.Baru Kuala Krai KEL (24 hrs)",
        "street":"No 17, Jalan LF 1, Laman Firdaus, Bandar Baru Kuala Krai",
        "city":"Kuala Krai",
        "state":"Kelantan",
        "postcode":"18000",
        "country":"Malaysia",
        "phone":"",
        "opening_hours":null,
        "lat":5.493879,
        "lng":102.223101,
        "brand":"7-Eleven"
    },
    {
        "id":"1230",
        "name":"B.Baru Selayang 2 SEL (24hrs)",
        "street":"No. 5 (GF), Jalan 2A\/1, Fasa 2A, Bandar Baru Selayang",
        "city":"Batu Caves",
        "state":"Selangor",
        "postcode":"68100",
        "country":"Malaysia",
        "phone":"",
        "opening_hours":null,
        "lat":3.262909,
        "lng":101.67807,
        "brand":"7-Eleven"
    },
    {
        "id":"2547",
        "name":"B.TunHusseinOnn2 Kjg",
        "street":"No 24 (GF), Jalan Suarasa 8\/4, Bandar Tun Hussien Onn",
        "city":"Cheras",
        "state":"Selangor",
        "postcode":"43200",
        "country":"Malaysia",
        "phone":"",
        "opening_hours":null,
        "lat":3.046457,
        "lng":101.759794,
        "brand":"7-Eleven"
    },
    {
        "id":"549",
        "name":"Bagan Ajam B'worth Pg (24 hrs)",
        "street":"No 7096 (GF) Jalan Bagan Ajam, Taman Bagan Ajam",
        "city":"Butterworth",
        "state":"Pulau Pinang",
        "postcode":"13000",
        "country":"Malaysia",
        "phone":"",
        "opening_hours":null,
        "lat":5.435508,
        "lng":100.380468,
        "brand":"7-Eleven"
    },
    {
        "id":"1694",
        "name":"Bagan Luar 2 PG (24 hrs)",
        "street":"No 4708 (GF), Jalan Bagan Luar",
        "city":"Butterworth",
        "state":"Pulau Pinang",
        "postcode":"12000",
        "country":"Malaysia",
        "phone":"",
        "opening_hours":null,
        "lat":5.404765,
        "lng":100.369187,
        "brand":"7-Eleven"
    },
    {
        "id":"2212",
        "name":"Bagan Luar PG",
        "street":"No 4708 (GF), Jalan Bagan Luar",
        "city":"Butterworth",
        "state":"Pulau Pinang",
        "postcode":"12000",
        "country":"Malaysia",
        "phone":"",
        "opening_hours":null,
        "lat":5.408216,
        "lng":100.37067,
        "brand":"7-Eleven"
    },
    {
        "id":"814",
        "name":"Bagan Serai Prk (24 hrs)",
        "street":"No 245 (GF), Jalan Besar",
        "city":"Bagan Serai",
        "state":"Perak",
        "postcode":"34300",
        "country":"Malaysia",
        "phone":"",
        "opening_hours":null,
        "lat":5.012586,
        "lng":100.533904,
        "brand":"7-Eleven"
    },
    {
        "id":"1253",
        "name":"Bagan Specialist PG (24 hrs)",
        "street":"No. D1-102D-RE, D1-102E-RE, Level 1, Block D, Bagan Specialist Centre, Jalan Bagan 1",
        "city":"Butterworth",
        "state":"Pulau Pinang",
        "postcode":"13400",
        "country":"Malaysia",
        "phone":"",
        "opening_hours":null,
        "lat":5.410603,
        "lng":100.385852,
        "brand":"7-Eleven"
    },
    {
        "id":"2233",
        "name":"Bakar Arang, Kedah (24 hrs)",
        "street":"No 37A (GF), Jalan Bakar Arang",
        "city":"Sungai Petani",
        "state":"Kedah",
        "postcode":"8000",
        "country":"Malaysia",
        "phone":"",
        "opening_hours":null,
        "lat":5.626265,
        "lng":100.479978,
        "brand":"7-Eleven"
    },
    {
        "id":"2264",
        "name":"Balai Kemasin, Kltn (24 hrs)",
        "street":"No 1441-A (GF), Kg Balai Kemasin",
        "city":"Bachok",
        "state":"Kelantan",
        "postcode":"16300",
        "country":"Malaysia",
        "phone":"",
        "opening_hours":null,
        "lat":6.104061,
        "lng":102.376637,
        "brand":"7-Eleven"
    },
    {
        "id":"2257",
        "name":"Balok Commercial KTN (24 hrs)",
        "street":"No B18 (GF), Lorong Balok Darat 15, Pusat Perkhidmatan Balok",
        "city":"Kuantan",
        "state":"Pahang",
        "postcode":"26100",
        "country":"Malaysia",
        "phone":"",
        "opening_hours":null,
        "lat":3.935508,
        "lng":103.368207,
        "brand":"7-Eleven"
    },
    {
        "id":"1296",
        "name":"Balok Perdana Kuantan PHG (24 hrs)",
        "street":"No B40 (GF), Lorong Balok Perdana 3\/3, Balok Perdana",
        "city":"Kuantan",
        "state":"Pahang",
        "postcode":"26100",
        "country":"Malaysia",
        "phone":"",
        "opening_hours":null,
        "lat":3.961578,
        "lng":103.372086,
        "brand":"7-Eleven"
    },
    {
        "id":"975",
        "name":"Balok Phg (24 hrs)",
        "street":"No B1130\/8 Lorong Chengal Lempong Aman 4, Jalan Kuantan-Kemaman, Perkampungan Chengal Lempong Aman",
        "city":"Balok",
        "state":"Pahang",
        "postcode":"26400",
        "country":"Malaysia",
        "phone":"",
        "opening_hours":null,
        "lat":3.919097,
        "lng":103.365451,
        "brand":"7-Eleven"
    },
    {
        "id":"1293",
        "name":"Bandar 16 Sierra SEL",
        "street":"No. 5 (GF), Jalan Sierra 10\/1, Bandar 16 Sierra",
        "city":"Puchong",
        "state":"Selangor",
        "postcode":"47120",
        "country":"Malaysia",
        "phone":"",
        "opening_hours":null,
        "lat":2.972633,
        "lng":101.658445,
        "brand":"7-Eleven"
    },
    {
        "id":"1616",
        "name":"Bandar Amanjaya, Sungai Petani,Kdh (24 hrs)",
        "street":"No 15, Jalan Melor 1\/1, Persiaran Amanjaya 5, Bandar Amanjaya",
        "city":"Sungai Petani",
        "state":"Kedah",
        "postcode":"8000",
        "country":"Malaysia",
        "phone":"",
        "opening_hours":null,
        "lat":5.7030396,
        "lng":100.536806,
        "brand":"7-Eleven"
    },
    {
        "id":"2125",
        "name":"Bandar Bachok, KLTN (24 hrs)",
        "street":"PT 146 (GF), Bandar Bachok",
        "city":"Bachok",
        "state":"Kelantan",
        "postcode":"16300",
        "country":"Malaysia",
        "phone":"",
        "opening_hours":null,
        "lat":6.060242,
        "lng":102.401673,
        "brand":"7-Eleven"
    },
    {
        "id":"274",
        "name":"Bandar Baru K. Lipis Pahang",
        "street":"No 6 (GF), BBKL, Bandar Baru Kuala Lipis",
        "city":"Kuala Lipis",
        "state":"Pahang",
        "postcode":"27200",
        "country":"Malaysia",
        "phone":"",
        "opening_hours":null,
        "lat":3.1319197,
        "lng":101.6840589,
        "brand":"7-Eleven"
    },
    {
        "id":"1153",
        "name":"Bandar Baru Kangkar Pulai JOH (24 hrs)",
        "street":"No. 2 (GF), PTD 103527, Jalan Pulai Ria 9, Bandar Baru Kangkar Pulai",
        "city":"Johor Bahru",
        "state":"Johor",
        "postcode":"81300",
        "country":"Malaysia",
        "phone":"",
        "opening_hours":null,
        "lat":1.564793,
        "lng":103.587153,
        "brand":"7-Eleven"
    },
    {
        "id":"286",
        "name":"Bandar Baru Kerteh TRG (24 hrs)",
        "street":"Lot 12345 (GF), Jalan Kemaman Dungun",
        "city":"Kemaman",
        "state":"Terengganu",
        "postcode":"24300",
        "country":"Malaysia",
        "phone":"",
        "opening_hours":null,
        "lat":4.5386933,
        "lng":103.4280586,
        "brand":"7-Eleven"
    },
    {
        "id":"1551",
        "name":"Bandar Baru Kerteh,Trg (24 hrs)",
        "street":"Lot 12345 (GF), Jalan Kemaman Dungun, Bandar Kertih (Kopetro)",
        "city":"Kemaman",
        "state":"Terengganu",
        "postcode":"24000",
        "country":"Malaysia",
        "phone":"",
        "opening_hours":null,
        "lat":4.5084119,
        "lng":103.4436902,
        "brand":"7-Eleven"
    },
    {
        "id":"1113",
        "name":"Bandar Baru Medan Ipoh PRK",
        "street":"No 19 (GF), Jalan Medan Ipoh 5, Bandar Baru Medan Ipoh",
        "city":"Ipoh",
        "state":"Perak",
        "postcode":"31400",
        "country":"Malaysia",
        "phone":"",
        "opening_hours":null,
        "lat":4.616602,
        "lng":101.121343,
        "brand":"7-Eleven"
    },
    {
        "id":"152",
        "name":"Bandar Baru Selayang SEL (24hrs)",
        "street":"No. 69 (GF), Jalan 2\/16, Bandar Baru Selayang",
        "city":"Selayang",
        "state":"Selangor",
        "postcode":"68100",
        "country":"Malaysia",
        "phone":"",
        "opening_hours":null,
        "lat":3.256424,
        "lng":101.656142,
        "brand":"7-Eleven"
    },
    {
        "id":"227",
        "name":"Bandar Baru Sg Buloh 3\/1 Sel (24 hrs)",
        "street":"Lot 2125 (GF), Jalan 3\/1, Bandar Baru Sungai Buluh",
        "city":"Sungai Buloh",
        "state":"Selangor",
        "postcode":"47000",
        "country":"Malaysia",
        "phone":"",
        "opening_hours":null,
        "lat":3.203824,
        "lng":101.560399,
        "brand":"7-Eleven"
    },
    {
        "id":"1479",
        "name":"Bandar Bentara Tumpat Kelantan (24 hrs)",
        "street":"PT 3974, Ground Floor Jalan Setia 3, Bandar Bentara Tumpat",
        "city":"Melor",
        "state":"Kelantan",
        "postcode":"16200",
        "country":"Malaysia",
        "phone":"",
        "opening_hours":null,
        "lat":6.191597,
        "lng":102.168754,
        "brand":"7-Eleven"
    },
    {
        "id":"1072",
        "name":"Bandar Bentong Phg",
        "street":"No 1 (GF), Jalan Ah Peng",
        "city":"Bentong",
        "state":"Pahang",
        "postcode":"28700",
        "country":"Malaysia",
        "phone":"",
        "opening_hours":null,
        "lat":3.52561,
        "lng":101.906346,
        "brand":"7-Eleven"
    },
    {
        "id":"2124",
        "name":"Bandar Bera Pahang (24 hrs)",
        "street":"No 32 (GF) Jalan Kerayong 5, Bandar Bera",
        "city":"Triang",
        "state":"Pahang",
        "postcode":"28200",
        "country":"Malaysia",
        "phone":"",
        "opening_hours":null,
        "lat":3.271953,
        "lng":102.455562,
        "brand":"7-Eleven"
    },
    {
        "id":"2044",
        "name":"Bandar Bkt Raja KLG (24 hrs)",
        "street":"No 36 (GF), Jalan Makyong 5D\/KU5, Bandar Bukit Raja",
        "city":"Klang",
        "state":"Selangor",
        "postcode":"40150",
        "country":"Malaysia",
        "phone":"",
        "opening_hours":null,
        "lat":3.090069,
        "lng":101.432414,
        "brand":"7-Eleven"
    },
    {
        "id":"1646",
        "name":"Bandar Bukit Jalil, KL (24 hrs)",
        "street":"No 13 (GF) Jalan 16\/155C",
        "city":"Bukit Jalil",
        "state":"Kuala Lumpur",
        "postcode":"57000",
        "country":"Malaysia",
        "phone":"",
        "opening_hours":null,
        "lat":3.0604247,
        "lng":101.6688511,
        "brand":"7-Eleven"
    },
    {
        "id":"1361",
        "name":"Bandar Bukit Mahkota, Sel",
        "street":"No 26-G, Jalan BM 2\/1, Seksyen 2, Bandar Bukit Mahkota",
        "city":"Kajang",
        "state":"Selangor",
        "postcode":"43000",
        "country":"Malaysia",
        "phone":"",
        "opening_hours":null,
        "lat":2.887359,
        "lng":101.796216,
        "brand":"7-Eleven"
    },
    {
        "id":"812",
        "name":"Bandar Bukit Puchong (24 hrs)",
        "street":"No. 11 (GF), Jalan BP 3\/12, Bandar Bukit Puchong,",
        "city":"Puchong",
        "state":"Selangor",
        "postcode":"47100",
        "country":"Malaysia",
        "phone":"",
        "opening_hours":null,
        "lat":2.989665,
        "lng":101.629873,
        "brand":"7-Eleven"
    },
    {
        "id":"1801",
        "name":"Bandar Cyber Ipoh PK (24 hrs)",
        "street":"No 32 (GF) Jalan Lapangan Siber 10, Bandar Cyber Ipoh",
        "city":"Ipoh",
        "state":"Perak",
        "postcode":"31350",
        "country":"Malaysia",
        "phone":"",
        "opening_hours":null,
        "lat":4.542664,
        "lng":101.109506,
        "brand":"7-Eleven"
    },
    {
        "id":"2015",
        "name":"Bandar Dato Onn",
        "street":"No 30 (GF) Jalan Perjiranan 2, Bandar Dato Onn, 81100 Johor Bahru, Johor &quot;&quot;No 30 (GF) Jalan Perjiranan 2, Bandar Dato Onn",
        "city":"Johor Bahru",
        "state":"Johor",
        "postcode":"81100",
        "country":"Malaysia",
        "phone":"",
        "opening_hours":null,
        "lat":1.557182,
        "lng":103.737781,
        "brand":"7-Eleven"
    },
    {
        "id":"163",
        "name":"Bandar Enstek Nilai (24 hrs)",
        "street":"No 82 (GF), Jalan Timur 6\/1B",
        "city":"Bandar Enstek",
        "state":"Negeri Sembilan",
        "postcode":"71760",
        "country":"Malaysia",
        "phone":"",
        "opening_hours":null,
        "lat":2.748291,
        "lng":101.764145,
        "brand":"7-Eleven"
    },
    {
        "id":"1207",
        "name":"Bandar Gambang, Kuantan PHG",
        "street":"A-43-G, Jalan Bandar Gambang 1, Pusat Komersial Bandar Gambang 1",
        "city":"Kuantan",
        "state":"Pahang",
        "postcode":"26300",
        "country":"Malaysia",
        "phone":"",
        "opening_hours":null,
        "lat":3.710912,
        "lng":103.119144,
        "brand":"7-Eleven"
    },
    {
        "id":"1216",
        "name":"Bandar Hill Park Puncak Alam SEL (24 hrs)",
        "street":"No. 23 (GF), Jalan MAPEL 7\/1, Bandar Hillpark",
        "city":"Puncak Alam",
        "state":"Selangor",
        "postcode":"42300",
        "country":"Malaysia",
        "phone":"",
        "opening_hours":null,
        "lat":3.213063,
        "lng":101.465358,
        "brand":"7-Eleven"
    },
    {
        "id":"976",
        "name":"BANDAR INDAH. SANDAKAN,SABAH (24 hrs)",
        "street":"Lot 8 (GF), Block 8, Bandar Indah Jalan Utara",
        "city":"Sandakan",
        "state":"Sabah",
        "postcode":"90000",
        "country":"Malaysia",
        "phone":"",
        "opening_hours":null,
        "lat":5.8546202,
        "lng":118.0740434,
        "brand":"7-Eleven"
    },
    {
        "id":"1442",
        "name":"Bandar Indera Mahkota 3, Kuantan. (24 hrs)",
        "street":"A39, Ground Floor, Lorong IM3\/19, Perumahan IM3, Bandar Indera Mahkota",
        "city":"Kuantan",
        "state":"Pahang",
        "postcode":"25200",
        "country":"Malaysia",
        "phone":"",
        "opening_hours":null,
        "lat":3.819855,
        "lng":103.277592,
        "brand":"7-Eleven"
    },
    {
        "id":"288",
        "name":"Bandar Inderapura Jerantut PHG (24 hrs)",
        "street":"No 55 (GF), Jalan Zapin Indah 3, Bandar Inderapura",
        "city":"Jerantut",
        "state":"Pahang",
        "postcode":"27000",
        "country":"Malaysia",
        "phone":"",
        "opening_hours":null,
        "lat":3.9341239,
        "lng":102.3691322,
        "brand":"7-Eleven"
    },
    {
        "id":"241",
        "name":"BANDAR JAYA PUTRA JHR Bandar Jaya Putra Johor (24 hrs)",
        "street":"No 39 (GF), Shop Office, Jalan Jaya Putra 7\/6, Bandar Jaya Putra",
        "city":"Johor Bahru",
        "state":"Johor",
        "postcode":"81100",
        "country":"Malaysia",
        "phone":"",
        "opening_hours":null,
        "lat":1.5793243,
        "lng":103.7687556,
        "brand":"7-Eleven"
    },
    {
        "id":"2661",
        "name":"Bandar Jerantut, Phg (24 hrs)",
        "street":"No S-41 (GF) Jalan Tahan, Bandar Baru Jerantut",
        "city":"Jerantut",
        "state":"Pahang",
        "postcode":"27000",
        "country":"Malaysia",
        "phone":"",
        "opening_hours":null,
        "lat":3.93706,
        "lng":102.362315,
        "brand":"7-Eleven"
    },
    {
        "id":"142",
        "name":"Bandar Kinrara 2 Puchong SEL",
        "street":"No. 5 (GF), Jalan BK 2\/11, Bandar Kinrara",
        "city":"Puchong",
        "state":"Selangor",
        "postcode":"47180",
        "country":"Malaysia",
        "phone":"",
        "opening_hours":null,
        "lat":3.0524118,
        "lng":101.6433865,
        "brand":"7-Eleven"
    },
    {
        "id":"1897",
        "name":"Bandar Laguna 2 SP (24 hrs)",
        "street":"No 16 (GF), Lorong BLM 1\/2, Bandar Laguna Merbok",
        "city":"Sungai Petani",
        "state":"Kedah",
        "postcode":"8000",
        "country":"Malaysia",
        "phone":"",
        "opening_hours":null,
        "lat":5.681018,
        "lng":100.493746,
        "brand":"7-Eleven"
    },
    {
        "id":"578",
        "name":"Bandar Manjalara KL (24 hrs)",
        "street":"No. 23G (GF), Jalan 1\/62D, Medan Putra Business Centre",
        "city":"Bandar Manjalara",
        "state":"Kuala Lumpur",
        "postcode":"52100",
        "country":"Malaysia",
        "phone":"",
        "opening_hours":null,
        "lat":3.192991,
        "lng":101.625745,
        "brand":"7-Eleven"
    },
    {
        "id":"109",
        "name":"Bandar Melawati K. Sel",
        "street":"No. 38 (GF), Jalan Melawati 3\/1, Bandar Melawati",
        "city":"Kuala Selangor",
        "state":"Selangor",
        "postcode":"45000",
        "country":"Malaysia",
        "phone":"",
        "opening_hours":null,
        "lat":3.331252,
        "lng":101.2535662,
        "brand":"7-Eleven"
    },
    {
        "id":"38",
        "name":"Bandar Parklands, Klang (24 hrs)",
        "street":"No 125, Ground Floor, Jalan Jed 3\/KS09, Bandar Parklands",
        "city":"Klang",
        "state":"Selangor",
        "postcode":"41200",
        "country":"Malaysia",
        "phone":"",
        "opening_hours":null,
        "lat":2.974318,
        "lng":101.457665,
        "brand":"7-Eleven"
    },
    {
        "id":"1715",
        "name":"BANDAR PERDANA KDH (24 hrs)",
        "street":"No 7-G, Tingkat Bawah, Jalan Pusat Perniagaan Bandar Perdana, Bandar Perdana",
        "city":"Sungai Petani",
        "state":"Kedah",
        "postcode":"8000",
        "country":"Malaysia",
        "phone":"",
        "opening_hours":null,
        "lat":5.608723,
        "lng":100.506397,
        "brand":"7-Eleven"
    },
    {
        "id":"1581",
        "name":"Bandar Permaisuri, Setiu",
        "street":"PT 6384 (GF), Jalan Penarik, Kg Buluh Hilir, Permaisuri",
        "city":"Setiu",
        "state":"Terengganu",
        "postcode":"22100",
        "country":"Malaysia",
        "phone":"",
        "opening_hours":null,
        "lat":5.5209818,
        "lng":102.7481291,
        "brand":"7-Eleven"
    },
    {
        "id":"275",
        "name":"Bandar Permaisuri, TRG (24 hrs)",
        "street":"PT 6384 (GF), Jalan Penarik, Kg Buluh Hilir",
        "city":"Setiu",
        "state":"Terengganu",
        "postcode":"22100",
        "country":"Malaysia",
        "phone":"",
        "opening_hours":null,
        "lat":5.5901911,
        "lng":102.7879714,
        "brand":"7-Eleven"
    },
    {
        "id":"539",
        "name":"Bandar Puchong (24 hrs)",
        "street":"No. 41 (GF), Jalan Bandar Satu, Pusat Bandar Puchong",
        "city":"Puchong",
        "state":"Selangor",
        "postcode":"47100",
        "country":"Malaysia",
        "phone":"",
        "opening_hours":null,
        "lat":3.03494,
        "lng":101.617554,
        "brand":"7-Eleven"
    },
    {
        "id":"2401",
        "name":"Bandar Puchong Utama",
        "street":"No 66 (GF), Jalan BPU 1, Bandar Puchong Utama",
        "city":"Puchong",
        "state":"Selangor",
        "postcode":"47100",
        "country":"Malaysia",
        "phone":"",
        "opening_hours":null,
        "lat":2.994923,
        "lng":101.620957,
        "brand":"7-Eleven"
    },
    {
        "id":"746",
        "name":"Bandar Puncak Alam (24 hrs)",
        "street":"No. 32, Lorong Naluri Sukma A 8\/A, Seksyen A8",
        "city":"Bandar Baru Puncak Alam",
        "state":"Selangor",
        "postcode":"42300",
        "country":"Malaysia",
        "phone":"",
        "opening_hours":null,
        "lat":3.229342,
        "lng":101.427052,
        "brand":"7-Eleven"
    },
    {
        "id":"66",
        "name":"Bandar Putera Klang (24 hrs)",
        "street":"No 37 (GF) Jalan Kebun Nenas 4A\/KS 8, Bandar Putera 2",
        "city":"Klang",
        "state":"Selangor",
        "postcode":"41200",
        "country":"Malaysia",
        "phone":"",
        "opening_hours":null,
        "lat":2.978926,
        "lng":101.502168,
        "brand":"7-Eleven"
    },
    {
        "id":"204",
        "name":"Bandar Puteri Bangi, SEL",
        "street":"No. 3 Jalan Puteri 3A\/1, Bandar Puteri Bangi",
        "city":"Kajang",
        "state":"Selangor",
        "postcode":"43000",
        "country":"Malaysia",
        "phone":"",
        "opening_hours":null,
        "lat":2.8791109,
        "lng":101.7958051,
        "brand":"7-Eleven"
    },
    {
        "id":"29",
        "name":"Bandar Puteri Puchong SEL",
        "street":"No. 2, Jalan Puteri 1\/1, Bandar Puteri Puchong",
        "city":"Puchong",
        "state":"Selangor",
        "postcode":"47100",
        "country":"Malaysia",
        "phone":"",
        "opening_hours":null,
        "lat":3.025459,
        "lng":101.6158,
        "brand":"7-Eleven"
    },
    {
        "id":"1290",
        "name":"Bandar Rimbayu, SEL (24 hrs)",
        "street":"No. 17 (GF), Jalan Flora 2\/2, Bandar Rimbayu (Flora)",
        "city":"Telok Panglima Garang",
        "state":"Selangor",
        "postcode":"42500",
        "country":"Malaysia",
        "phone":"",
        "opening_hours":null,
        "lat":2.933898,
        "lng":101.549221,
        "brand":"7-Eleven"
    },
    {
        "id":"1965",
        "name":"Bandar Riyal SMR (24 hrs)",
        "street":"GR FL, SL10, Jalan Datuk Mohammad Musa, Bandar Riyal",
        "city":"Kuching",
        "state":"Sarawak",
        "postcode":"94300",
        "country":"Malaysia",
        "phone":"",
        "opening_hours":null,
        "lat":1.455006,
        "lng":110.410487,
        "brand":"7-Eleven"
    },
    {
        "id":"1437",
        "name":"Bandar Satelit Islam Pasir Tumboh",
        "street":"Lot 8044, Ground Floor, Bandar Satelit Islam Pasir Tumboh, Jalan Pasir Putih",
        "city":"Kota Bharu",
        "state":"Kelantan",
        "postcode":"16150",
        "country":"Malaysia",
        "phone":"",
        "opening_hours":null,
        "lat":6.054663,
        "lng":102.280939,
        "brand":"7-Eleven"
    },
    {
        "id":"2152",
        "name":"Bandar Satelit PHG (24 hrs)",
        "street":"No 15 (GF), Jalan Makmur 1, Presint Niaga Bandar Satelit, Lebuh Raya Tun Razak, Hentian Lebuh Raya",
        "city":"Muadzam Shah",
        "state":"Pahang",
        "postcode":"26700",
        "country":"Malaysia",
        "phone":"",
        "opening_hours":null,
        "lat":3.069325,
        "lng":103.069586,
        "brand":"7-Eleven"
    },
    {
        "id":"93",
        "name":"Bandar Saujana Putra, Jenjarom (24 hrs)",
        "street":"No.59 (GF) Jalan SP 1\/1, Bandar Saujana Putra",
        "city":"Jenjarom",
        "state":"Selangor",
        "postcode":"42610",
        "country":"Malaysia",
        "phone":"",
        "opening_hours":null,
        "lat":2.9520519,
        "lng":101.5775031,
        "brand":"7-Eleven"
    },
    {
        "id":"188",
        "name":"Bandar Serenia SEL (24 hrs)",
        "street":"No. 7 (GF), Jalan Aman Serenia 6, Bandar Serenia",
        "city":"Sepang",
        "state":"Selangor",
        "postcode":"43900",
        "country":"Malaysia",
        "phone":"",
        "opening_hours":null,
        "lat":2.8551945,
        "lng":101.7047119,
        "brand":"7-Eleven"
    },
    {
        "id":"1640",
        "name":"Bandar Seri Alam, Masai, Johor",
        "street":"No 40 (GF) Jalan Suria 67, Bandar Seri Alam",
        "city":"Masai",
        "state":"Johor",
        "postcode":"81750",
        "country":"Malaysia",
        "phone":"",
        "opening_hours":null,
        "lat":1.4960198,
        "lng":103.8799354,
        "brand":"7-Eleven"
    },
    {
        "id":"2208",
        "name":"Bandar Springhill N9 (24 hrs)",
        "street":"No 692 (GF), Jalan Springhill 10\/12, Jalan Seremban Batu 6, Bandar Springhill, Lukut",
        "city":"Port Dickson",
        "state":"Negeri Sembilan",
        "postcode":"71010",
        "country":"Malaysia",
        "phone":"",
        "opening_hours":null,
        "lat":2.596299,
        "lng":101.855857,
        "brand":"7-Eleven"
    },
    {
        "id":"2201",
        "name":"Bandar Sri Alam, JB",
        "street":"No 38 (GF), Jalan Lembah 19, Bandar Seri Alam",
        "city":"Masai",
        "state":"Johor",
        "postcode":"81750",
        "country":"Malaysia",
        "phone":"",
        "opening_hours":null,
        "lat":1.508678,
        "lng":103.867549,
        "brand":"7-Eleven"
    },
    {
        "id":"173",
        "name":"Bandar Sri Coalfields, Sg Buloh SEL (24 hrs)",
        "street":"No 18-G, Jalan BSC 2B\/2, Bandar Seri Coalfields",
        "city":"Sungai Buloh",
        "state":"Selangor",
        "postcode":"47000",
        "country":"Malaysia",
        "phone":"",
        "opening_hours":null,
        "lat":3.24656,
        "lng":101.474981,
        "brand":"7-Eleven"
    },
    {
        "id":"169",
        "name":"Bandar Sri Semantan Pahang (24 hrs)",
        "street":"No 13 (GF) Jalan Sudirman 2, Bandar Sri Semantan",
        "city":"Temerloh",
        "state":"Pahang",
        "postcode":"28000",
        "country":"Malaysia",
        "phone":"",
        "opening_hours":null,
        "lat":3.449916,
        "lng":102.415591,
        "brand":"7-Eleven"
    },
    {
        "id":"979",
        "name":"BANDAR TABANAK,LAHAD DATU,SABAH (24 hrs)",
        "street":"MDLD 9497 Lot 1 (GF), Bandar Tabanak, Jalan Segama",
        "city":"Lahad Datu",
        "state":"Sabah",
        "postcode":"91100",
        "country":"Malaysia",
        "phone":"",
        "opening_hours":null,
        "lat":5.0344207,
        "lng":118.3118749,
        "brand":"7-Eleven"
    },
    {
        "id":"293",
        "name":"Bandar Tiram 3 Johor",
        "street":"Lot G.03, Ground Floor, Wisma Fui Chiu, No. 32, Jalan Tun Tan Cheng Lock",
        "city":"Tun Tan Cheng Lock",
        "state":"Kuala Lumpur",
        "postcode":"50050",
        "country":"Malaysia",
        "phone":"",
        "opening_hours":null,
        "lat":3.14559,
        "lng":101.6978619,
        "brand":"7-Eleven"
    },
    {
        "id":"2221",
        "name":"Bandar Tiram, JHR",
        "street":"Lot 169941 (GF), Jalan Duku",
        "city":"Ulu Tiram",
        "state":"Johor",
        "postcode":"81800",
        "country":"Malaysia",
        "phone":"",
        "opening_hours":null,
        "lat":1.599196,
        "lng":103.823392,
        "brand":"7-Eleven"
    },
    {
        "id":"251",
        "name":"Bandar Tropicana Aman SEL (24 hrs)",
        "street":"No 51-G, Jalan Aman Sinaria 2, Bandar Tropicana Aman",
        "city":"Telok Panglima Garang",
        "state":"Selangor",
        "postcode":"42500",
        "country":"Malaysia",
        "phone":"",
        "opening_hours":null,
        "lat":2.943446,
        "lng":101.528186,
        "brand":"7-Eleven"
    },
    {
        "id":"1428",
        "name":"Bandar Uda Utama, Johor (24 hrs)",
        "street":"No 44 Ground Floor, Jalan Utama 4\/1, Bandar Uda Utama",
        "city":"Johor Bahru",
        "state":"Johor",
        "postcode":"81200",
        "country":"Malaysia",
        "phone":"",
        "opening_hours":null,
        "lat":1.497058,
        "lng":103.667624,
        "brand":"7-Eleven"
    },
    {
        "id":"1501",
        "name":"Bandar Universiti Pagoh",
        "street":"No 9 (GF), PTD 14925, Jalan Sarjana 1, Pusat Perniagaan Presint Sarjana, Bandar Universiti Pagoh",
        "city":"Muar",
        "state":"Johor",
        "postcode":"84600",
        "country":"Malaysia",
        "phone":"",
        "opening_hours":null,
        "lat":2.148916,
        "lng":102.727244,
        "brand":"7-Eleven"
    },
    {
        "id":"2615",
        "name":"Bandar Utama 4 PJ",
        "street":"G09 BU4, Jalan Changkat Utama, Bandar Utama",
        "city":"Petaling Jaya",
        "state":"Selangor",
        "postcode":"47800",
        "country":"Malaysia",
        "phone":"",
        "opening_hours":null,
        "lat":3.150578,
        "lng":101.610456,
        "brand":"7-Eleven"
    },
    {
        "id":"933",
        "name":"Bandaran Berjaya KK (24 hrs)",
        "street":"No. 56, Ground Floor, Bandaran Berjaya",
        "city":"Kota Kinabalu",
        "state":"Sabah",
        "postcode":"88000",
        "country":"Malaysia",
        "phone":"",
        "opening_hours":null,
        "lat":5.977192,
        "lng":116.075837,
        "brand":"7-Eleven"
    },
    {
        "id":"2013",
        "name":"BandarIndahPura",
        "street":"No 213 PTD 50895, Jalan Kenanga 29\/2 Bandar Indahpura",
        "city":"Kulaijaya",
        "state":"Johor",
        "postcode":"81000",
        "country":"Malaysia",
        "phone":"",
        "opening_hours":null,
        "lat":1.641472,
        "lng":103.618632,
        "brand":"7-Eleven"
    },
    {
        "id":"234",
        "name":"BANGGOL PAUH TRE (24 hrs)",
        "street":"Lot 19634 (GF), Kg Banggol Pauh",
        "city":"Kuala Terengganu",
        "state":"Terengganu",
        "postcode":"21300",
        "country":"Malaysia",
        "phone":"",
        "opening_hours":null,
        "lat":5.3480975,
        "lng":103.1158854,
        "brand":"7-Eleven"
    },
    {
        "id":"612",
        "name":"Bangi Perdana (24 hrs)",
        "street":"No. 28, Jalan 3\/7, Bangi Perdana, Seksyen 3",
        "city":"Bandar Baru Bangi",
        "state":"Selangor",
        "postcode":"43650",
        "country":"Malaysia",
        "phone":"",
        "opening_hours":null,
        "lat":2.947456,
        "lng":101.780635,
        "brand":"7-Eleven"
    },
    {
        "id":"352",
        "name":"Bangi SEL",
        "street":"No. 4 (GF), Jalan 4\/1B, Bandar Baru Bangi",
        "city":"Kajang",
        "state":"Selangor",
        "postcode":"43000",
        "country":"Malaysia",
        "phone":"",
        "opening_hours":null,
        "lat":2.954131,
        "lng":101.778824,
        "brand":"7-Eleven"
    },
    {
        "id":"616",
        "name":"Bangunan Loke Yew",
        "street":"No. 4 (GF), Bangunan Loke Yew",
        "city":"Jalan Mahkamah Persekutuan",
        "state":"Kuala Lumpur",
        "postcode":"50050",
        "country":"Malaysia",
        "phone":"",
        "opening_hours":null,
        "lat":3.1472887,
        "lng":101.6947764,
        "brand":"7-Eleven"
    },
    {
        "id":"265",
        "name":"Bangunan Loke Yew KL (24hrs)",
        "street":"No. 4 (GF), Bangunan Loke Yew, Jalan Mahkamah Persekutuan",
        "city":"Bangunan Loke Yew",
        "state":"Kuala Lumpur",
        "postcode":"50050",
        "country":"Malaysia",
        "phone":"",
        "opening_hours":null,
        "lat":3.1472887,
        "lng":101.6947764,
        "brand":"7-Eleven"
    },
    {
        "id":"213",
        "name":"Bangunan Pknp Prk (24 hrs)",
        "street":"B9, Bangunan PKNP, Jalan Ahmad Boestamam",
        "city":"Slim River",
        "state":"Perak",
        "postcode":"35800",
        "country":"Malaysia",
        "phone":"",
        "opening_hours":null,
        "lat":3.8290582,
        "lng":101.4044304,
        "brand":"7-Eleven"
    },
    {
        "id":"1647",
        "name":"Bangunan UMNO Pekan PHG (24 hrs)",
        "street":"Lot G-03 (GF) Bangunan UMNO Pekan, Jalan Tengku Arif Bendahara",
        "city":"Pekan",
        "state":"Pahang",
        "postcode":"26600",
        "country":"Malaysia",
        "phone":"",
        "opening_hours":null,
        "lat":3.4913462,
        "lng":103.3924275,
        "brand":"7-Eleven"
    },
    {
        "id":"1684",
        "name":"Bangunan Umno Pekan PHG (24 hrs)",
        "street":"Lot G-03 (GF) Bangunan UMNO Pekan, Jalan Tengku Arif Bendahara",
        "city":"Pekan",
        "state":"Pahang",
        "postcode":"26600",
        "country":"Malaysia",
        "phone":"",
        "opening_hours":null,
        "lat":3.4917946,
        "lng":103.392224,
        "brand":"7-Eleven"
    },
    {
        "id":"45",
        "name":"Banting Baru Sel (24 hrs)",
        "street":"No 11, Ground Floor, Jalan BB 1\/1, Taman Banting Baru",
        "city":"Banting",
        "state":"Selangor",
        "postcode":"42700",
        "country":"Malaysia",
        "phone":"",
        "opening_hours":null,
        "lat":2.817602,
        "lng":101.454943,
        "brand":"7-Eleven"
    },
    {
        "id":"1531",
        "name":"Barrington Sq. Cameron Highlands (24 hrs)",
        "street":"G-33A (GF), Block C, Barrington Square Golden Hills, Jalan Golden Hills 1, Cameron Golden Hills, Tanah Rata",
        "city":"Cameron Highlands",
        "state":"Pahang",
        "postcode":"39000",
        "country":"Malaysia",
        "phone":"",
        "opening_hours":null,
        "lat":4.4875899,
        "lng":101.3735586,
        "brand":"7-Eleven"
    },
    {
        "id":"1157",
        "name":"Batang Benar N9 (24 hrs)",
        "street":"No. 3 (GF), Pusat Perniagaan Laman Galla, Jalan Perniagaan Laman Galla",
        "city":"Nilai",
        "state":"Negeri Sembilan",
        "postcode":"71800",
        "country":"Malaysia",
        "phone":"",
        "opening_hours":null,
        "lat":2.843062,
        "lng":101.89138,
        "brand":"7-Eleven"
    },
    {
        "id":"556",
        "name":"Batang Kali Sel (24 hrs)",
        "street":"No. 51 (GF), Jalan Meranti 2B, Bandar Baru Batang Kali",
        "city":"Batang Kali",
        "state":"Selangor",
        "postcode":"44300",
        "country":"Malaysia",
        "phone":"",
        "opening_hours":null,
        "lat":3.459373,
        "lng":101.655193,
        "brand":"7-Eleven"
    },
    {
        "id":"1918",
        "name":"Batu 7,Jln Paka, TRG",
        "street":"Lot 8938 (PT 8035) GF, Depan Politeknik Sultan Mizan, Batu 7, Jalan Paka",
        "city":"Dungun",
        "state":"Terengganu",
        "postcode":"23000",
        "country":"Malaysia",
        "phone":"",
        "opening_hours":null,
        "lat":4.711485,
        "lng":103.401845,
        "brand":"7-Eleven"
    },
    {
        "id":"346",
        "name":"Batu Belah Klg (24 hrs)",
        "street":"No. 182A-1, Jalan Sg. Putus",
        "city":"Klang",
        "state":"Selangor",
        "postcode":"41050",
        "country":"Malaysia",
        "phone":"",
        "opening_hours":null,
        "lat":3.070417,
        "lng":101.441091,
        "brand":"7-Eleven"
    },
    {
        "id":"347",
        "name":"Batu Berendam Mlk (24 hrs)",
        "street":"No. 34, Jalan Mutiara Melaka 2",
        "city":"Batu Berendam",
        "state":"Melaka",
        "postcode":"75350",
        "country":"Malaysia",
        "phone":"",
        "opening_hours":null,
        "lat":2.237911,
        "lng":102.260653,
        "brand":"7-Eleven"
    },
    {
        "id":"1773",
        "name":"Batu Buruk K.TRG",
        "street":"RS 04, Lot 1544 Mukim Batu Buruk",
        "city":"Kuala Terengganu",
        "state":"Terengganu",
        "postcode":"20400",
        "country":"Malaysia",
        "phone":"",
        "opening_hours":null,
        "lat":5.320582,
        "lng":103.155393,
        "brand":"7-Eleven"
    },
    {
        "id":"439",
        "name":"Batu Caves",
        "street":"No. 36 (GF), Jalan Pinggiran 2\/2, Pinggiran Batu Caves",
        "city":"Batu Caves",
        "state":"Selangor",
        "postcode":"68100",
        "country":"Malaysia",
        "phone":"",
        "opening_hours":null,
        "lat":3.255529,
        "lng":101.694246,
        "brand":"7-Eleven"
    },
    {
        "id":"488",
        "name":"Batu Ferringi Pg (24 hrs)",
        "street":"No 1 Lorong Sungai Emas",
        "city":"Batu Feringgi",
        "state":"Pulau Pinang",
        "postcode":"11100",
        "country":"Malaysia",
        "phone":"",
        "opening_hours":null,
        "lat":5.475354,
        "lng":100.252746,
        "brand":"7-Eleven"
    },
    {
        "id":"1603",
        "name":"Batu Gajah Perdana, Perak",
        "street":"No 2 (GF), Persiaran BG Perdana 1, Pusat Komersial BG Perdana",
        "city":"Batu Gajah",
        "state":"Perak",
        "postcode":"31000",
        "country":"Malaysia",
        "phone":"",
        "opening_hours":null,
        "lat":4.4956733,
        "lng":101.0197377,
        "brand":"7-Eleven"
    },
    {
        "id":"849",
        "name":"Batu Gajah Prk",
        "street":"No 23 (GF) Jalan Dewangsa",
        "city":"Batu Gajah",
        "state":"Perak",
        "postcode":"31000",
        "country":"Malaysia",
        "phone":"",
        "opening_hours":null,
        "lat":4.472591,
        "lng":101.040779,
        "brand":"7-Eleven"
    },
    {
        "id":"2267",
        "name":"Batu Jong, Kelantan (24 hrs)",
        "street":"PT 3894 (GF), Jalan Batu Jong",
        "city":"Kuala Krai",
        "state":"Kelantan",
        "postcode":"18000",
        "country":"Malaysia",
        "phone":"",
        "opening_hours":null,
        "lat":5.597516,
        "lng":102.193237,
        "brand":"7-Eleven"
    },
    {
        "id":"505",
        "name":"Batu Kawah Kch (24 hrs)",
        "street":"No CG-108 (GF) Block G2, Batu Kawah, New Township, Jalan Batu Kawah",
        "city":"Kuching",
        "state":"Sarawak",
        "postcode":"93250",
        "country":"Malaysia",
        "phone":"",
        "opening_hours":null,
        "lat":1.512705,
        "lng":110.307876,
        "brand":"7-Eleven"
    },
    {
        "id":"738",
        "name":"Batu Kikir N9 (24 hrs)",
        "street":"No. 12 (GF), Jalan Beringin 3",
        "city":"Batu Kikir",
        "state":"Negeri Sembilan",
        "postcode":"72200",
        "country":"Malaysia",
        "phone":"",
        "opening_hours":null,
        "lat":2.830842,
        "lng":102.318525,
        "brand":"7-Eleven"
    },
    {
        "id":"1258",
        "name":"Batu Nilam 3C Bukit Tinggi SEL",
        "street":"No. 42-0, Lorong Batu Nilam 3C, Bandar Bukit Tinggi",
        "city":"Klang",
        "state":"Selangor",
        "postcode":"41200",
        "country":"Malaysia",
        "phone":"",
        "opening_hours":null,
        "lat":3.009178,
        "lng":101.435273,
        "brand":"7-Eleven"
    },
    {
        "id":"857",
        "name":"BatuMaungB.Lepas Pg (24 hrs)",
        "street":"No 17-1 (GF) Lorong Batu Maung 1, Batu Maung",
        "city":"Bayan Lepas",
        "state":"Pulau Pinang",
        "postcode":"11960",
        "country":"Malaysia",
        "phone":"",
        "opening_hours":null,
        "lat":5.28817,
        "lng":100.281628,
        "brand":"7-Eleven"
    },
    {
        "id":"330",
        "name":"Bayan Baru Pg (24 hrs)",
        "street":"No 36, Sunshine Square, Jalan Mahsuri, Bandar Bayan Baru",
        "city":"Bayan Lepas",
        "state":"Pulau Pinang",
        "postcode":"11950",
        "country":"Malaysia",
        "phone":"",
        "opening_hours":null,
        "lat":5.326581,
        "lng":100.286671,
        "brand":"7-Eleven"
    },
    {
        "id":"383",
        "name":"Bayu Perdana Klg",
        "street":"No. 108 (GF), Jalan Batu Unjur 1, Bayu Perdana",
        "city":"Klang",
        "state":"Selangor",
        "postcode":"41200",
        "country":"Malaysia",
        "phone":"",
        "opening_hours":null,
        "lat":3.014869,
        "lng":101.435305,
        "brand":"7-Eleven"
    },
    {
        "id":"1981",
        "name":"Bazaar 8 Putrajaya (24 hrs)",
        "street":"A-5 (GF), Block A, Jalan Seluang P8\/7",
        "city":"Putrajaya",
        "state":"Selangor",
        "postcode":"62250",
        "country":"Malaysia",
        "phone":"",
        "opening_hours":null,
        "lat":2.9324866,
        "lng":101.6810684,
        "brand":"7-Eleven"
    },
    {
        "id":"1707",
        "name":"Bazaar 8 Putrajaya KL (24 hrs)",
        "street":"A-5 (GF), Block A, Jalan Seluang P8\/7, Presint 8",
        "city":"Putrajaya",
        "state":"Selangor",
        "postcode":"62250",
        "country":"Malaysia",
        "phone":"",
        "opening_hours":null,
        "lat":2.9324866,
        "lng":101.6810684,
        "brand":"7-Eleven"
    },
    {
        "id":"2263",
        "name":"BB Gua Musang, Kltn (24 hrs)",
        "street":"Lot 9340 (GF), Perumahan Taman Titiwangsa, Bandar Baru",
        "city":"Gua Musang",
        "state":"Kelantan",
        "postcode":"18300",
        "country":"Malaysia",
        "phone":"",
        "opening_hours":null,
        "lat":4.860956,
        "lng":101.954359,
        "brand":"7-Eleven"
    },
    {
        "id":"404",
        "name":"BB Sg Buloh 1A\/3 Sel (24 hrs)",
        "street":"No. 367 (GF), Jalan 1A\/3, Bandar Baru Sg. Buloh",
        "city":"Sungai Buloh",
        "state":"Selangor",
        "postcode":"47000",
        "country":"Malaysia",
        "phone":"",
        "opening_hours":null,
        "lat":3.210928,
        "lng":101.565745,
        "brand":"7-Eleven"
    },
    {
        "id":"2582",
        "name":"BB Sri Petaling (24hrs)",
        "street":"No.15 (GF), Jalan 13\/149L",
        "city":"Sri Petaling",
        "state":"Kuala Lumpur",
        "postcode":"57000",
        "country":"Malaysia",
        "phone":"",
        "opening_hours":null,
        "lat":3.071476,
        "lng":101.682345,
        "brand":"7-Eleven"
    },
    {
        "id":"1863",
        "name":"BB Tunjung KLTN (24 hrs)",
        "street":"PT 382 (GF) Bandar Baru Tunjung, Jalan Kuala Krai",
        "city":"Kota Bharu",
        "state":"Kelantan",
        "postcode":"15100",
        "country":"Malaysia",
        "phone":"",
        "opening_hours":null,
        "lat":6.070341,
        "lng":102.238115,
        "brand":"7-Eleven"
    },
    {
        "id":"1798",
        "name":"BB Wakaf Bharu KLTN (24 hrs)",
        "street":"PT 893-A (GF), Jalan Baru",
        "city":"Wakaf Bharu",
        "state":"Kelantan",
        "postcode":"16250",
        "country":"Malaysia",
        "phone":"",
        "opening_hours":null,
        "lat":6.119287,
        "lng":102.197134,
        "brand":"7-Eleven"
    },
    {
        "id":"1144",
        "name":"BBCP KLIA 1, Sepang, SEL (24 hrs)",
        "street":"CPBB-2-L01 &amp; CPBB-2-L02, Level 2, Car Park Block B, KL International Airport",
        "city":"Sepang",
        "state":"Selangor",
        "postcode":"64000",
        "country":"Malaysia",
        "phone":"",
        "opening_hours":null,
        "lat":2.754597,
        "lng":101.703233,
        "brand":"7-Eleven"
    },
    {
        "id":"766",
        "name":"BdarBaru Ampang (24hrs)",
        "street":"No. 12 (GF), Jalan Wawasan 4\/5, Bandar Baru Ampang",
        "city":"Ampang",
        "state":"Selangor",
        "postcode":"68000",
        "country":"Malaysia",
        "phone":"",
        "opening_hours":null,
        "lat":3.146279,
        "lng":101.765091,
        "brand":"7-Eleven"
    },
    {
        "id":"1238",
        "name":"BDC Specialist Hospital, Kuching SWK (24 hrs)",
        "street":"Shoplot 1, Level 1, BDC Specialist Hospital, Lot 18807, Block 11, Muara Tebas Land District",
        "city":"Kuching",
        "state":"Sarawak",
        "postcode":"93350",
        "country":"Malaysia",
        "phone":"",
        "opening_hours":null,
        "lat":1.5061266,
        "lng":110.3654756,
        "brand":"7-Eleven"
    },
    {
        "id":"2412",
        "name":"Bdr Banting, Klg",
        "street":"No 352 (GF), Jalan Sultan Abdul Samad",
        "city":"Banting",
        "state":"Selangor",
        "postcode":"42700",
        "country":"Malaysia",
        "phone":"",
        "opening_hours":null,
        "lat":2.812735,
        "lng":101.49897,
        "brand":"7-Eleven"
    },
    {
        "id":"2361",
        "name":"Bdr Baru Bt Gajah Pk (24 hrs)",
        "street":"No 59 (GF), Jalan Bandar Baharu 1, Pusat Bandar Baru",
        "city":"Batu Gajah",
        "state":"Perak",
        "postcode":"31000",
        "country":"Malaysia",
        "phone":"",
        "opening_hours":null,
        "lat":4.473768,
        "lng":101.051004,
        "brand":"7-Eleven"
    },
    {
        "id":"572",
        "name":"Bdr Baru Jasin Mlk (24 hrs)",
        "street":"No. JA 9939 (GF)",
        "city":"Bandar Baru Jasin",
        "state":"Melaka",
        "postcode":"77200",
        "country":"Malaysia",
        "phone":"",
        "opening_hours":null,
        "lat":2.31237,
        "lng":102.432309,
        "brand":"7-Eleven"
    },
    {
        "id":"1116",
        "name":"Bdr Baru Jelawat KEL (24 hrs)",
        "street":"PT 4506 B, Kedai Jelawat, Jelawat",
        "city":"Bachok",
        "state":"Kelantan",
        "postcode":"16070",
        "country":"Malaysia",
        "phone":"",
        "opening_hours":null,
        "lat":6.011793,
        "lng":102.381377,
        "brand":"7-Eleven"
    },
    {
        "id":"2337",
        "name":"Bdr Baru K.Lipis PHG (24 hrs)",
        "street":"No 6 (GF), Bandar Baru, Seberang Jelai",
        "city":"Kuala Lipis",
        "state":"Pahang",
        "postcode":"27200",
        "country":"Malaysia",
        "phone":"",
        "opening_hours":null,
        "lat":4.187516,
        "lng":102.060958,
        "brand":"7-Eleven"
    },
    {
        "id":"696",
        "name":"Bdr Baru Kampar Prk",
        "street":"No 2261 (GF) Jalan Baru Sinar, Taman Bandar Baru",
        "city":"Kampar",
        "state":"Perak",
        "postcode":"31900",
        "country":"Malaysia",
        "phone":"",
        "opening_hours":null,
        "lat":4.326445,
        "lng":101.143399,
        "brand":"7-Eleven"
    },
    {
        "id":"1527",
        "name":"Bdr Baru Kampar PRK",
        "street":"No 2261 (GF) Jalan Baru Sinar, Taman Bandar Baru",
        "city":"Kampar",
        "state":"Perak",
        "postcode":"31900",
        "country":"Malaysia",
        "phone":"",
        "opening_hours":null,
        "lat":4.3258942,
        "lng":101.143947,
        "brand":"7-Eleven"
    },
    {
        "id":"788",
        "name":"Bdr Baru Lipis Phg",
        "street":"No 124 (GF), Jalan Besar, Bandar Baru Lipis,",
        "city":"Kuala Lipis",
        "state":"Pahang",
        "postcode":"27200",
        "country":"Malaysia",
        "phone":"",
        "opening_hours":null,
        "lat":4.188431,
        "lng":102.053115,
        "brand":"7-Eleven"
    },
    {
        "id":"2652",
        "name":"Bdr Baru Manjung Prk (24 hrs)",
        "street":"Lot A8 (GF), Fasa 1C-3, Bandar Baru Seri Manjung",
        "city":"Manjung",
        "state":"Perak",
        "postcode":"32040",
        "country":"Malaysia",
        "phone":"",
        "opening_hours":null,
        "lat":4.197943,
        "lng":100.667995,
        "brand":"7-Eleven"
    },
    {
        "id":"2410",
        "name":"Bdr Baru Mergong Kdh (24 hrs)",
        "street":"No 18 (GF), Taman Bandar Baru Mergong, Persiaran Bandar Baru Mergong",
        "city":"Alor Setar",
        "state":"Kedah",
        "postcode":"5150",
        "country":"Malaysia",
        "phone":"",
        "opening_hours":null,
        "lat":6.130093,
        "lng":100.342767,
        "brand":"7-Eleven"
    },
    {
        "id":"2632",
        "name":"Bdr Baru Nilai N9",
        "street":"PT 7438 (GF), Jalan BBN 1\/2F, Putra Point",
        "city":"Bandar Baru Nilai",
        "state":"Negeri Sembilan",
        "postcode":"71800",
        "country":"Malaysia",
        "phone":"",
        "opening_hours":null,
        "lat":2.813035,
        "lng":101.792957,
        "brand":"7-Eleven"
    },
    {
        "id":"684",
        "name":"Bdr Baru Rompin Phg (24 hrs)",
        "street":"No 29 (GF), Jalan Utama, Bandar Baru Rompin",
        "city":"Kuala Rompin",
        "state":"Pahang",
        "postcode":"26800",
        "country":"Malaysia",
        "phone":"",
        "opening_hours":null,
        "lat":2.796321,
        "lng":103.486262,
        "brand":"7-Eleven"
    },
    {
        "id":"2541",
        "name":"Bdr Baru SgUdang Mlk (24 hrs)",
        "street":"No 9 (GF), Jalan Kerambit 1, Bandar Baru Sungai Udang",
        "city":"Sg Udang",
        "state":"Melaka",
        "postcode":"76300",
        "country":"Malaysia",
        "phone":"",
        "opening_hours":null,
        "lat":2.290283,
        "lng":102.140222,
        "brand":"7-Eleven"
    },
    {
        "id":"2043",
        "name":"Bdr Baru Spg 4 MLK (24 hrs)",
        "street":"Lot 6164 (GF) Taman Bandar Baru Simpang Empat",
        "city":"Alor Gajah",
        "state":"Melaka",
        "postcode":"78000",
        "country":"Malaysia",
        "phone":"",
        "opening_hours":null,
        "lat":2.442307,
        "lng":102.184503,
        "brand":"7-Eleven"
    },
    {
        "id":"762",
        "name":"Bdr Baru T.Intan Prk (24 hrs)",
        "street":"No 2 (GF), Jalan Intan 4, Bandar Baru Teluk Intan",
        "city":"Teluk Intan",
        "state":"Perak",
        "postcode":"36000",
        "country":"Malaysia",
        "phone":"",
        "opening_hours":null,
        "lat":4.02003,
        "lng":101.023147,
        "brand":"7-Eleven"
    },
    {
        "id":"1371",
        "name":"Bdr Baru Tunjung KLT (24 hrs)",
        "street":"PT 382 (GF) Bandar Baru Tunjung, Jalan Kuala Krai",
        "city":"Kota Bharu",
        "state":"Kelantan",
        "postcode":"15100",
        "country":"Malaysia",
        "phone":"",
        "opening_hours":null,
        "lat":6.0710548,
        "lng":102.237646,
        "brand":"7-Eleven"
    },
    {
        "id":"2101",
        "name":"Bdr Br Merlimau MLK (24 hrs)",
        "street":"No JC 100 (GF) Jalan BMU 2, Bandar Baru Merlimau Utara",
        "city":"Merlimau",
        "state":"Melaka",
        "postcode":"77300",
        "country":"Malaysia",
        "phone":"",
        "opening_hours":null,
        "lat":2.166781,
        "lng":102.431081,
        "brand":"7-Eleven"
    },
    {
        "id":"1862",
        "name":"Bdr Br Semariang KCH (24 hrs)",
        "street":"Lot 5588, Ground Floor, Block 9 , Salak Land Distric, No. 154, Bandar Baru Samariang Commercial Centre",
        "city":"Kuching",
        "state":"Sarawak",
        "postcode":"93050",
        "country":"Malaysia",
        "phone":"",
        "opening_hours":null,
        "lat":1.635461,
        "lng":110.341852,
        "brand":"7-Eleven"
    },
    {
        "id":"1155",
        "name":"Bdr Darulaman 2 Jitra KDH (24 hrs)",
        "street":"Lot No 3, Plot 21, Jalan Industri Darulaman 1, Kawasan Perusahaan Bandar Darulaman",
        "city":"Jitra",
        "state":"Kedah",
        "postcode":"6000",
        "country":"Malaysia",
        "phone":"",
        "opening_hours":null,
        "lat":6.253325,
        "lng":100.428052,
        "brand":"7-Eleven"
    },
    {
        "id":"504",
        "name":"Bdr Darulaman Jitra Kdh (24 hrs)",
        "street":"No 48 (GF), Jalan Pantai Halban, Bandar Darulaman Jaya",
        "city":"Jitra",
        "state":"Kedah",
        "postcode":"6000",
        "country":"Malaysia",
        "phone":"",
        "opening_hours":null,
        "lat":6.243097,
        "lng":100.420181,
        "brand":"7-Eleven"
    },
    {
        "id":"1503",
        "name":"Bdr Dato Onn 2 ,JB",
        "street":"No 47, Ground Floor, Jalan Perjiranan 15\/1, Bandar Dato Onn",
        "city":"Johor Bahru",
        "state":"Johor",
        "postcode":"81100",
        "country":"Malaysia",
        "phone":"",
        "opening_hours":null,
        "lat":1.569951,
        "lng":103.74369,
        "brand":"7-Eleven"
    },
    {
        "id":"540",
        "name":"Bdr Hussein Onn Cheras (24hrs)",
        "street":"No. 10 (GF), Jalan Suadamai 1\/2, Bandar Tun Hussien Onn",
        "city":"Cheras",
        "state":"Selangor",
        "postcode":"43200",
        "country":"Malaysia",
        "phone":"",
        "opening_hours":null,
        "lat":3.054897,
        "lng":101.758737,
        "brand":"7-Eleven"
    },
    {
        "id":"867",
        "name":"Bdr Jaya Gading Phg (24 hrs)",
        "street":"No B24 (GF) Lorong Jaya Gading 12",
        "city":"Bandar Jaya Gading",
        "state":"Pahang",
        "postcode":"26070",
        "country":"Malaysia",
        "phone":"",
        "opening_hours":null,
        "lat":3.755196,
        "lng":103.203934,
        "brand":"7-Eleven"
    },
    {
        "id":"2451",
        "name":"Bdr Kamunting Prk (24 hrs)",
        "street":"No 15 (GF), Laluan Kamunting 1, Bandar Kamunting",
        "city":"Taiping",
        "state":"Perak",
        "postcode":"34000",
        "country":"Malaysia",
        "phone":"",
        "opening_hours":null,
        "lat":4.892968,
        "lng":100.734396,
        "brand":"7-Eleven"
    },
    {
        "id":"561",
        "name":"Bdr Kinrara Puchong (24 hrs)",
        "street":"No. 2 (GF), Jalan BK 4\/2A, Bandar Kinrara, Section 4",
        "city":"Puchong",
        "state":"Selangor",
        "postcode":"47100",
        "country":"Malaysia",
        "phone":"",
        "opening_hours":null,
        "lat":3.042841,
        "lng":101.641412,
        "brand":"7-Eleven"
    },
    {
        "id":"417",
        "name":"Bdr Kluang JB (24 hrs)",
        "street":"No 3 Jalan Syed Abd Hamid Sagaff",
        "city":"Kluang",
        "state":"Johor",
        "postcode":"86000",
        "country":"Malaysia",
        "phone":"",
        "opening_hours":null,
        "lat":2.034256,
        "lng":103.320268,
        "brand":"7-Eleven"
    },
    {
        "id":"1165",
        "name":"Bdr Kubang Kerian KB KEL (24 hrs)",
        "street":"",
        "city":"Kota Bharu",
        "state":"Kelantan",
        "postcode":"",
        "country":"Malaysia",
        "phone":"",
        "opening_hours":null,
        "lat":6.100955,
        "lng":102.279968,
        "brand":"7-Eleven"
    },
    {
        "id":"2187",
        "name":"Bdr Laguna Merbok SP (24 hrs)",
        "street":"No. 9 (GF) Lorong BLM 6\/2, Bandar Laguna Merbok",
        "city":"Sungai Petani",
        "state":"Kedah",
        "postcode":"8000",
        "country":"Malaysia",
        "phone":"",
        "opening_hours":null,
        "lat":5.680562,
        "lng":100.492474,
        "brand":"7-Eleven"
    },
    {
        "id":"2106",
        "name":"Bdr Meru Jaya Iph PK (24 hrs)",
        "street":"No 13A (GF), Jalan Meru Bestari B5, Bandar Meru Raya",
        "city":"Ipoh",
        "state":"Perak",
        "postcode":"30020",
        "country":"Malaysia",
        "phone":"",
        "opening_hours":null,
        "lat":4.670085,
        "lng":101.076072,
        "brand":"7-Eleven"
    },
    {
        "id":"944",
        "name":"Bdr Pasaraya SDK (24 hrs)",
        "street":"Lot 93 (GF), Block M, Bandar Pasaraya, Jalan Utara",
        "city":"Sandakan",
        "state":"Sabah",
        "postcode":"90000",
        "country":"Malaysia",
        "phone":"",
        "opening_hours":null,
        "lat":5.858033,
        "lng":118.079164,
        "brand":"7-Eleven"
    },
    {
        "id":"2211",
        "name":"Bdr Permyjaya, Miri (24 hrs)",
        "street":"Lot 8002 (GF), Pusat Bandar Shophouses, Jalan Desa Pujut, Bandar Baru Permyjaya",
        "city":"Miri",
        "state":"Sarawak",
        "postcode":"98000",
        "country":"Malaysia",
        "phone":"",
        "opening_hours":null,
        "lat":4.451653,
        "lng":114.039666,
        "brand":"7-Eleven"
    },
    {
        "id":"2662",
        "name":"Bdr Pngkln Indah Prk (24 hrs)",
        "street":"No 3 (GF) Jalan Pangkalan Indah 4, Bandar Pangkalan Indah",
        "city":"Ipoh",
        "state":"Perak",
        "postcode":"31650",
        "country":"Malaysia",
        "phone":"",
        "opening_hours":null,
        "lat":4.542942,
        "lng":101.083102,
        "brand":"7-Eleven"
    },
    {
        "id":"627",
        "name":"Bdr Puchong Jaya",
        "street":"No. 15 (GF), Jalan Helang 13, Bandar Puchong Jaya",
        "city":"Puchong",
        "state":"Selangor",
        "postcode":"47100",
        "country":"Malaysia",
        "phone":"",
        "opening_hours":null,
        "lat":3.060746,
        "lng":101.627086,
        "brand":"7-Eleven"
    },
    {
        "id":"557",
        "name":"Bdr Puteri 7\/9 Puchong",
        "street":"No. 29-1 (GF), Jalan Puteri 7\/9, Bandar Puteri",
        "city":"Puchong",
        "state":"Selangor",
        "postcode":"47100",
        "country":"Malaysia",
        "phone":"",
        "opening_hours":null,
        "lat":3.025423,
        "lng":101.623446,
        "brand":"7-Eleven"
    },
    {
        "id":"1747",
        "name":"Bdr Puteri Jaya SP Kdh (24 hrs)",
        "street":"No 113 (GF), Jalan Bandar Puteri Jaya 1\/1, Seksyen 1, Bandar Puteri Jaya",
        "city":"Sungai Petani",
        "state":"Kedah",
        "postcode":"8000",
        "country":"Malaysia",
        "phone":"",
        "opening_hours":null,
        "lat":5.6161815,
        "lng":100.534653,
        "brand":"7-Eleven"
    },
    {
        "id":"759",
        "name":"Bdr Puteri Klg (24 hrs)",
        "street":"No. 23 (GF), Lorong Sanggul 1A, Bandar Puteri",
        "city":"Klang",
        "state":"Selangor",
        "postcode":"42000",
        "country":"Malaysia",
        "phone":"",
        "opening_hours":null,
        "lat":2.988018,
        "lng":101.467235,
        "brand":"7-Eleven"
    },
    {
        "id":"2276",
        "name":"Bdr Puteri Puchong (24 hrs)",
        "street":"No 22A (GF), Jalan Puteri 1\/2, Bandar Puteri",
        "city":"Puchong",
        "state":"Selangor",
        "postcode":"47100",
        "country":"Malaysia",
        "phone":"",
        "opening_hours":null,
        "lat":3.026493,
        "lng":101.616027,
        "brand":"7-Eleven"
    },
    {
        "id":"1028",
        "name":"Bdr Puteri1\/4 Puchong (24 hrs)",
        "street":"No. 16 (GF) Jalan Puteri 1\/4, Bandar Puteri",
        "city":"Puchong",
        "state":"Selangor",
        "postcode":"47100",
        "country":"Malaysia",
        "phone":"",
        "opening_hours":null,
        "lat":3.025924,
        "lng":101.616832,
        "brand":"7-Eleven"
    },
    {
        "id":"2104",
        "name":"Bdr Puteri5\/1 Puchong",
        "street":"No. 54-G (GF), Jalan Puteri 5\/1, Bandar Puteri",
        "city":"Puchong",
        "state":"Selangor",
        "postcode":"47100",
        "country":"Malaysia",
        "phone":"",
        "opening_hours":null,
        "lat":3.013587,
        "lng":101.615604,
        "brand":"7-Eleven"
    },
    {
        "id":"1691",
        "name":"BDR PUTRA 2 SGMT JOH (24 hrs)",
        "street":"No 80, Ground Floor, Jalan Putra 2\/23, Taman Bandar Putra",
        "city":"Segamat",
        "state":"Johor",
        "postcode":"85000",
        "country":"Malaysia",
        "phone":"",
        "opening_hours":null,
        "lat":2.4994236,
        "lng":102.8532011,
        "brand":"7-Eleven"
    },
    {
        "id":"809",
        "name":"Bdr Putra IOI, JB (24 hrs)",
        "street":"No 5432 (GF), Jalan Kenari 18, Bandar Putra IOI",
        "city":"Kulai",
        "state":"Johor",
        "postcode":"81000",
        "country":"Malaysia",
        "phone":"",
        "opening_hours":null,
        "lat":1.657168,
        "lng":103.629951,
        "brand":"7-Eleven"
    },
    {
        "id":"656",
        "name":"Bdr Putra Segamat JB (24 hrs)",
        "street":"No 13 (GF), Jalan Putra 1\/2, Bandar Putra",
        "city":"Segamat",
        "state":"Johor",
        "postcode":"85000",
        "country":"Malaysia",
        "phone":"",
        "opening_hours":null,
        "lat":2.494162,
        "lng":102.865054,
        "brand":"7-Eleven"
    },
    {
        "id":"654",
        "name":"Bdr Semenyih, SEL (24 hrs)",
        "street":"No. 17 (GF), Jalan Pasar Baru 2, Seksyen 3, Bandar Semenyih",
        "city":"Semenyih",
        "state":"Selangor",
        "postcode":"43500",
        "country":"Malaysia",
        "phone":"",
        "opening_hours":null,
        "lat":2.948229,
        "lng":101.846341,
        "brand":"7-Eleven"
    },
    {
        "id":"1867",
        "name":"Bdr Seri Alam Masai (24 hrs)",
        "street":"No. 51, Ground Floor &amp; Basement, Jalan Bina 1, Bandar Seri Alam",
        "city":"Masai",
        "state":"Johor",
        "postcode":"81750",
        "country":"Malaysia",
        "phone":"",
        "opening_hours":null,
        "lat":1.504731,
        "lng":103.873463,
        "brand":"7-Eleven"
    },
    {
        "id":"1069",
        "name":"Bdr Seri Impian Kluang JOH (24 hrs)",
        "street":"No 203 (GF), Jalan Seri Impian 8\/1D, Bandar Seri Impian",
        "city":"Kluang",
        "state":"Johor",
        "postcode":"86000",
        "country":"Malaysia",
        "phone":"",
        "opening_hours":null,
        "lat":1.98822,
        "lng":103.367218,
        "brand":"7-Eleven"
    },
    {
        "id":"2037",
        "name":"Bdr Seri Putra, KJG",
        "street":"No 12 (GF), Jalan Seri Putra 3\/13, Bandar Seri Putra",
        "city":"Kajang",
        "state":"Selangor",
        "postcode":"43000",
        "country":"Malaysia",
        "phone":"",
        "opening_hours":null,
        "lat":2.887315,
        "lng":101.779838,
        "brand":"7-Eleven"
    },
    {
        "id":"2229",
        "name":"Bdr Sri Botani PK (24 hrs)",
        "street":"No 26 (GF), Jalan Palma A\/1, Bandar Seri Botani",
        "city":"Ipoh",
        "state":"Perak",
        "postcode":"31350",
        "country":"Malaysia",
        "phone":"",
        "opening_hours":null,
        "lat":4.53703,
        "lng":101.105219,
        "brand":"7-Eleven"
    },
    {
        "id":"478",
        "name":"Bdr Sri Gombak",
        "street":"No. 57 (GF), Jalan SG 3\/1, Pusat Bandar Sri Gombak",
        "city":"Batu Caves",
        "state":"Selangor",
        "postcode":"68100",
        "country":"Malaysia",
        "phone":"",
        "opening_hours":null,
        "lat":3.240857,
        "lng":101.705053,
        "brand":"7-Eleven"
    },
    {
        "id":"868",
        "name":"Bdr Sri Jempol N9 (24 hrs)",
        "street":"No. 228 (GF), Jalan Serting Utama 4\/3, Puast Perniagaan Jempol",
        "city":"Bandar Seri Jempol",
        "state":"Negeri Sembilan",
        "postcode":"72120",
        "country":"Malaysia",
        "phone":"",
        "opening_hours":null,
        "lat":2.891982,
        "lng":102.408025,
        "brand":"7-Eleven"
    },
    {
        "id":"682",
        "name":"Bdr Sri PermaisuriKL (24hrs)",
        "street":"No. 47 (GF), Jalan Sri Permaisuri 8, Bandar Sri Permaisuri",
        "city":"Cheras",
        "state":"Kuala Lumpur",
        "postcode":"56000",
        "country":"Malaysia",
        "phone":"",
        "opening_hours":null,
        "lat":3.101494,
        "lng":101.707831,
        "brand":"7-Eleven"
    },
    {
        "id":"619",
        "name":"Bdr Sri Putra Kajang (24 hrs)",
        "street":"No. 48 (GF), Jalan Seri Putra 1\/4, Bandar Seri Putra, Bangi",
        "city":"Kajang",
        "state":"Selangor",
        "postcode":"43000",
        "country":"Malaysia",
        "phone":"",
        "opening_hours":null,
        "lat":2.8849891,
        "lng":101.7902383,
        "brand":"7-Eleven"
    },
    {
        "id":"2281",
        "name":"Bdr Sri Sendayan N9",
        "street":"No 764 (GF), Jalan Nusari Aman 3\/1, Medan Nusari, Bandar Sri Sendayan",
        "city":"Sendayan",
        "state":"Negeri Sembilan",
        "postcode":"71900",
        "country":"Malaysia",
        "phone":"",
        "opening_hours":null,
        "lat":2.660081,
        "lng":101.878165,
        "brand":"7-Eleven"
    },
    {
        "id":"890",
        "name":"Bdr Tasek Mutiara Pg (24 hrs)",
        "street":"No 92 (GF) Jalan Tasek SS2, Bandar Tasek Mutiara",
        "city":"Seberang Perai",
        "state":"Pulau Pinang",
        "postcode":"14120",
        "country":"Malaysia",
        "phone":"",
        "opening_hours":null,
        "lat":5.284306,
        "lng":100.490312,
        "brand":"7-Eleven"
    },
    {
        "id":"998",
        "name":"Bdr Teknologi Kajang (24 hrs)",
        "street":"No. 64 (GF) Jalan 1\/2, Seksyen 1, Bandar Teknologi Kajang",
        "city":"Kajang",
        "state":"Selangor",
        "postcode":"43500",
        "country":"Malaysia",
        "phone":"",
        "opening_hours":null,
        "lat":2.972723,
        "lng":101.828753,
        "brand":"7-Eleven"
    },
    {
        "id":"332",
        "name":"Bdr Tun Razak KL (24hrs)",
        "street":"No 72 Block 5, Jalan Jujur, Bandar Tun Razak",
        "city":"Cheras",
        "state":"Kuala Lumpur",
        "postcode":"56000",
        "country":"Malaysia",
        "phone":"",
        "opening_hours":null,
        "lat":3.087701,
        "lng":101.720548,
        "brand":"7-Eleven"
    },
    {
        "id":"550",
        "name":"Bdr Tunggal N9",
        "street":"No 3 (GF), Jalan Dato Bandar Tunggal",
        "city":"Seremban",
        "state":"Negeri Sembilan",
        "postcode":"70000",
        "country":"Malaysia",
        "phone":"",
        "opening_hours":null,
        "lat":2.728939,
        "lng":101.93771,
        "brand":"7-Eleven"
    },
    {
        "id":"1014",
        "name":"Bdr Universiti Prk (24 hrs)",
        "street":"No 19 (GF) Jalan PP1, Bandar Universiti, Seri Iskandar",
        "city":"Tronoh",
        "state":"Perak",
        "postcode":"31750",
        "country":"Malaysia",
        "phone":"",
        "opening_hours":null,
        "lat":4.364338,
        "lng":100.977587,
        "brand":"7-Eleven"
    },
    {
        "id":"2617",
        "name":"BdrBaruPokokSena Kdh",
        "street":"No. 1 (GF), Jalan Sena, Taman Bandar Baru",
        "city":"Pokok Sena",
        "state":"Kedah",
        "postcode":"6400",
        "country":"Malaysia",
        "phone":"",
        "opening_hours":null,
        "lat":6.166435,
        "lng":100.5085,
        "brand":"7-Eleven"
    },
    {
        "id":"2459",
        "name":"BdrKinrara 2 Puchong",
        "street":"No 5 (GF), Jalan BK 2\/11, Bandar Kinrara",
        "city":"Puchong",
        "state":"Selangor",
        "postcode":"47180",
        "country":"Malaysia",
        "phone":"",
        "opening_hours":null,
        "lat":3.052009,
        "lng":101.643576,
        "brand":"7-Eleven"
    },
    {
        "id":"2437",
        "name":"BdrKinrara 5 Puchong",
        "street":"No 5 (GF), Jalan BK 5\/12A, Bandar Kinrara",
        "city":"Puchong",
        "state":"Selangor",
        "postcode":"47180",
        "country":"Malaysia",
        "phone":"",
        "opening_hours":null,
        "lat":3.037781,
        "lng":101.646918,
        "brand":"7-Eleven"
    },
    {
        "id":"2659",
        "name":"BdrLagendaMantin N9 (24 hrs)",
        "street":"No. 2A (GF), Jalan UTL 6, Bandar Universiti Teknologi Lagenda",
        "city":"Mantin",
        "state":"Negeri Sembilan",
        "postcode":"71700",
        "country":"Malaysia",
        "phone":"",
        "opening_hours":null,
        "lat":2.821966,
        "lng":101.871197,
        "brand":"7-Eleven"
    },
    {
        "id":"2536",
        "name":"BdrPerdaB.MertajamPg (24 hrs)",
        "street":"Lot 484 (GF), Jalan Permatang Rawa, Bandar Perda",
        "city":"Bukit Mertajam",
        "state":"Penang",
        "postcode":"14000",
        "country":"Malaysia",
        "phone":"",
        "opening_hours":null,
        "lat":5.366273,
        "lng":100.437915,
        "brand":"7-Eleven"
    },
    {
        "id":"2514",
        "name":"BdrPutraPermaiS.Kemb",
        "street":"No 20 (GF), Jalan BPP 8\/4, Bandar Putra Permai",
        "city":"Seri Kembangan",
        "state":"Selangor",
        "postcode":"43300",
        "country":"Malaysia",
        "phone":"",
        "opening_hours":null,
        "lat":2.986759,
        "lng":101.665369,
        "brand":"7-Eleven"
    },
    {
        "id":"2544",
        "name":"BdrSriAlamMasai Jhr",
        "street":"No 21 (GF), Jalan Suria 7, Bandar Seri Alam",
        "city":"Masai",
        "state":"Johor",
        "postcode":"81750",
        "country":"Malaysia",
        "phone":"",
        "opening_hours":null,
        "lat":1.494269,
        "lng":103.874295,
        "brand":"7-Eleven"
    },
    {
        "id":"2553",
        "name":"BdrTenggaraKulai Jhr (24 hrs)",
        "street":"No 12 (GF), Jalan Anggerik 2\/1, Taman Anggerik Tenggara, Bandar Tenggara",
        "city":"Kulai",
        "state":"Johor",
        "postcode":"81000",
        "country":"Malaysia",
        "phone":"",
        "opening_hours":null,
        "lat":1.847816,
        "lng":103.61783,
        "brand":"7-Eleven"
    },
    {
        "id":"2465",
        "name":"BdrTskSelatan Cheras",
        "street":"No 39 (GF), Jalan Metro Centre, Jalan 8\/146, Bandar Tasik Selatan",
        "city":"Sungai Besi",
        "state":"Kuala Lumpur",
        "postcode":"57000",
        "country":"Malaysia",
        "phone":"",
        "opening_hours":null,
        "lat":3.071851,
        "lng":101.711764,
        "brand":"7-Eleven"
    },