[
  {
    "country": "MY",
    "chain": "AEON BiG",
    "brand_group": "AEON",
    "store_name": "AEON BiG Ampang",
    "state": "Selangor",
    "address": "Lot 613, Taman Dagang Permai, 68000 Ampang Jaya, Selangor",
    "operating_hours": "Weekday: 9.00am - 10.00pm\nWeekend & PH: 8.00am - 10.00pm",
    "phone": "1-300-80-2366",
    "latitude": null,
    "longitude": null,
    "source": "https://aeonbig.com.my/store-locator/",
    "scraped_at": "2025-12-20T15:51:37.966005+00:00"
  },
  {
    "country": "MY",
    "chain": "AEON BiG",
    "brand_group": "AEON",
    "store_name": "AEON BiG Batu Pahat",
    "state": "Johor",
    "address": "1B, Jalan Persiaran Flora Utama, Taman Flora Utama, 83000 Batu Pahat, Johor",
    "operating_hours": "Weekday: 9.00am - 10.00pm\nWeekend & PH: 8.00am - 10.00pm",
    "phone": "1-300-80-2366",
    "latitude": null,
    "longitude": null,
    "source": "https://aeonbig.com.my/store-locator/",
    "scraped_at": "2025-12-20T15:51:37.966045+00:00"
  },
  {
    "country": "MY",
    "chain": "AEON BiG",
    "brand_group": "AEON",
    "store_name": "AEON BiG Bukit Minyak",
    "state": "Pulau Pinang",
    "address": "Jalan Bukit Minyak 9, Taman Bukit Minyak, 14000 Bukit Mertajam, Pulau Pinang",
    "operating_hours": "Weekday: 9.00am - 10.00pm\nWeekend & PH: 8.00am - 10.00pm",
    "phone": "1-300-80-2366",
    "latitude": null,
    "longitude": null,
    "source": "https://aeonbig.com.my/store-locator/",
    "scraped_at": "2025-12-20T15:51:37.966069+00:00"
  },
  {
    "country": "MY",
    "chain": "AEON BiG",
    "brand_group": "AEON",
    "store_name": "AEON BiG Bukit Rimau",
    "state": "Selangor",
    "address": "NO.2, Jalan Sungai Burung 32/68. Seksyen 32 40460, Shah Alam, Selangor",
    "operating_hours": "Weekday: 9.00am - 10.00pm\nWeekend & PH: 8.00am - 10.00pm",
    "phone": "1-300-80-2366",
    "latitude": null,
    "longitude": null,
    "source": "https://aeonbig.com.my/store-locator/",
    "scraped_at": "2025-12-20T15:51:37.966092+00:00"
  },
  {
    "country": "MY",
    "chain": "AEON BiG",
    "brand_group": "AEON",
    "store_name": "AEON BiG Danau Kota",
    "state": "Kuala Lumpur",
    "address": "Lot PT 9834 Jalan Langkawi, Tmn Danau Kota, Mukim, Setapak, 53000 Kuala Lumpur",
    "operating_hours": "Weekday: 10.00am - 10.00pm\nWeekend & PH: 10.00am - 10.00pm",
    "phone": "1-300-80-2366",
    "latitude": null,
    "longitude": null,
    "source": "https://aeonbig.com.my/store-locator/",
    "scraped_at": "2025-12-20T15:51:37.966113+00:00"
  },
  {
    "country": "MY",
    "chain": "AEON BiG",
    "brand_group": "AEON",
    "store_name": "AEON BiG Falim Ipoh",
    "state": "Perak",
    "address": "No. 1, Hala Falim 1, Taman Mas Jaya, Falim, 30200 Ipoh Perak",
    "operating_hours": "Weekday: 9.00am - 10.00pm\nWeekend & PH: 8.00am - 10.00pm",
    "phone": "1-300-80-2366",
    "latitude": null,
    "longitude": null,
    "source": "https://aeonbig.com.my/store-locator/",
    "scraped_at": "2025-12-20T15:51:37.966136+00:00"
  },
  {
    "country": "MY",
    "chain": "AEON BiG",
    "brand_group": "AEON",
    "store_name": "AEON BiG Jaya One",
    "state": "Selangor",
    "address": "The School, 100-P2. 00, Block J, No.72A, Jln Profesor Diraja Ungku Aziz, Jaya One, 46200 Petaling Jaya, Selangor",
    "operating_hours": "Weekday: 10.00am - 10.00pm\nWeekend & PH: 10.00am - 10.00pm",
    "phone": "1-300-80-2366",
    "latitude": null,
    "longitude": null,
    "source": "https://aeonbig.com.my/store-locator/",
    "scraped_at": "2025-12-20T15:51:37.966158+00:00"
  },
  {
    "country": "MY",
    "chain": "AEON BiG",
    "brand_group": "AEON",
    "store_name": "AEON BiG Kepong",
    "state": "Kuala Lumpur",
    "address": "2, Jln Metro Perdana Barat 2, Taman Usahawan Kepong, 52100 Kuala Lumpur, Wilayah Persekutuan Kuala Lumpur",
    "operating_hours": "Weekday: 9.00am - 10.00pm\nWeekend & PH: 8.00am - 10.00pm",
    "phone": "1-300-80-2366",
    "latitude": null,
    "longitude": null,
    "source": "https://aeonbig.com.my/store-locator/",
    "scraped_at": "2025-12-20T15:51:37.966177+00:00"
  },
  {
    "country": "MY",
    "chain": "AEON BiG",
    "brand_group": "AEON",
    "store_name": "AEON BiG Klang",
    "state": "Selangor",
    "address": "2, Jalan Harmoni 3/Ku3, Sungai Pinang, 41400 Klang, Selangor",
    "operating_hours": "Weekday: 10.00am - 10.00pm\nWeekend & PH: 10.00am - 10.00pm",
    "phone": "1-300-80-2366",
    "latitude": null,
    "longitude": null,
    "source": "https://aeonbig.com.my/store-locator/",
    "scraped_at": "2025-12-20T15:51:37.966199+00:00"
  },
  {
    "country": "MY",
    "chain": "AEON BiG",
    "brand_group": "AEON",
    "store_name": "AEON BiG Kluang",
    "state": "Johor",
    "address": "Lot 1284, Jalan Mersing, Taman Aman, 86000 Kluang, Johor",
    "operating_hours": "Weekday: 9.00am - 10.00pm\nWeekend & PH: 8.00am - 10.00pm",
    "phone": "1-300-80-2366",
    "latitude": null,
    "longitude": null,
    "source": "https://aeonbig.com.my/store-locator/",
    "scraped_at": "2025-12-20T15:51:37.966225+00:00"
  },
  {
    "country": "MY",
    "chain": "AEON BiG",
    "brand_group": "AEON",
    "store_name": "AEON BiG Mid Valley",
    "state": "Kuala Lumpur",
    "address": "Level LG, Lingkaran Syed Putra, Mid Valley City, 59200 Kuala Lumpur, Federal Territory of Kuala Lumpur",
    "operating_hours": "Weekday: 10.00am - 10.00pm\nWeekend & PH: 10.00am - 10.00pm",
    "phone": "1-300-80-2366",
    "latitude": null,
    "longitude": null,
    "source": "https://aeonbig.com.my/store-locator/",
    "scraped_at": "2025-12-20T15:51:37.966245+00:00"
  },
  {
    "country": "MY",
    "chain": "AEON BiG",
    "brand_group": "AEON",
    "store_name": "AEON BiG Palm Mall",
    "state": "Negeri Sembilan",
    "address": "G-16, Palm Mall Seremban, Lebuhraya Seremban - Bukit Nenas, Kemayan Square, 70200 Seremban, Negeri Sembilan",
    "operating_hours": "Weekday: 10.00am - 10.00pm\nWeekend & PH: 10.00am - 10.00pm",
    "phone": "1-300-80-2366",
    "latitude": null,
    "longitude": null,
    "source": "https://aeonbig.com.my/store-locator/",
    "scraped_at": "2025-12-20T15:51:37.966266+00:00"
  },
  {
    "country": "MY",
    "chain": "AEON BiG",
    "brand_group": "AEON",
    "store_name": "AEON BiG Penang Prai",
    "state": "Pulau Pinang",
    "address": "2929 Jalan Kelisa Emas 1, Seberang Jaya, 13700 Perai, Penang",
    "operating_hours": "Weekday: 9.00am - 10.00pm\nWeekend & PH: 9.00am - 10.00pm",
    "phone": "1-300-80-2366",
    "latitude": null,
    "longitude": null,
    "source": "https://aeonbig.com.my/store-locator/",
    "scraped_at": "2025-12-20T15:51:37.966287+00:00"
  },
  {
    "country": "MY",
    "chain": "AEON BiG",
    "brand_group": "AEON",
    "store_name": "AEON BiG Puchong Utama",
    "state": "Selangor",
    "address": "Persiaran Puchong Permai, Taman Puchong Prima, 47100 Puchong, Selangor",
    "operating_hours": "Weekday: 9.00am - 10.00pm\nWeekend & PH: 8.00am - 10.00pm",
    "phone": "1-300-80-2366",
    "latitude": null,
    "longitude": null,
    "source": "https://aeonbig.com.my/store-locator/",
    "scraped_at": "2025-12-20T15:51:37.966306+00:00"
  },
  {
    "country": "MY",
    "chain": "AEON BiG",
    "brand_group": "AEON",
    "store_name": "AEON BiG Putrajaya",
    "state": "Putrajaya",
    "address": "Lower Ground Floor & Ground Floor , Alamanda Putrajaya Shopping Centre, Jalan Alamanda, Presint 1, 62000, Wilayah Persekutuan Putrajaya",
    "operating_hours": "Weekday: 10.00am - 10.00pm\nWeekend & PH: 10.00am - 10.00pm",
    "phone": "1-300-80-2366",
    "latitude": null,
    "longitude": null,
    "source": "https://aeonbig.com.my/store-locator/",
    "scraped_at": "2025-12-20T15:51:37.966330+00:00"
  },
  {
    "country": "MY",
    "chain": "AEON BiG",
    "brand_group": "AEON",
    "store_name": "AEON BiG Seri Petaling",
    "state": "Kuala Lumpur",
    "address": "Endah Parade, 1, Jalan 1/149e, Taman Sri Endah, 57000 Kuala Lumpur, Wilayah Persekutuan Kuala Lumpur",
    "operating_hours": "Weekday: 10.00am - 9.00pm\nWeekend & PH: 10.00am - 9.00pm",
    "phone": "1-300-80-2366",
    "latitude": null,
    "longitude": null,
    "source": "https://aeonbig.com.my/store-locator/",
    "scraped_at": "2025-12-20T15:51:37.966350+00:00"
  },
  {
    "country": "MY",
    "chain": "AEON BiG",
    "brand_group": "AEON",
    "store_name": "AEON BiG Subang Jaya",
    "state": "Selangor",
    "address": "Jalan Kemajuan Subang, SS 16, 47500 Subang Jaya, Selangor",
    "operating_hours": "Mon to Fri: 9.00am - 10.00pm\nSat, Sun & PH: 8.00am - 10.00pm",
    "phone": "1-300-80-2366",
    "latitude": null,
    "longitude": null,
    "source": "https://aeonbig.com.my/store-locator/",
    "scraped_at": "2025-12-20T15:51:37.966369+00:00"
  },
  {
    "country": "MY",
    "chain": "AEON BiG",
    "brand_group": "AEON",
    "store_name": "AEON BiG Sutera Utama",
    "state": "Johor",
    "address": "Level 3-033, Sutera Mall, 1, Jalan Sutera Tanjung 8/4, Taman Sutera Utama, 81300 Skudai, Johor",
    "operating_hours": "Weekday: 10.00am - 10.30pm\nWeekend & PH: 10.00am - 10.30pm",
    "phone": "1-300-80-2366",
    "latitude": null,
    "longitude": null,
    "source": "https://aeonbig.com.my/store-locator/",
    "scraped_at": "2025-12-20T15:51:37.966391+00:00"
  },
  {
    "country": "MY",
    "chain": "AEON BiG",
    "brand_group": "AEON",
    "store_name": "AEON BiG Tun Hussein Onn",
    "state": "Selangor",
    "address": "Bandar Tun Hussien Onn, Jln, Persiaran Suarasa 2, Tun Hussein Onn, 43200 Cheras, Selangor",
    "operating_hours": "Weekday: 9.00am - 10.00pm\nWeekend & PH: 8.00am - 10.00pm",
    "phone": "1-300-80-2366",
    "latitude": null,
    "longitude": null,
    "source": "https://aeonbig.com.my/store-locator/",
    "scraped_at": "2025-12-20T15:51:37.966410+00:00"
  },
  {
    "country": "MY",
    "chain": "AEON BiG",
    "brand_group": "AEON",
    "store_name": "AEON BiG Wangsa Maju",
    "state": "Kuala Lumpur",
    "address": "6, Jalan 8/27A, Section 5, Wangsa Maju, 53300, Kuala Lumpur, Wilayah Persekutuan",
    "operating_hours": "Weekday: 9.00am - 10.00pm\nWeekend & PH: 8.00am - 10.00pm",
    "phone": "1-300-80-2366",
    "latitude": null,
    "longitude": null,
    "source": "https://aeonbig.com.my/store-locator/",
    "scraped_at": "2025-12-20T15:51:37.966428+00:00"
  },
  {
    "country": "MY",
    "chain": "AEON BiG",
    "brand_group": "AEON",
    "store_name": "AEON BiG Shah Alam",
    "state": "Selangor",
    "address": "10, Jalan Dividen 23/6, Seksyen 23, 40300 Shah Alam, Selangor",
    "operating_hours": "Weekday: 9.00am - 10.00pm\nWeekend & PH: 8.00am - 10.00pm",
    "phone": "1-300-80-2366",
    "latitude": null,
    "longitude": null,
    "source": "https://aeonbig.com.my/store-locator/",
    "scraped_at": "2025-12-20T15:51:37.966448+00:00"
  }
]