[
    {
        "id": "163",
        "name": "CU Alor Setar",
        "street": "CU Alor Setar, 48, Jalan Kuala Kedah, Taman Gunung Indah, ",
        "city": "ALOR SETAR",
        "state": "KEDAH",
        "postcode": "05400",
        "country": "Malaysia",
        "slug": "cu-alor-setar-alor-setar",
        "brand": "CU Mart",
        "categories": "32",
        "phone": "",
        "full_hours": "24 Hours",
        "open_hours": "{\"mon\": \"1\", \"tue\": \"1\", \"wed\": \"1\", \"thu\": \"1\", \"fri\": \"1\", \"sat\": \"1\", \"sun\": \"1\"}",
        "lat": 6.096797172225901,
        "lng": 100.35679224889525
    },
    {
        "id": "154",
        "name": "CU Bukit Baru",
        "street": " PUSAT NIAGA NO,5-2, JALAN PNBBU 1, JALAN UTAMA, ",
        "city": "BUKIT BARU",
        "state": "MELAKA",
        "postcode": "75150",
        "country": "Malaysia",
        "slug": "cu-bukit-baru-bukit-baru",
        "brand": "CU Mart",
        "categories": "31",
        "phone": "",
        "full_hours": "",
        "open_hours": "{\"mon\": [\"07:00 AM - 12:00 AM\"], \"tue\": [\"07:00 AM - 12:00 AM\"], \"wed\": [\"07:00 AM - 12:00 AM\"], \"thu\": [\"07:00 AM - 12:00 AM\"], \"fri\": [\"07:00 AM - 12:00 AM\"], \"sat\": [\"07:00 AM - 12:00 AM\"], \"sun\": [\"07:00 AM - 12:00 AM\"]}",
        "lat": 2.2165749307179476,
        "lng": 102.27048392286524
    },
    {
        "id": "162",
        "name": "CU Kuala Ketil",
        "street": "108 & 109, PERSIARAN KKCC 2, COMMERCIAL CENTRE,",
        "city": "KUALA KETIL",
        "state": " KEDAH",
        "postcode": "09300",
        "country": "Malaysia",
        "slug": "cu-kuala-ketil-kuala-ketil",
        "brand": "CU Mart",
        "categories": "32",
        "phone": "",
        "full_hours": "",
        "open_hours": "{\"mon\": [\"07:00 AM - 02:00 AM\"], \"tue\": [\"07:00 AM - 02:00 AM\"], \"wed\": [\"07:00 AM - 02:00 AM\"], \"thu\": [\"07:00 AM - 02:00 AM\"], \"fri\": [\"07:00 AM - 02:00 AM\"], \"sat\": [\"07:00 AM - 02:00 AM\"], \"sun\": [\"07:00 AM - 02:00 AM\"]}",
        "lat": 5.6051911453632055,
        "lng": 100.64059232894348
    },
    {
        "id": "161",
        "name": "CU Riverfront Sungai Petani",
        "street": "CU Riverfront Sungai Petani, No.101, Tingkat, 1, Jalan Mawar 2, Taman Pekan Baru, ",
        "city": "SUNGAI PETANI",
        "state": "KEDAH",
        "postcode": "Â 08000",
        "country": "Malaysia",
        "slug": "cu-riverfront-sungai-petani-sungai-petani",
        "brand": "CU Mart",
        "categories": "32",
        "phone": "",
        "full_hours": "",
        "open_hours": "{\"mon\": [\"07:00 AM - 02:00 AM\"], \"tue\": [\"07:00 AM - 02:00 AM\"], \"wed\": [\"07:00 AM - 02:00 AM\"], \"thu\": [\"07:00 AM - 02:00 AM\"], \"fri\": [\"07:00 AM - 02:00 AM\"], \"sat\": [\"07:00 AM - 02:00 AM\"], \"sun\": [\"07:00 AM - 02:00 AM\"]}",
        "lat": 5.640101740221939,
        "lng": 100.48100229403929
    },
    {
        "id": "145",
        "name": "CU Setia Alam",
        "street": "10-G-58, JLN SETIA GEMILANG BM U13/BM",
        "city": "SETIA ALAM",
        "state": "SELANGOR",
        "postcode": "40170",
        "country": "Malaysia",
        "slug": "cu-setia-alam-setia-alam",
        "brand": "CU Mart",
        "categories": "30",
        "phone": "",
        "full_hours": null,
        "open_hours": "{\"mon\": [\"07:00 AM - 12:00 AM\"], \"tue\": [\"07:00 AM - 12:00 AM\"], \"wed\": [\"07:00 AM - 12:00 AM\"], \"thu\": [\"07:00 AM - 12:00 AM\"], \"fri\": [\"07:00 AM - 12:00 AM\"], \"sat\": [\"07:00 AM - 12:00 AM\"], \"sun\": [\"07:00 AM - 12:00 AM\"]}",
        "lat": 3.127528241500311,
        "lng": 101.46854321857083
    },
    {
        "id": "131",
        "name": "CU Solaria Square",
        "street": "CU, G-7, SOLARIA SQUARE, Jalan Tun Dr Awang, Kampung Perlis,",
        "city": "Bayan Lepas",
        "state": "Penang",
        "postcode": "11900",
        "country": "Malaysia",
        "slug": "cu-solaria-square-bayan-lepas",
        "brand": "CU Mart",
        "categories": "28",
        "phone": "",
        "full_hours": "",
        "open_hours": "{\"mon\": [\"07:00 AM - 12:00 AM\"], \"tue\": [\"07:00 AM - 12:00 AM\"], \"wed\": [\"07:00 AM - 12:00 AM\"], \"thu\": [\"07:00 AM - 12:00 AM\"], \"fri\": [\"07:00 AM - 12:00 AM\"], \"sat\": [\"07:00 AM - 12:00 AM\"], \"sun\": [\"07:00 AM - 12:00 AM\"]}",
        "lat": 5.300151153309237,
        "lng": 100.26621723952547
    },
    {
        "id": "139",
        "name": "CU Sri Damansara",
        "street": "CU Bandar Sri Damansara, 16, Jalan Tanjung SD 13/1, Bandar Sri Damansara,",
        "city": "BANDAR SRI DAMANSARA",
        "state": "KUALA LUMPUR",
        "postcode": "52200",
        "country": "Malaysia",
        "slug": "cu-sri-damansara-bandar-sri-damansara",
        "brand": "CU Mart",
        "categories": "24",
        "phone": "",
        "full_hours": "",
        "open_hours": "{\"mon\": [\"07:00 AM - 12:00 AM\"], \"tue\": [\"07:00 AM - 12:00 AM\"], \"wed\": [\"07:00 AM - 12:00 AM\"], \"thu\": [\"07:00 AM - 12:00 AM\"], \"fri\": [\"07:00 AM - 12:00 AM\"], \"sat\": [\"07:00 AM - 12:00 AM\"], \"sun\": [\"07:00 AM - 12:00 AM\"]}",
        "lat": 3.1883843254715436,
        "lng": 101.60544583013595
    },
    {
        "id": "149",
        "name": "CU Subang Skypark",
        "street": "CU Subang Skypark, 3, Jalan Lapangan Terbang Subang, Lapangan Terbang Sultan Abdul Aziz Shah,",
        "city": "SUBANG",
        "state": "SELANGOR",
        "postcode": "47200",
        "country": "Malaysia",
        "slug": "cu-subang-skypark-subang",
        "brand": "CU Mart",
        "categories": "30",
        "phone": "",
        "full_hours": "",
        "open_hours": "{\"mon\": [\"07:00 AM - 10:00 PM\"], \"tue\": [\"07:00 AM - 10:00 PM\"], \"wed\": [\"07:00 AM - 10:00 PM\"], \"thu\": [\"07:00 AM - 10:00 PM\"], \"fri\": [\"07:00 AM - 10:00 PM\"], \"sat\": [\"07:00 AM - 10:00 PM\"], \"sun\": [\"07:00 AM - 10:00 PM\"]}",
        "lat": 3.133490761825774,
        "lng": 101.55378750285068
    },
    {
        "id": "110",
        "name": "CU 1 Utama",
        "street": "LOT F202 & F203 1ST FLOOR, 1 UTAMA SHOPPING CENTRE BANDAR UTAMA",
        "city": "petaling jaya",
        "state": "selangor",
        "postcode": "47800",
        "country": "Malaysia",
        "slug": "cu-1-utama-petaling-jaya",
        "brand": "CU Mart",
        "categories": "30",
        "phone": "",
        "full_hours": "",
        "open_hours": "{\"mon\": [\"07:00 AM - 12:00 AM\"], \"tue\": [\"07:00 AM - 12:00 AM\"], \"wed\": [\"07:00 AM - 12:00 AM\"], \"thu\": [\"07:00 AM - 12:00 AM\"], \"fri\": [\"07:00 AM - 12:00 AM\"], \"sat\": [\"07:00 AM - 12:00 AM\"], \"sun\": [\"07:00 AM - 12:00 AM\"]}",
        "lat": 3.149061760451449,
        "lng": 101.61614724965175
    },
    {
        "id": "156",
        "name": "CU Alor Gajah",
        "street": "CU Alor Gajah, 1, Jalan Perniagaan Jelatang 1, Pusat Perniagaan Jelatang, ",
        "city": "ALOR GAJAH",
        "state": "MELAKA",
        "postcode": "78000",
        "country": "Malaysia",
        "slug": "cu-alor-gajah-alor-gajah",
        "brand": "CU Mart",
        "categories": "31",
        "phone": "",
        "full_hours": "",
        "open_hours": "{\"mon\": [\"07:00 AM - 12:00 AM\"], \"tue\": [\"07:00 AM - 12:00 AM\"], \"wed\": [\"07:00 AM - 12:00 AM\"], \"thu\": [\"07:00 AM - 12:00 AM\"], \"fri\": [\"07:00 AM - 12:00 AM\"], \"sat\": [\"07:00 AM - 12:00 AM\"], \"sun\": [\"07:00 AM - 12:00 AM\"]}",
        "lat": 2.3847046273035777,
        "lng": 102.21644068317967
    },
    {
        "id": "183",
        "name": "CU Amanjaya Walk",
        "street": "CU Amanjaya Walk, Block E-6, PT 60651, Jalan Jati 1/1, Pusat Perniagaan Amanjaya,",
        "city": "Sungai Petani",
        "state": "KEDAH",
        "postcode": "08000 ",
        "country": "Malaysia",
        "slug": "cu-amanjaya-walk-sungai-petani",
        "brand": "CU Mart",
        "categories": "32",
        "phone": "",
        "full_hours": "",
        "open_hours": "{\"mon\": [\"06:00 AM - 02:00 AM\"], \"tue\": [\"06:00 AM - 02:00 AM\"], \"wed\": [\"06:00 AM - 02:00 AM\"], \"thu\": [\"06:00 AM - 02:00 AM\"], \"fri\": [\"06:00 AM - 02:00 AM\"], \"sat\": [\"06:00 AM - 02:00 AM\"], \"sun\": [\"06:00 AM - 02:00 AM\"]}",
        "lat": 5.675299514901845,
        "lng": 100.50844548207677
    },
    {
        "id": "120",
        "name": "CU Amerin Mall",
        "street": "LOT G-7 & G-8, THE AMERIN MALL JALAN IMPIAN INDAH ",
        "city": "Seri Kembangan",
        "state": "Selangor",
        "postcode": "43300",
        "country": "Malaysia",
        "slug": "cu-amerin-mall-seri-kembangan",
        "brand": "CU Mart",
        "categories": "30",
        "phone": "",
        "full_hours": null,
        "open_hours": "{\"mon\": [\"07:00 AM - 12:00 AM\"], \"tue\": [\"07:00 AM - 12:00 AM\"], \"wed\": [\"07:00 AM - 12:00 AM\"], \"thu\": [\"07:00 AM - 12:00 AM\"], \"fri\": [\"07:00 AM - 12:00 AM\"], \"sat\": [\"07:00 AM - 12:00 AM\"], \"sun\": [\"07:00 AM - 12:00 AM\"]}",
        "lat": 3.0250011461785795,
        "lng": 101.75113124000033
    },
    {
        "id": "71",
        "name": "CU Arkadia Desa Parkcity",
        "street": "CU @ Plaza Arkadia, F-G-10, Plaza Arkadia, 3, Jalan Intisari, Desa Parkcity,",
        "city": "Kuala Lumpur",
        "state": "Kuala Lumpur",
        "postcode": "52200",
        "country": "Malaysia",
        "slug": "cu-arkadia-desa-parkcity-kuala-lumpur",
        "brand": "CU Mart",
        "categories": "24",
        "phone": "",
        "full_hours": "",
        "open_hours": "{\"mon\": [\"07:00 AM - 12:00 AM\"], \"tue\": [\"07:00 AM - 12:00 AM\"], \"wed\": [\"07:00 AM - 12:00 AM\"], \"thu\": [\"07:00 AM - 12:00 AM\"], \"fri\": [\"07:00 AM - 12:00 AM\"], \"sat\": [\"07:00 AM - 12:00 AM\"], \"sun\": [\"07:00 AM - 12:00 AM\"]}",
        "lat": 3.1864229723830615,
        "lng": 101.63613751692182
    },
    {
        "id": "190",
        "name": "CU Aurelius Hospital Alor Setar",
        "street": "RETAIL 3, AURELIUS HOSPITAL NO. B-5, PERSIARAN BANDAR BARU MERGONG JALAN PERUSAHAAN 1, BDR BARU MERGONG, ",
        "city": "Alor Setar",
        "state": "KEDAH",
        "postcode": "05150",
        "country": "Malaysia",
        "slug": "cu-aurelius-hospital-alor-setar-alor-setar",
        "brand": "CU Mart",
        "categories": "32",
        "phone": "",
        "full_hours": "",
        "open_hours": "{\"mon\": [\"08:00 AM - 08:00 PM\"], \"tue\": [\"08:00 AM - 08:00 PM\"], \"wed\": [\"08:00 AM - 08:00 PM\"], \"thu\": [\"08:00 AM - 08:00 PM\"], \"fri\": [\"08:00 AM - 08:00 PM\"], \"sat\": [\"08:00 AM - 08:00 PM\"], \"sun\": [\"08:00 AM - 08:00 PM\"]}",
        "lat": 6.012119746381787,
        "lng": 102.3811556065312
    },
    {
        "id": "210",
        "name": "CU Aurelius Hospital Negeri Sembilan",
        "street": "PT 13717, Jalan BBN 2/1",
        "city": "NILAI",
        "state": "NEGERI SEMBILAN",
        "postcode": "71800",
        "country": "Malaysia",
        "slug": "cu-aurelius-hospital-negeri-sembilan-nilai",
        "brand": "CU Mart",
        "categories": "26",
        "phone": "",
        "full_hours": "",
        "open_hours": "{\"mon\": [\"07:00 AM - 07:00 PM\"], \"tue\": [\"07:00 AM - 07:00 PM\"], \"wed\": [\"07:00 AM - 07:00 PM\"], \"thu\": [\"07:00 AM - 07:00 PM\"], \"fri\": [\"07:00 AM - 07:00 PM\"], \"sat\": [\"07:00 AM - 07:00 PM\"], \"sun\": [\"07:00 AM - 07:00 PM\"]}",
        "lat": 2.8117784763627793,
        "lng": 101.77416014417828
    },
    {
        "id": "67",
        "name": "CU Avenue K",
        "street": "CU Mart 5070, Avenue K, C3B, Avenue K, Jln Ampang, ",
        "city": "Kuala Lumpur",
        "state": "Kuala Lumpur",
        "postcode": "50450",
        "country": "Malaysia",
        "slug": "cu-avenue-k-kuala-lumpur",
        "brand": "CU Mart",
        "categories": "24",
        "phone": "",
        "full_hours": "",
        "open_hours": "{\"mon\": [\"07:00 AM - 12:00 AM\"], \"tue\": [\"07:00 AM - 12:00 AM\"], \"wed\": [\"07:00 AM - 12:00 AM\"], \"thu\": [\"07:00 AM - 12:00 AM\"], \"fri\": [\"07:00 AM - 12:00 AM\"], \"sat\": [\"07:00 AM - 12:00 AM\"], \"sun\": [\"07:00 AM - 12:00 AM\"]}",
        "lat": 3.15948952633391,
        "lng": 101.71354125492283
    },
    {
        "id": "80",
        "name": "CU Awana Skyway",
        "street": "LOT NO. 2-4, LEVEL 2 AWANA SKYWAY STATION ",
        "city": "Genting Highlands",
        "state": "pahang",
        "postcode": "69000",
        "country": "Malaysia",
        "slug": "cu-awana-skyway-genting-highlands",
        "brand": "CU Mart",
        "categories": "27",
        "phone": "",
        "full_hours": null,
        "open_hours": "{\"mon\": [\"07:00 AM - 12:00 AM\"], \"tue\": [\"07:00 AM - 12:00 AM\"], \"wed\": [\"07:00 AM - 12:00 AM\"], \"thu\": [\"07:00 AM - 12:00 AM\"], \"fri\": [\"07:00 AM - 12:00 AM\"], \"sat\": [\"07:00 AM - 12:00 AM\"], \"sun\": [\"07:00 AM - 12:00 AM\"]}",
        "lat": 3.4037526475224413,
        "lng": 101.78288109294623
    },
    {
        "id": "75",
        "name": "CU Bahau",
        "street": "CU Bahau, 10e, Jalan Kiara 1, ",
        "city": "Bahau",
        "state": "Negeri Sembilan",
        "postcode": "72100",
        "country": "Malaysia",
        "slug": "cu-bahau-bahau",
        "brand": "CU Mart",
        "categories": "26",
        "phone": "",
        "full_hours": "24 Hours",
        "open_hours": "{\"mon\": \"1\", \"tue\": \"1\", \"wed\": \"1\", \"thu\": \"1\", \"fri\": \"1\", \"sat\": \"1\", \"sun\": \"1\"}",
        "lat": 2.8100254522205903,
        "lng": 102.39573483572435
    },
    {
        "id": "57",
        "name": "CU Bandar 2 Bukit Jalil",
        "street": "LOT NO. 1.37.00, LEVEL 1 PUSAT BANDAR 2, PERSIARAN JALIL UTAMA ",
        "city": "Bukit Jalil",
        "state": "Kuala Lumpur",
        "postcode": "57000",
        "country": "Malaysia",
        "slug": "cu-bandar-2-bukit-jalil-bukit-jalil",
        "brand": "CU Mart",
        "categories": "24",
        "phone": "",
        "full_hours": null,
        "open_hours": "{\"mon\": [\"07:00 AM - 12:00 AM\"], \"tue\": [\"07:00 AM - 12:00 AM\"], \"wed\": [\"07:00 AM - 12:00 AM\"], \"thu\": [\"07:00 AM - 12:00 AM\"], \"fri\": [\"07:00 AM - 12:00 AM\"], \"sat\": [\"07:00 AM - 12:00 AM\"], \"sun\": [\"07:00 AM - 12:00 AM\"]}",
        "lat": 3.049827986732248,
        "lng": 101.67139676986446
    },
    {
        "id": "94",
        "name": "CU Bandar Baru Kampar",
        "street": "CU, NO. 2246, JALAN BATU SINAR TAMAN BANDAR BARU ",
        "city": "Kampar",
        "state": "Perak",
        "postcode": "31900",
        "country": "Malaysia",
        "slug": "cu-bandar-baru-kampar-kampar",
        "brand": "CU Mart",
        "categories": "29",
        "phone": "",
        "full_hours": "24 Hours",
        "open_hours": "{\"mon\": \"1\", \"tue\": \"1\", \"wed\": \"1\", \"thu\": \"1\", \"fri\": \"1\", \"sat\": \"1\", \"sun\": \"1\"}",
        "lat": 4.326149188321749,
        "lng": 101.1450267733269
    },
    {
        "id": "42",
        "name": "CU Bandar Baru Uda Johor Bahru",
        "street": "CU Bandar Baru Uda JB, 8 & 10, Jalan Padi Emas 6/1, Bandar Baru Uda,",
        "city": "Johor Bahru",
        "state": "Johor ",
        "postcode": "81200",
        "country": "Malaysia",
        "slug": "cu-bandar-baru-uda-johor-bahru-johor-bahru",
        "brand": "CU Mart",
        "categories": "23",
        "phone": "",
        "full_hours": "24 Hours",
        "open_hours": "{\"mon\": \"1\", \"tue\": \"1\", \"wed\": \"1\", \"thu\": \"1\", \"fri\": \"1\", \"sat\": \"1\", \"sun\": \"1\"}",
        "lat": 1.4999239848419095,
        "lng": 103.70831827853964
    },
    {
        "id": "70",
        "name": "CU Bandar Damai Perdana",
        "street": "No. 20, Jalan Damai Perdana 1/9a, Bandar Damai Perdana,",
        "city": "Kuala Lumpur",
        "state": "Kuala Lumpur",
        "postcode": "56100",
        "country": "Malaysia",
        "slug": "cu-bandar-damai-perdana-kuala-lumpur",
        "brand": "CU Mart",
        "categories": "24",
        "phone": "",
        "full_hours": null,
        "open_hours": "{\"mon\": [\"07:00 AM - 12:00 AM\"], \"tue\": [\"07:00 AM - 12:00 AM\"], \"wed\": [\"07:00 AM - 12:00 AM\"], \"thu\": [\"07:00 AM - 12:00 AM\"], \"fri\": [\"07:00 AM - 12:00 AM\"], \"sat\": [\"07:00 AM - 12:00 AM\"], \"sun\": [\"07:00 AM - 12:00 AM\"]}",
        "lat": 3.045894499926404,
        "lng": 101.73928413695234
    },
    {
        "id": "153",
        "name": "CU Bandar Mahkota Cheras",
        "street": "No.45-G, Jalan Temenggung 11/9, ",
        "city": "BANDAR MAHKOTA CHERAS",
        "state": "SELANGOR ",
        "postcode": "43200",
        "country": "Malaysia",
        "slug": "cu-bandar-mahkota-cheras-bandar-mahkota-cheras",
        "brand": "CU Mart",
        "categories": "30",
        "phone": "",
        "full_hours": null,
        "open_hours": "{\"mon\": [\"07:00 AM - 12:00 AM\"], \"tue\": [\"07:00 AM - 12:00 AM\"], \"wed\": [\"07:00 AM - 12:00 AM\"], \"thu\": [\"07:00 AM - 12:00 AM\"], \"fri\": [\"07:00 AM - 12:00 AM\"], \"sat\": [\"07:00 AM - 12:00 AM\"], \"sun\": [\"07:00 AM - 12:00 AM\"]}",
        "lat": 3.0534490833769694,
        "lng": 101.78886212040621
    },
    {
        "id": "55",
        "name": "CU Bandar Menjalara",
        "street": "CU Bandar Manjalara Kepong, Jalan 3/62a, ",
        "city": "Bandar Menjalara",
        "state": "Kuala Lumpur",
        "postcode": "52200",
        "country": "Malaysia",
        "slug": "cu-bandar-menjalara-bandar-menjalara",
        "brand": "CU Mart",
        "categories": "24",
        "phone": "",
        "full_hours": "",
        "open_hours": "{\"mon\": [\"07:00 AM - 12:00 AM\"], \"tue\": [\"07:00 AM - 12:00 AM\"], \"wed\": [\"07:00 AM - 12:00 AM\"], \"thu\": [\"07:00 AM - 12:00 AM\"], \"fri\": [\"07:00 AM - 12:00 AM\"], \"sat\": [\"07:00 AM - 12:00 AM\"], \"sun\": [\"07:00 AM - 12:00 AM\"]}",
        "lat": 3.195120191173609,
        "lng": 101.63095893787512
    },
    {
        "id": "187",
        "name": "CU Bandar Pasir Putih",
        "street": "CU Bandar Baru Pasir Puteh, PT2278, Tingkat Bawah, Kg, Jalan Banggol Kerian, Bandar Baru, ",
        "city": "Pasir Puteh",
        "state": "KELANTAN",
        "postcode": "16800",
        "country": "Malaysia",
        "slug": "cu-bandar-pasir-putih-pasir-puteh",
        "brand": "CU Mart",
        "categories": "34",
        "phone": "",
        "full_hours": "",
        "open_hours": "{\"mon\": [\"07:00 AM - 02:00 AM\"], \"tue\": [\"07:00 AM - 02:00 AM\"], \"wed\": [\"07:00 AM - 02:00 AM\"], \"thu\": [\"07:00 AM - 02:00 AM\"], \"fri\": [\"07:00 AM - 02:00 AM\"], \"sat\": [\"07:00 AM - 02:00 AM\"], \"sun\": [\"07:00 AM - 02:00 AM\"]}",
        "lat": 5.828413491895634,
        "lng": 102.40277203811215
    },
    {
        "id": "83",
        "name": "CU Bandar Perda Bukit Mertajam",
        "street": "NO. 456, JALAN PERMATANG RAWA BANDAR PERDA ",
        "city": "Bukit Mertajam",
        "state": "Penang",
        "postcode": "14000",
        "country": "Malaysia",
        "slug": "cu-bandar-perda-bukit-mertajam-bukit-mertajam",
        "brand": "CU Mart",
        "categories": "28",
        "phone": "",
        "full_hours": null,
        "open_hours": "{\"mon\": [\"07:00 AM - 12:00 AM\"], \"tue\": [\"07:00 AM - 12:00 AM\"], \"wed\": [\"07:00 AM - 12:00 AM\"], \"thu\": [\"07:00 AM - 12:00 AM\"], \"fri\": [\"07:00 AM - 12:00 AM\"], \"sat\": [\"07:00 AM - 12:00 AM\"], \"sun\": [\"07:00 AM - 12:00 AM\"]}",
        "lat": 5.365699086800761,
        "lng": 100.43618170505435
    },
    {
        "id": "117",
        "name": "CU Bandar Tasik Puteri Rawang",
        "street": "NO. 58-G-A & 58-G-B (GF) JALAN 7A/2, BANDAR TASIK PUTERI ",
        "city": "rawang",
        "state": "Selangor",
        "postcode": "48000",
        "country": "Malaysia",
        "slug": "cu-bandar-tasik-puteri-rawang-rawang",
        "brand": "CU Mart",
        "categories": "30",
        "phone": "",
        "full_hours": null,
        "open_hours": "{\"mon\": [\"07:00 AM - 12:00 AM\"], \"tue\": [\"07:00 AM - 12:00 AM\"], \"wed\": [\"07:00 AM - 12:00 AM\"], \"thu\": [\"07:00 AM - 12:00 AM\"], \"fri\": [\"07:00 AM - 12:00 AM\"], \"sat\": [\"07:00 AM - 12:00 AM\"], \"sun\": [\"07:00 AM - 12:00 AM\"]}",
        "lat": 3.2842382689296525,
        "lng": 101.4731406132781
    },
    {
        "id": "144",
        "name": "CU Bandar Utama Batang Kali",
        "street": "CU Bandar Utama Batang Kali, 69, Jalan Ara 2, Pusat Perdagangan Ara, Seksyen 5 Bandar Utama Batang Kali, ",
        "city": "BATANG KALI",
        "state": "SELANGOR",
        "postcode": "44300",
        "country": "Malaysia",
        "slug": "cu-bandar-utama-batang-kali-batang-kali",
        "brand": "CU Mart",
        "categories": "30",
        "phone": "",
        "full_hours": "24 Hours",
        "open_hours": "{\"mon\": \"1\", \"tue\": \"1\", \"wed\": \"1\", \"thu\": \"1\", \"fri\": \"1\", \"sat\": \"1\", \"sun\": \"1\"}",
        "lat": 3.4546728109335874,
        "lng": 101.66249215589768
    },
    {
        "id": "167",
        "name": "CU Bendahara",
        "street": "CU mart @ Kuala Selangor, 16 & 18, Jalan Bendahara 1a, Taman Bendahara, ",
        "city": "KUALA SELANGOR",
        "state": "SELANGOR",
        "postcode": "45000",
        "country": "Malaysia",
        "slug": "cu-bendahara-kuala-selangor",
        "brand": "CU Mart",
        "categories": "30",
        "phone": "",
        "full_hours": "24 Hours",
        "open_hours": "{\"mon\": \"1\", \"tue\": \"1\", \"wed\": \"1\", \"thu\": \"1\", \"fri\": \"1\", \"sat\": \"1\", \"sun\": \"1\"}",
        "lat": 3.3220383245654297,
        "lng": 101.2670590119774
    },
    {
        "id": "130",
        "name": "CU Bintang Ria",
        "street": "CU Simpang Renggam, 29, Jalan Bintang Ria 2, Kampung Simpang Renggam,",
        "city": "SIMPANG RENGGAM",
        "state": " JOHOR",
        "postcode": "86200",
        "country": "Malaysia",
        "slug": "cu-bintang-ria-simpang-renggam",
        "brand": "CU Mart",
        "categories": "23",
        "phone": "",
        "full_hours": "",
        "open_hours": "{\"mon\": [\"07:00 AM - 12:00 AM\"], \"tue\": [\"07:00 AM - 12:00 AM\"], \"wed\": [\"07:00 AM - 12:00 AM\"], \"thu\": [\"07:00 AM - 12:00 AM\"], \"fri\": [\"07:00 AM - 12:00 AM\"], \"sat\": [\"07:00 AM - 12:00 AM\"], \"sun\": [\"07:00 AM - 12:00 AM\"]}",
        "lat": 1.8301618382129619,
        "lng": 103.30794159176567
    },
    {
        "id": "48",
        "name": "CU Bukit Dahlia",
        "street": "No. 28, Jalan Serangkai 18, Taman Bukit Dahlia,",
        "city": "Pasir Gudang",
        "state": "Johor",
        "postcode": "81700",
        "country": "Malaysia",
        "slug": "cu-bukit-dahlia-pasir-gudang",
        "brand": "CU Mart",
        "categories": "23",
        "phone": "",
        "full_hours": "24 Hours",
        "open_hours": "{\"mon\": \"1\", \"tue\": \"1\", \"wed\": \"1\", \"thu\": \"1\", \"fri\": \"1\", \"sat\": \"1\", \"sun\": \"1\"}",
        "lat": 1.4785915874169986,
        "lng": 103.89398406826331
    },
    {
        "id": "118",
        "name": "CU Bukit Sentosa Rawang",
        "street": "15-G, Jalan Orkid 1f/1, Bandar Bukit Beruntung,",
        "city": "Rawang",
        "state": "selangor",
        "postcode": "48300",
        "country": "Malaysia",
        "slug": "cu-bukit-sentosa-rawang-rawang",
        "brand": "CU Mart",
        "categories": "30",
        "phone": "",
        "full_hours": "24 Hours",
        "open_hours": "{\"mon\": \"1\", \"tue\": \"1\", \"wed\": \"1\", \"thu\": \"1\", \"fri\": \"1\", \"sat\": \"1\", \"sun\": \"1\"}",
        "lat": 3.4034532389056165,
        "lng": 101.55968925098476
    },
    {
        "id": "84",
        "name": "CU Butterworth Business City Centre",
        "street": "NO. 22 (GF) BUTTERWORTH BUSINESS CITY CTR JALAN RAJA UDA,",
        "city": "Butterworth",
        "state": "Penang",
        "postcode": "12300",
        "country": "Malaysia",
        "slug": "cu-butterworth-business-city-centre-butterworth",
        "brand": "CU Mart",
        "categories": "28",
        "phone": "",
        "full_hours": "",
        "open_hours": "{\"mon\": [\"07:00 AM - 12:00 AM\"], \"tue\": [\"07:00 AM - 12:00 AM\"], \"wed\": [\"07:00 AM - 12:00 AM\"], \"thu\": [\"07:00 AM - 12:00 AM\"], \"fri\": [\"07:00 AM - 12:00 AM\"], \"sat\": [\"07:00 AM - 12:00 AM\"], \"sun\": [\"07:00 AM - 12:00 AM\"]}",
        "lat": 5.41581006804063,
        "lng": 100.38059496140725
    },
    {
        "id": "108",
        "name": "CU Centre Point Bandar Utama",
        "street": "LOT G03 & G03a, GROUND FLOOR CENTRE POINT, NO. 3, LEBUH BANDAR UTAMA BANDAR UTAMA, 47800 PETALING JAYA, SELANGOR",
        "city": "Petaling Jaya",
        "state": "selangor",
        "postcode": "47800",
        "country": "Malaysia",
        "slug": "cu-centre-point-bandar-utama-petaling-jaya",
        "brand": "CU Mart",
        "categories": "30",
        "phone": "",
        "full_hours": "24 Hours",
        "open_hours": "{\"mon\": \"1\", \"tue\": \"1\", \"wed\": \"1\", \"thu\": \"1\", \"fri\": \"1\", \"sat\": \"1\", \"sun\": \"1\"}",
        "lat": 3.138409703761769,
        "lng": 101.61013271746435
    },
    {
        "id": "78",
        "name": "CU Centrepoint Seremban",
        "street": "CU Centrepoint Seremban, 33, Jalan Dato Siamang Gagap, Betaria Business Centre, ",
        "city": "Seremban",
        "state": "Negeri Sembilan",
        "postcode": "70100",
        "country": "Malaysia",
        "slug": "cu-centrepoint-seremban-seremban",
        "brand": "CU Mart",
        "categories": "26",
        "phone": "",
        "full_hours": "24 Hours",
        "open_hours": "{\"mon\": \"1\", \"tue\": \"1\", \"wed\": \"1\", \"thu\": \"1\", \"fri\": \"1\", \"sat\": \"1\", \"sun\": \"1\"}",
        "lat": 2.7233913152535982,
        "lng": 101.95541576519285
    },
    {
        "id": "79",
        "name": "CU Centrium Pahang",
        "street": "A-G-14, PRESINT 1 CAMERON CENTRIUM",
        "city": "Brinchang",
        "state": "Pahang",
        "postcode": "39100",
        "country": "Malaysia",
        "slug": "cu-centrium-pahang-brinchang",
        "brand": "CU Mart",
        "categories": "27",
        "phone": "",
        "full_hours": null,
        "open_hours": "{\"mon\": [\"07:00 AM - 12:00 AM\"], \"tue\": [\"07:00 AM - 12:00 AM\"], \"wed\": [\"07:00 AM - 12:00 AM\"], \"thu\": [\"07:00 AM - 12:00 AM\"], \"fri\": [\"07:00 AM - 12:00 AM\"], \"sat\": [\"07:00 AM - 12:00 AM\"], \"sun\": [\"07:00 AM - 12:00 AM\"]}",
        "lat": 4.495113554908247,
        "lng": 101.38921077038742
    },
    {
        "id": "107",
        "name": "CU Chi Lung Klang",
        "street": "No. 94, Lebuh Turi, Taman Palm Grove, ",
        "city": "klang",
        "state": "Selangor",
        "postcode": "41200",
        "country": "Malaysia",
        "slug": "cu-chi-lung-klang-klang",
        "brand": "CU Mart",
        "categories": "30",
        "phone": "",
        "full_hours": "",
        "open_hours": "{\"mon\": [\"07:00 AM - 12:00 AM\"], \"tue\": [\"07:00 AM - 12:00 AM\"], \"wed\": [\"07:00 AM - 12:00 AM\"], \"thu\": [\"07:00 AM - 12:00 AM\"], \"fri\": [\"07:00 AM - 12:00 AM\"], \"sat\": [\"07:00 AM - 12:00 AM\"], \"sun\": [\"07:00 AM - 12:00 AM\"]}",
        "lat": 3.026953815598927,
        "lng": 101.42862599879373
    },
    {
        "id": "87",
        "name": "CU City Junction",
        "street": "CU, 2-1-3, City Junction, 2, Persiaran Lengkuas, Kampung Belachan,",
        "city": "Tanjung Tokong",
        "state": "Penang",
        "postcode": "10470",
        "country": "Malaysia",
        "slug": "cu-city-junction-tanjung-tokong",
        "brand": "CU Mart",
        "categories": "28",
        "phone": "",
        "full_hours": "",
        "open_hours": "{\"mon\": [\"07:00 AM - 12:00 AM\"], \"tue\": [\"07:00 AM - 12:00 AM\"], \"wed\": [\"07:00 AM - 12:00 AM\"], \"thu\": [\"07:00 AM - 12:00 AM\"], \"fri\": [\"07:00 AM - 12:00 AM\"], \"sat\": [\"07:00 AM - 12:00 AM\"], \"sun\": [\"07:00 AM - 12:00 AM\"]}",
        "lat": 5.450554541444366,
        "lng": 100.3053111757846
    },
    {
        "id": "119",
        "name": "CU Cottage Walk Sepang",
        "street": "CU Mart, Off, Persiaran APEC, Cottage Walk, ",
        "city": "Sepang",
        "state": "selangor",
        "postcode": "63000",
        "country": "Malaysia",
        "slug": "cu-cottage-walk-sepang-sepang",
        "brand": "CU Mart",
        "categories": "30",
        "phone": "",
        "full_hours": "",
        "open_hours": "{\"mon\": [\"07:00 AM - 12:00 AM\"], \"tue\": [\"07:00 AM - 12:00 AM\"], \"wed\": [\"07:00 AM - 12:00 AM\"], \"thu\": [\"07:00 AM - 12:00 AM\"], \"fri\": [\"07:00 AM - 12:00 AM\"], \"sat\": [\"07:00 AM - 12:00 AM\"], \"sun\": [\"07:00 AM - 12:00 AM\"]}",
        "lat": 2.9203865,
        "lng": 101.658966
    },
    {
        "id": "113",
        "name": "CU Damansara Uptown",
        "street": "CU Mart @ Uptown, NO 47G, UPTOWN, 37, Jalan SS 21/37, Damansara Utama, ",
        "city": "Petaling Jaya",
        "state": "selangor",
        "postcode": "47400",
        "country": "Malaysia",
        "slug": "cu-damansara-uptown-petaling-jaya",
        "brand": "CU Mart",
        "categories": "30",
        "phone": "",
        "full_hours": "",
        "open_hours": "{\"mon\": [\"07:00 AM - 12:00 AM\"], \"tue\": [\"07:00 AM - 12:00 AM\"], \"wed\": [\"07:00 AM - 12:00 AM\"], \"thu\": [\"07:00 AM - 12:00 AM\"], \"fri\": [\"07:00 AM - 12:00 AM\"], \"sat\": [\"07:00 AM - 12:00 AM\"], \"sun\": [\"07:00 AM - 12:00 AM\"]}",
        "lat": 3.1364270035805943,
        "lng": 101.62347703355125
    },
    {
        "id": "99",
        "name": "CU Dataran Cheras 5",
        "street": "CU, 98-G, Jalan Dataran Cheras 5, DATARAN PERNIAGAAN CHERAS,",
        "city": "Palakong",
        "state": "Selangor",
        "postcode": "43200",
        "country": "Malaysia",
        "slug": "cu-dataran-cheras-5-palakong",
        "brand": "CU Mart",
        "categories": "30",
        "phone": "",
        "full_hours": "",
        "open_hours": "{\"mon\": [\"07:00 AM - 12:00 AM\"], \"tue\": [\"07:00 AM - 12:00 AM\"], \"wed\": [\"07:00 AM - 12:00 AM\"], \"thu\": [\"07:00 AM - 12:00 AM\"], \"fri\": [\"07:00 AM - 12:00 AM\"], \"sat\": [\"07:00 AM - 12:00 AM\"], \"sun\": [\"07:00 AM - 12:00 AM\"]}",
        "lat": 3.0359632700282457,
        "lng": 101.76428078247127
    },
    {
        "id": "112",
        "name": "CU Dataran Glomac",
        "street": "C-G-06, GROUND FLOOR DATARAN GLOMAC, JALAN SS6/5B ",
        "city": "petaling jaya",
        "state": "selangor",
        "postcode": "47310",
        "country": "Malaysia",
        "slug": "cu-dataran-glomac-petaling-jaya",
        "brand": "CU Mart",
        "categories": "30",
        "phone": "",
        "full_hours": "",
        "open_hours": "{\"mon\": [\"07:00 AM - 12:00 AM\"], \"tue\": [\"07:00 AM - 12:00 AM\"], \"wed\": [\"07:00 AM - 12:00 AM\"], \"thu\": [\"07:00 AM - 12:00 AM\"], \"fri\": [\"07:00 AM - 12:00 AM\"], \"sat\": [\"07:00 AM - 12:00 AM\"], \"sun\": [\"07:00 AM - 12:00 AM\"]}",
        "lat": 3.1033384384343776,
        "lng": 101.60028331253463
    },
    {
        "id": "98",
        "name": "CU Dato Razali Ampang",
        "street": "No. 28 (GF), JALAN MAMANDA 7, TAMAN DATO AHMAD RAZALI",
        "city": "Ampang",
        "state": "Selangor",
        "postcode": "50450",
        "country": "Malaysia",
        "slug": "cu-dato-razali-ampang-ampang",
        "brand": "CU Mart",
        "categories": "30",
        "phone": "",
        "full_hours": null,
        "open_hours": "{\"mon\": [\"07:00 AM - 12:00 AM\"], \"tue\": [\"07:00 AM - 12:00 AM\"], \"wed\": [\"07:00 AM - 12:00 AM\"], \"thu\": [\"07:00 AM - 12:00 AM\"], \"fri\": [\"07:00 AM - 12:00 AM\"], \"sat\": [\"07:00 AM - 12:00 AM\"], \"sun\": [\"07:00 AM - 12:00 AM\"]}",
        "lat": 3.158839583027513,
        "lng": 101.75004991407671
    },
    {
        "id": "164",
        "name": "CU Datum Mall",
        "street": "CU @ Datum Jelatek Shopping Centre, G-26, G-26, AL (ALFRESCO, DATUM MALL, Jalan Enggang, Taman Keramat, ",
        "city": "KUALA LUMPUR",
        "state": "KUALA LUMPUR",
        "postcode": "54200",
        "country": "Malaysia",
        "slug": "cu-datum-mall-kuala-lumpur",
        "brand": "CU Mart",
        "categories": "24",
        "phone": "",
        "full_hours": "",
        "open_hours": "{\"mon\": [\"09:00 AM - 10:00 PM\"], \"tue\": [\"09:00 AM - 10:00 PM\"], \"wed\": [\"09:00 AM - 10:00 PM\"], \"thu\": [\"09:00 AM - 10:00 PM\"], \"fri\": [\"09:00 AM - 10:00 PM\"], \"sat\": [\"09:00 AM - 10:00 PM\"], \"sun\": [\"09:00 AM - 10:00 PM\"]}",
        "lat": 3.167840458774927,
        "lng": 101.73627322520542
    },
    {
        "id": "171",
        "name": "CU DC Mall",
        "street": "CU Damansara City Mall, LOT G-05, Ground Floor, Damansara City Mall, 6, Jalan Damanlela, ",
        "city": "DAMANSARA",
        "state": "KUALA LUMPUR",
        "postcode": "50490 ",
        "country": "Malaysia",
        "slug": "cu-dc-mall-damansara",
        "brand": "CU Mart",
        "categories": "24",
        "phone": "",
        "full_hours": "",
        "open_hours": "{\"mon\": [\"10:00 AM - 10:00 PM\"], \"tue\": [\"10:00 AM - 10:00 PM\"], \"wed\": [\"10:00 AM - 10:00 PM\"], \"thu\": [\"10:00 AM - 10:00 PM\"], \"fri\": [\"10:00 AM - 10:00 PM\"], \"sat\": [\"10:00 AM - 10:00 PM\"], \"sun\": [\"10:00 AM - 10:00 PM\"]}",
        "lat": 2.9746229970141376,
        "lng": 101.65560429402936
    },
    {
        "id": "59",
        "name": "CU Desa Petaling",
        "street": "CU Desa Petaling, 43-G & 45-G, Jln 1/125d, Taman Desa Petaling, ",
        "city": "Kuala Lumpur",
        "state": "Kuala Lumpur",
        "postcode": "57100",
        "country": "Malaysia",
        "slug": "cu-desa-petaling-kuala-lumpur",
        "brand": "CU Mart",
        "categories": "24",
        "phone": "",
        "full_hours": "",
        "open_hours": "{\"mon\": [\"07:00 AM - 12:00 AM\"], \"tue\": [\"07:00 AM - 12:00 AM\"], \"wed\": [\"07:00 AM - 12:00 AM\"], \"thu\": [\"07:00 AM - 12:00 AM\"], \"fri\": [\"07:00 AM - 12:00 AM\"], \"sat\": [\"07:00 AM - 12:00 AM\"], \"sun\": [\"07:00 AM - 12:00 AM\"]}",
        "lat": 3.083085254800224,
        "lng": 101.70445358757067
    },
    {
        "id": "60",
        "name": "CU Dwangsa Wangsa Maju",
        "street": "CU Wangsa Maju, 6, Jalan Wangsa Delima 11, Wangsa Maju, ",
        "city": "Kuala Lumpur",
        "state": "Kuala Lumpur",
        "postcode": "53300",
        "country": "Malaysia",
        "slug": "cu-dwangsa-wangsa-maju-kuala-lumpur",
        "brand": "CU Mart",
        "categories": "24",
        "phone": "",
        "full_hours": "",
        "open_hours": "{\"mon\": [\"07:00 AM - 12:00 AM\"], \"tue\": [\"07:00 AM - 12:00 AM\"], \"wed\": [\"07:00 AM - 12:00 AM\"], \"thu\": [\"07:00 AM - 12:00 AM\"], \"fri\": [\"07:00 AM - 12:00 AM\"], \"sat\": [\"07:00 AM - 12:00 AM\"], \"sun\": [\"07:00 AM - 12:00 AM\"]}",
        "lat": 3.196999610068563,
        "lng": 101.74170677544673
    },
    {
        "id": "50",
        "name": "CU Eko Botani Johor",
        "street": "No. 82, Jalan Eko Botani 3/2,",
        "city": "Gelang Patah",
        "state": "Johor",
        "postcode": "79100",
        "country": "Malaysia",
        "slug": "cu-eko-botani-johor-gelang-patah",
        "brand": "CU Mart",
        "categories": "23",
        "phone": "",
        "full_hours": "",
        "open_hours": "{\"mon\": [\"07:00 AM - 12:00 AM\"], \"tue\": [\"07:00 AM - 12:00 AM\"], \"wed\": [\"07:00 AM - 12:00 AM\"], \"thu\": [\"07:00 AM - 12:00 AM\"], \"fri\": [\"07:00 AM - 12:00 AM\"], \"sat\": [\"07:00 AM - 12:00 AM\"], \"sun\": [\"07:00 AM - 12:00 AM\"]}",
        "lat": 1.4390925602961022,
        "lng": 103.62052398979733
    },
    {
        "id": "127",
        "name": "CU Elmina Selatan R&R",
        "street": "SBC 02, KAWASAN REHAT DAN RAWAT ELMINA SELATAN LEBUHRAYA KORIDOR GUTHRIE ",
        "city": "Sungai Buloh",
        "state": "Selangor",
        "postcode": "47000",
        "country": "Malaysia",
        "slug": "cu-elmina-selatan-r-r-sungai-buloh",
        "brand": "CU Mart",
        "categories": "30",
        "phone": "",
        "full_hours": null,
        "open_hours": "{\"mon\": [\"07:00 AM - 12:00 AM\"], \"tue\": [\"07:00 AM - 12:00 AM\"], \"wed\": [\"07:00 AM - 12:00 AM\"], \"thu\": [\"07:00 AM - 12:00 AM\"], \"fri\": [\"07:00 AM - 12:00 AM\"], \"sat\": [\"07:00 AM - 12:00 AM\"], \"sun\": [\"07:00 AM - 12:00 AM\"]}",
        "lat": 3.1722778170045283,
        "lng": 101.51949073594147
    },
    {
        "id": "211",
        "name": "CU Freeport A'Famosa Melaka",
        "street": "LOT NO. CUSTOMER SERVICE (TBC) FREEPORT AFAMOSA OUTLET JALAN KAMUS",
        "city": "SIMPANG AMPAT",
        "state": "MELAKA",
        "postcode": "",
        "country": "Malaysia",
        "slug": "cu-freeport-a-famosa-melaka-simpang-ampat",
        "brand": "CU Mart",
        "categories": "31",
        "phone": "",
        "full_hours": "",
        "open_hours": "{\"mon\": [\"10:00 AM - 10:00 PM\"], \"tue\": [\"10:00 AM - 10:00 PM\"], \"wed\": [\"10:00 AM - 10:00 PM\"], \"thu\": [\"10:00 AM - 10:00 PM\"], \"fri\": [\"10:00 AM - 10:00 PM\"], \"sat\": [\"10:00 AM - 10:00 PM\"], \"sun\": [\"10:00 AM - 10:00 PM\"]}",
        "lat": 2.4412186460425187,
        "lng": 102.2104812957549
    },
    {
        "id": "136",
        "name": "CU Gardens Mall",
        "street": "LG 238, LOWER GROUND FLOOR THE GARDENS MALL, MID VALLEY CITY LINGKARAN SYED PUTRA,",
        "city": "MID VALLEY CITY",
        "state": "KUALA LUMPUR",
        "postcode": "59200",
        "country": "Malaysia",
        "slug": "cu-gardens-mall-mid-valley-city",
        "brand": "CU Mart",
        "categories": "24",
        "phone": "",
        "full_hours": null,
        "open_hours": "{\"mon\": [\"10:00 AM - 10:00 PM\"], \"tue\": [\"10:00 AM - 10:00 PM\"], \"wed\": [\"10:00 AM - 10:00 PM\"], \"thu\": [\"10:00 AM - 10:00 PM\"], \"fri\": [\"10:00 AM - 10:00 PM\"], \"sat\": [\"10:00 AM - 10:00 PM\"], \"sun\": [\"10:00 AM - 10:00 PM\"]}",
        "lat": 3.1188162152426866,
        "lng": 101.67600082612368
    },
    {
        "id": "76",
        "name": "CU Gemas",
        "street": "CU Gemas, NO. G10, JALAN HARMONI GEMAS 2, PUSAT PERNIAGAAN HARMONI,",
        "city": "Gemas",
        "state": "Negeri Sembilan",
        "postcode": "73400",
        "country": "Malaysia",
        "slug": "cu-gemas-gemas",
        "brand": "CU Mart",
        "categories": "26",
        "phone": "",
        "full_hours": "24 Hours",
        "open_hours": "{\"mon\": \"1\", \"tue\": \"1\", \"wed\": \"1\", \"thu\": \"1\", \"fri\": \"1\", \"sat\": \"1\", \"sun\": \"1\"}",
        "lat": 2.5802661330212935,
        "lng": 102.60842037905881
    },
    {
        "id": "89",
        "name": "CU Greentown Ipoh",
        "street": "CU Greentown Ipoh, Greentown, 31, Persiaran Greentown 7, Pusat Perdagangan Greentown, ",
        "city": "Ipoh",
        "state": "Perak",
        "postcode": "30450",
        "country": "Malaysia",
        "slug": "cu-greentown-ipoh-ipoh",
        "brand": "CU Mart",
        "categories": "29",
        "phone": "",
        "full_hours": "",
        "open_hours": "{\"mon\": [\"07:00 AM - 12:00 AM\"], \"tue\": [\"07:00 AM - 12:00 AM\"], \"wed\": [\"07:00 AM - 12:00 AM\"], \"thu\": [\"07:00 AM - 12:00 AM\"], \"fri\": [\"07:00 AM - 12:00 AM\"], \"sat\": [\"07:00 AM - 12:00 AM\"], \"sun\": [\"07:00 AM - 12:00 AM\"]}",
        "lat": 4.599274825810271,
        "lng": 101.09619270560313
    },
    {
        "id": "116",
        "name": "CU Ground Floor IOI City",
        "street": "LOT GE-16, GROUND FLOOR IOI CITY MALL, LEBUH IRC IOI RESORT CITY",
        "city": "putrajaya",
        "state": "Selangor",
        "postcode": "62502",
        "country": "Malaysia",
        "slug": "cu-ground-floor-ioi-city-putrajaya",
        "brand": "CU Mart",
        "categories": "30",
        "phone": "",
        "full_hours": null,
        "open_hours": "{\"mon\": [\"07:00 AM - 12:00 AM\"], \"tue\": [\"07:00 AM - 12:00 AM\"], \"wed\": [\"07:00 AM - 12:00 AM\"], \"thu\": [\"07:00 AM - 12:00 AM\"], \"fri\": [\"07:00 AM - 12:00 AM\"], \"sat\": [\"07:00 AM - 12:00 AM\"], \"sun\": [\"07:00 AM - 12:00 AM\"]}",
        "lat": 2.969389991637112,
        "lng": 101.71374264224771
    },
    {
        "id": "134",
        "name": "CU Iconic Point",
        "street": "No. 1, Jalan Iconic Point, ",
        "city": "SIMPANG AMPAT",
        "state": "PENANG",
        "postcode": "14100",
        "country": "Malaysia",
        "slug": "cu-iconic-point-simpang-ampat",
        "brand": "CU Mart",
        "categories": "28",
        "phone": "",
        "full_hours": "",
        "open_hours": "{\"mon\": [\"07:00 AM - 12:00 AM\"], \"tue\": [\"07:00 AM - 12:00 AM\"], \"wed\": [\"07:00 AM - 12:00 AM\"], \"thu\": [\"07:00 AM - 12:00 AM\"], \"fri\": [\"07:00 AM - 12:00 AM\"], \"sat\": [\"07:00 AM - 12:00 AM\"], \"sun\": [\"07:00 AM - 12:00 AM\"]}",
        "lat": 5.28340747458676,
        "lng": 100.47625816174201
    },
    {
        "id": "179",
        "name": "CU IIUM",
        "street": "CU Mart IIUM, International Islamic University Malaysia, 53100, Jln Gombak, ",
        "city": "Kuala Lumpur",
        "state": "Selangor",
        "postcode": "53100",
        "country": "Malaysia",
        "slug": "cu-iium-kuala-lumpur",
        "brand": "CU Mart",
        "categories": "24",
        "phone": "",
        "full_hours": "",
        "open_hours": "{\"mon\": [\"07:00 AM - 10:00 PM\"], \"tue\": [\"07:00 AM - 10:00 PM\"], \"wed\": [\"07:00 AM - 10:00 PM\"], \"thu\": [\"07:00 AM - 10:00 PM\"], \"fri\": [\"07:00 AM - 12:30 PM\", \"02:00 PM - 10:00 PM\"], \"sat\": [\"07:00 AM - 10:00 PM\"], \"sun\": [\"07:00 AM - 10:00 PM\"]}",
        "lat": 3.2365,
        "lng": 101.71092
    },
    {
        "id": "46",
        "name": "CU Indahpura Kulai",
        "street": "CU, 180, Jalan Kenanga 29/4, Bandar Indahpura",
        "city": "Kulai",
        "state": "Johor",
        "postcode": "81000",
        "country": "Malaysia",
        "slug": "cu-indahpura-kulai-kulai",
        "brand": "CU Mart",
        "categories": "23",
        "phone": "",
        "full_hours": "24 Hours",
        "open_hours": "{\"mon\": \"1\", \"tue\": \"1\", \"wed\": \"1\", \"thu\": \"1\", \"fri\": \"1\", \"sat\": \"1\", \"sun\": \"1\"}",
        "lat": 1.6418613208619943,
        "lng": 103.61924975132261
    },
    {
        "id": "195",
        "name": "CU Indera Mahkota",
        "street": " A-77GF, JALAN M7/1 BANDAR INDERA MAHKOTA 7",
        "city": "Kuantan",
        "state": "Pahang",
        "postcode": "25200",
        "country": "Malaysia",
        "slug": "cu-indera-mahkota-kuantan",
        "brand": "CU Mart",
        "categories": "27",
        "phone": "",
        "full_hours": "",
        "open_hours": "{\"mon\": [\"07:00 AM - 12:00 AM\"], \"tue\": [\"07:00 AM - 12:00 AM\"], \"wed\": [\"07:00 AM - 12:00 AM\"], \"thu\": [\"07:00 AM - 12:00 AM\"], \"fri\": [\"07:00 AM - 12:00 AM\"], \"sat\": [\"07:00 AM - 12:00 AM\"], \"sun\": [\"07:00 AM - 12:00 AM\"]}",
        "lat": 3.8278791,
        "lng": 103.2732596
    },
    {
        "id": "199",
        "name": "CU Institut Endokrin Hospital Putrajaya",
        "street": "CU Mart Institut Endokrin Hospital Putrajaya, Kafetaria Aras 2, Presint 7,",
        "city": "Wilayah Persekutuan",
        "state": "Putrajaya",
        "postcode": "62250",
        "country": "Malaysia",
        "slug": "cu-institut-endokrin-hospital-putrajaya-wilayah-persekutuan",
        "brand": "CU Mart",
        "categories": "35",
        "phone": "",
        "full_hours": "",
        "open_hours": "{\"mon\": [\"06:30 AM - 12:00 AM\"], \"tue\": [\"06:30 AM - 12:00 AM\"], \"wed\": [\"06:30 AM - 12:00 AM\"], \"thu\": [\"06:30 AM - 12:00 AM\"], \"fri\": [\"06:30 AM - 12:00 AM\"], \"sat\": [\"06:30 AM - 12:00 AM\"], \"sun\": [\"06:30 AM - 12:00 AM\"]}",
        "lat": 2.930160748093399,
        "lng": 101.6745464576717
    },
    {
        "id": "102",
        "name": "CU Jade Hills Kajang",
        "street": "NO. 66-1 (GF) JALAN DATARAN JADE 6 DATARAN JADE, JADE HILLS",
        "city": "kajang",
        "state": "selangor",
        "postcode": "43000",
        "country": "Malaysia",
        "slug": "cu-jade-hills-kajang-kajang",
        "brand": "CU Mart",
        "categories": "30",
        "phone": "",
        "full_hours": null,
        "open_hours": "{\"mon\": [\"07:00 AM - 12:00 AM\"], \"tue\": [\"07:00 AM - 12:00 AM\"], \"wed\": [\"07:00 AM - 12:00 AM\"], \"thu\": [\"07:00 AM - 12:00 AM\"], \"fri\": [\"07:00 AM - 12:00 AM\"], \"sat\": [\"07:00 AM - 12:00 AM\"], \"sun\": [\"07:00 AM - 12:00 AM\"]}",
        "lat": 2.9926292000428374,
        "lng": 101.76096187875565
    },
    {
        "id": "140",
        "name": "CU Jalan Tapah-Bidor",
        "street": "1G, PT11165, Jalan Tapah,",
        "city": "BIDOR",
        "state": "PERAK",
        "postcode": "35500",
        "country": "Malaysia",
        "slug": "cu-jalan-tapah-bidor-bidor",
        "brand": "CU Mart",
        "categories": "29",
        "phone": "",
        "full_hours": "",
        "open_hours": "{\"mon\": [\"07:00 AM - 02:00 AM\"], \"tue\": [\"07:00 AM - 02:00 AM\"], \"wed\": [\"07:00 AM - 02:00 AM\"], \"thu\": [\"07:00 AM - 02:00 AM\"], \"fri\": [\"07:00 AM - 02:00 AM\"], \"sat\": [\"07:00 AM - 02:00 AM\"], \"sun\": [\"07:00 AM - 02:00 AM\"]}",
        "lat": 4.113360748389315,
        "lng": 101.28623238055673
    },
    {
        "id": "101",
        "name": "CU Jaromas Jenjarom",
        "street": "NO 19, GROUND FLOOR JALAN 2/1, TAMAN SERI JAROMAS ",
        "city": "Jenjarom",
        "state": "Selangor",
        "postcode": "42600",
        "country": "Malaysia",
        "slug": "cu-jaromas-jenjarom-jenjarom",
        "brand": "CU Mart",
        "categories": "30",
        "phone": "",
        "full_hours": null,
        "open_hours": "{\"mon\": [\"07:00 AM - 12:00 AM\"], \"tue\": [\"07:00 AM - 12:00 AM\"], \"wed\": [\"07:00 AM - 12:00 AM\"], \"thu\": [\"07:00 AM - 12:00 AM\"], \"fri\": [\"07:00 AM - 12:00 AM\"], \"sat\": [\"07:00 AM - 12:00 AM\"], \"sun\": [\"07:00 AM - 12:00 AM\"]}",
        "lat": 2.874684186068832,
        "lng": 101.5019115033423
    },
    {
        "id": "189",
        "name": "CU Jelawat",
        "street": "CU Jelawat, PT4402 & PT4403, Tingkat Bawah, Bandar Baru Jelawat, ",
        "city": "Bachok",
        "state": "KELANTAN",
        "postcode": "16070",
        "country": "Malaysia",
        "slug": "cu-jelawat-bachok",
        "brand": "CU Mart",
        "categories": "34",
        "phone": "",
        "full_hours": "24 hours",
        "open_hours": "{\"mon\": \"1\", \"tue\": \"1\", \"wed\": \"1\", \"thu\": \"1\", \"fri\": \"1\", \"sat\": \"1\", \"sun\": \"1\"}",
        "lat": 6.012099692796549,
        "lng": 102.38117607326605
    },
    {
        "id": "181",
        "name": "CU Jengka",
        "street": "Pusat Komersial Bandar Jengka, Lorong Intan 2, Nadi Kota.",
        "city": "Bandar Tun Razak",
        "state": "PAHANG",
        "postcode": "26400",
        "country": "Malaysia",
        "slug": "cu-jengka-bandar-tun-razak",
        "brand": "CU Mart",
        "categories": "27",
        "phone": "",
        "full_hours": "",
        "open_hours": "{\"mon\": \"0\", \"tue\": \"0\", \"wed\": \"0\", \"thu\": \"0\", \"fri\": \"0\", \"sat\": \"0\", \"sun\": \"0\"}",
        "lat": 3.7841286954777513,
        "lng": 102.54332332498825
    },
    {
        "id": "184",
        "name": "CU Jerantut",
        "street": "CU Jerantut, No. TT2, Jalan Dulang 1, Bandar Baru, ",
        "city": "Jerantut",
        "state": "PAHANG",
        "postcode": " 27000",
        "country": "Malaysia",
        "slug": "cu-jerantut-jerantut",
        "brand": "CU Mart",
        "categories": "27",
        "phone": "",
        "full_hours": "",
        "open_hours": "{\"mon\": [\"07:00 AM - 02:00 AM\"], \"tue\": [\"07:00 AM - 02:00 AM\"], \"wed\": [\"07:00 AM - 02:00 AM\"], \"thu\": [\"07:00 AM - 02:00 AM\"], \"fri\": [\"07:00 AM - 02:00 AM\"], \"sat\": [\"07:00 AM - 02:00 AM\"], \"sun\": [\"07:00 AM - 02:00 AM\"]}",
        "lat": 3.997206402186675,
        "lng": 102.36267592702025
    },
    {
        "id": "185",
        "name": "CU Jerteh",
        "street": "CU Bandar Jerteh, Lot 196 (Tingkat Bawah), Jalan Tuan Hitam, Bandar Jerteh,",
        "city": "Jerteh",
        "state": "TERENGGANU",
        "postcode": "22000",
        "country": "Malaysia",
        "slug": "cu-jerteh-jerteh",
        "brand": "CU Mart",
        "categories": "33",
        "phone": "",
        "full_hours": "",
        "open_hours": "{\"mon\": [\"07:00 AM - 02:00 AM\"], \"tue\": [\"07:00 AM - 02:00 AM\"], \"wed\": [\"07:00 AM - 02:00 AM\"], \"thu\": [\"07:00 AM - 02:00 AM\"], \"fri\": [\"07:00 AM - 02:00 AM\"], \"sat\": [\"07:00 AM - 02:00 AM\"], \"sun\": [\"07:00 AM - 02:00 AM\"]}",
        "lat": 5.733309264343997,
        "lng": 102.48209107777275
    },
    {
        "id": "178",
        "name": "CU JOHOR PREMIUM OUTLET",
        "street": "236 & 240, JOHOR PREMIUM OUTLET INDAHPURA",
        "city": "Kulai",
        "state": "Johor",
        "postcode": "81000",
        "country": "Malaysia",
        "slug": "cu-johor-premium-outlet-kulai",
        "brand": "CU Mart",
        "categories": "23",
        "phone": "",
        "full_hours": "",
        "open_hours": "{\"mon\": \"0\", \"tue\": \"0\", \"wed\": \"0\", \"thu\": \"0\", \"fri\": \"0\", \"sat\": \"0\", \"sun\": \"0\"}",
        "lat": 1.603401756324125,
        "lng": 103.62120565877223
    },
    {
        "id": "209",
        "name": "CU K-commercial TTDI Jaya",
        "street": "KEDAI 1, LOT 34705, JALAN OPERA C U2/C, TAMAN TTDI JAYA, SEKSYEN U2",
        "city": "SHAH ALAM",
        "state": "SELANGOR",
        "postcode": "40150",
        "country": "Malaysia",
        "slug": "cu-k-commercial-ttdi-jaya-shah-alam",
        "brand": "CU Mart",
        "categories": "30",
        "phone": "",
        "full_hours": "",
        "open_hours": "{\"mon\": [\"07:00 AM - 12:00 AM\"], \"tue\": [\"07:00 AM - 12:00 AM\"], \"wed\": [\"07:00 AM - 12:00 AM\"], \"thu\": [\"07:00 AM - 12:00 AM\"], \"fri\": [\"07:00 AM - 12:00 AM\"], \"sat\": [\"07:00 AM - 12:00 AM\"], \"sun\": [\"07:00 AM - 12:00 AM\"]}",
        "lat": 3.0978460987205927,
        "lng": 101.55648364918112
    },
    {
        "id": "40",
        "name": "CU Kebun Teh Johor Bahru",
        "street": "CU Kebun Teh Johor Bahru, 14-01, Jalan Kebun Teh 1, Larkin, ",
        "city": "Johor Bahru",
        "state": "Johor",
        "postcode": "80250",
        "country": "Malaysia",
        "slug": "cu-kebun-teh-johor-bahru-johor-bahru",
        "brand": "CU Mart",
        "categories": "23",
        "phone": "",
        "full_hours": "",
        "open_hours": "{\"mon\": [\"07:00 AM - 12:00 AM\"], \"tue\": [\"07:00 AM - 12:00 AM\"], \"wed\": [\"07:00 AM - 12:00 AM\"], \"thu\": [\"07:00 AM - 12:00 AM\"], \"fri\": [\"07:00 AM - 12:00 AM\"], \"sat\": [\"07:00 AM - 12:00 AM\"], \"sun\": [\"07:00 AM - 12:00 AM\"]}",
        "lat": 1.4856445698530345,
        "lng": 103.75397982435814
    },
    {
        "id": "148",
        "name": "CU KLIA2",
        "street": "LOT L3-36 & L3-38 LEVEL 3, GATEWAY @ KLIA2, TERMINAL KLIA2 KL INTERNATIONAL AIRPORT, JLN KLIA 2/1,",
        "city": "SEPANG",
        "state": "SELANGOR",
        "postcode": "64000",
        "country": "Malaysia",
        "slug": "cu-klia2-sepang",
        "brand": "CU Mart",
        "categories": "30",
        "phone": "",
        "full_hours": "24 Hours",
        "open_hours": "{\"mon\": \"1\", \"tue\": \"1\", \"wed\": \"1\", \"thu\": \"1\", \"fri\": \"1\", \"sat\": \"1\", \"sun\": \"1\"}",
        "lat": 2.742612982705081,
        "lng": 101.68663923114927
    },
    {
        "id": "202",
        "name": "CU Kolej Za'aba Universiti Pendidikan Sultan Idris (UPSI)",
        "street": "CU Kafeteria Kolej Za'aba, Kampus Sultan Azlan Shah (KSAS),",
        "city": "Tanjong Malim",
        "state": "Perak",
        "postcode": "35900",
        "country": "Malaysia",
        "slug": "cu-kolej-za-aba-universiti-pendidikan-sultan-idris-upsi-tanjong-malim",
        "brand": "CU Mart",
        "categories": "29",
        "phone": "",
        "full_hours": "",
        "open_hours": "{\"mon\": [\"08:00 AM - 12:00 AM\"], \"tue\": [\"08:00 AM - 12:00 AM\"], \"wed\": [\"08:00 AM - 12:00 AM\"], \"thu\": [\"08:00 AM - 12:00 AM\"], \"fri\": [\"08:00 AM - 12:00 AM\"], \"sat\": [\"08:00 AM - 12:00 AM\"], \"sun\": [\"08:00 AM - 12:00 AM\"]}",
        "lat": 3.7241877545313216,
        "lng": 101.5181996576717
    },
    {
        "id": "123",
        "name": "CU Komersial Radia Shah Alam",
        "street": "G-36, KOMERSIAL RADIA PERSIARAN TEBAR LAYAR BUKIT JELUTONG",
        "city": "Shah Alam",
        "state": "Selangor",
        "postcode": "40150",
        "country": "Malaysia",
        "slug": "cu-komersial-radia-shah-alam-shah-alam",
        "brand": "CU Mart",
        "categories": "30",
        "phone": "",
        "full_hours": null,
        "open_hours": "{\"mon\": [\"07:00 AM - 12:00 AM\"], \"tue\": [\"07:00 AM - 12:00 AM\"], \"wed\": [\"07:00 AM - 12:00 AM\"], \"thu\": [\"07:00 AM - 12:00 AM\"], \"fri\": [\"07:00 AM - 12:00 AM\"], \"sat\": [\"07:00 AM - 12:00 AM\"], \"sun\": [\"07:00 AM - 12:00 AM\"]}",
        "lat": 3.1021208,
        "lng": 101.5364113
    },
    {
        "id": "142",
        "name": "CU Kompleks Parit Buntar",
        "street": "Unit G, Kompleks 199, 1 & G-2, Jalan Taiping,",
        "city": "PARIT BUNTAR",
        "state": "PERAK",
        "postcode": "34200",
        "country": "Malaysia",
        "slug": "cu-kompleks-parit-buntar-parit-buntar",
        "brand": "CU Mart",
        "categories": "29",
        "phone": "",
        "full_hours": "24 Hours",
        "open_hours": "{\"mon\": \"1\", \"tue\": \"1\", \"wed\": \"1\", \"thu\": \"1\", \"fri\": \"1\", \"sat\": \"1\", \"sun\": \"1\"}",
        "lat": 5.127741941529333,
        "lng": 100.48954224974214
    },
    {
        "id": "176",
        "name": "CU Kota Emerald",
        "street": "LOT 1286, RUMAH CONTOH BROOKLYN @ PEJABAT JUALAN SEMENTARA KOTA EMERALD",
        "city": "RAWANG",
        "state": "SELANGOR ",
        "postcode": "48000",
        "country": "Malaysia",
        "slug": "cu-kota-emerald-rawang",
        "brand": "CU Mart",
        "categories": "30",
        "phone": "",
        "full_hours": "",
        "open_hours": "{\"mon\": [\"07:00 AM - 12:00 AM\"], \"tue\": [\"07:00 AM - 12:00 AM\"], \"wed\": [\"07:00 AM - 12:00 AM\"], \"thu\": [\"07:00 AM - 12:00 AM\"], \"fri\": [\"07:00 AM - 12:00 AM\"], \"sat\": [\"07:00 AM - 12:00 AM\"], \"sun\": [\"07:00 AM - 12:00 AM\"]}",
        "lat": 3.3246579231406423,
        "lng": 101.54433701812587
    },
    {
        "id": "124",
        "name": "CU Kota Kemuning",
        "street": "UNIT NO. 2-29-1 (GROUND FLOOR) NO. 14, PERSIARAN ANGGERIK VANILLA SEKSYEN 31, KOTA KEMUNING",
        "city": "Shah Alam",
        "state": "Selangor",
        "postcode": "40460",
        "country": "Malaysia",
        "slug": "cu-kota-kemuning-shah-alam",
        "brand": "CU Mart",
        "categories": "30",
        "phone": "",
        "full_hours": "",
        "open_hours": "{\"mon\": [\"07:00 AM - 12:00 AM\"], \"tue\": [\"07:00 AM - 12:00 AM\"], \"wed\": [\"07:00 AM - 12:00 AM\"], \"thu\": [\"07:00 AM - 12:00 AM\"], \"fri\": [\"07:00 AM - 12:00 AM\"], \"sat\": [\"07:00 AM - 12:00 AM\"], \"sun\": [\"07:00 AM - 12:00 AM\"]}",
        "lat": 3.000223,
        "lng": 101.532623
    },
    {
        "id": "155",
        "name": "CU Kota Laksamana",
        "street": "CU Mart, 10, Jln KLJ 4, Taman Kota Laksamana, ",
        "city": "MELAKA",
        "state": "MELAKA",
        "postcode": "75200",
        "country": "Malaysia",
        "slug": "cu-kota-laksamana-melaka",
        "brand": "CU Mart",
        "categories": "31",
        "phone": "",
        "full_hours": "",
        "open_hours": "{\"mon\": [\"07:00 AM - 12:00 AM\"], \"tue\": [\"07:00 AM - 12:00 AM\"], \"wed\": [\"07:00 AM - 12:00 AM\"], \"thu\": [\"07:00 AM - 12:00 AM\"], \"fri\": [\"07:00 AM - 12:00 AM\"], \"sat\": [\"07:00 AM - 12:00 AM\"], \"sun\": [\"07:00 AM - 12:00 AM\"]}",
        "lat": 2.1984852841084206,
        "lng": 102.2319906805379
    },
    {
        "id": "208",
        "name": "CU Kuala Krai Kelantan",
        "street": "CU KUALA KRAI, GROUND FLOOR LOT 16554 (N 0.3) AND LOT 16555 (NO.4) LAMAN FIRDAUS, MUKIM, Kampung Pahi, ",
        "city": "Kuala Krai",
        "state": "Kelantan",
        "postcode": "18000",
        "country": "Malaysia",
        "slug": "cu-kuala-krai-kelantan-kuala-krai",
        "brand": "CU Mart",
        "categories": "34",
        "phone": "",
        "full_hours": "",
        "open_hours": "{\"mon\": [\"07:00 AM - 02:00 AM\"], \"tue\": [\"07:00 AM - 02:00 AM\"], \"wed\": [\"07:00 AM - 02:00 AM\"], \"thu\": [\"07:00 AM - 02:00 AM\"], \"fri\": [\"07:00 AM - 02:00 AM\"], \"sat\": [\"07:00 AM - 02:00 AM\"], \"sun\": [\"07:00 AM - 02:00 AM\"]}",
        "lat": 5.493978228598354,
        "lng": 102.22379916931476
    },
    {
        "id": "177",
        "name": "CU Kuala Pilah",
        "street": "CU Kuala Pilah, P6MM+VM, Kampung Gemelang,",
        "city": "Kuala Pilah",
        "state": "Negeri Sembilan. ",
        "postcode": "72000",
        "country": "Malaysia",
        "slug": "cu-kuala-pilah-kuala-pilah",
        "brand": "CU Mart",
        "categories": "26",
        "phone": "",
        "full_hours": "",
        "open_hours": "{\"mon\": [\"07:00 AM - 12:00 AM\"], \"tue\": [\"07:00 AM - 12:00 AM\"], \"wed\": [\"07:00 AM - 12:00 AM\"], \"thu\": [\"07:00 AM - 12:00 AM\"], \"fri\": [\"07:00 AM - 12:00 AM\"], \"sat\": [\"07:00 AM - 12:00 AM\"], \"sun\": [\"07:00 AM - 12:00 AM\"]}",
        "lat": 2.73488745747472,
        "lng": 102.23442617059672
    },
    {
        "id": "151",
        "name": "CU Kuala Selangor",
        "street": "No 16 & 18, Jalan Bendahara 1A, Taman Bendahara,  ",
        "city": "KUALA SELANGOR",
        "state": "SELANGOR",
        "postcode": "45000",
        "country": "Malaysia",
        "slug": "cu-kuala-selangor-kuala-selangor",
        "brand": "CU Mart",
        "categories": "30",
        "phone": "",
        "full_hours": null,
        "open_hours": "{\"mon\": \"0\", \"tue\": \"0\", \"wed\": \"0\", \"thu\": \"0\", \"fri\": \"0\", \"sat\": \"0\", \"sun\": \"0\"}",
        "lat": 3.3217667870799286,
        "lng": 101.26695821716194
    },
    {
        "id": "212",
        "name": "CU Kubang Kerian",
        "street": "PT 1538, (GF), BANDAR BARU KUBANG KERIANJALAN RAJA PEREMPUAN ZAINAB 2",
        "city": "KOTA BHARU",
        "state": "KELANTAN",
        "postcode": "16150",
        "country": "Malaysia",
        "slug": "cu-kubang-kerian-kota-bharu",
        "brand": "CU Mart",
        "categories": "34",
        "phone": "",
        "full_hours": "",
        "open_hours": "{\"mon\": [\"07:00 AM - 02:00 AM\"], \"tue\": [\"07:00 AM - 02:00 AM\"], \"wed\": [\"07:00 AM - 02:00 AM\"], \"thu\": [\"07:00 AM - 02:00 AM\"], \"fri\": [\"07:00 AM - 02:00 AM\"], \"sat\": [\"07:00 AM - 02:00 AM\"], \"sun\": [\"07:00 AM - 02:00 AM\"]}",
        "lat": 6.1010583315729905,
        "lng": 102.28056527921444
    },
    {
        "id": "62",
        "name": "CU Kuchai Maju",
        "street": "NO. 33, JALAN KUCHAI MAJU 8, KUCHAI ENTREPRENEURS PARK ",
        "city": "Kuala Lumpur",
        "state": "Kuala Lumpur",
        "postcode": "58200",
        "country": "Malaysia",
        "slug": "cu-kuchai-maju-kuala-lumpur",
        "brand": "CU Mart",
        "categories": "24",
        "phone": "",
        "full_hours": null,
        "open_hours": "{\"mon\": [\"07:00 AM - 12:00 AM\"], \"tue\": [\"07:00 AM - 12:00 AM\"], \"wed\": [\"07:00 AM - 12:00 AM\"], \"thu\": [\"07:00 AM - 12:00 AM\"], \"fri\": [\"07:00 AM - 12:00 AM\"], \"sat\": [\"07:00 AM - 12:00 AM\"], \"sun\": [\"07:00 AM - 12:00 AM\"]}",
        "lat": 3.089719619434265,
        "lng": 101.687702822852
    },
    {
        "id": "133",
        "name": "CU Larkin Jaya",
        "street": "PTB NO. 24500, JALAN GERODA 2/1 LARKIN JAYA ",
        "city": "JOHOR BAHRU",
        "state": "JOHOR",
        "postcode": "Â 80350 ",
        "country": "Malaysia",
        "slug": "cu-larkin-jaya-johor-bahru",
        "brand": "CU Mart",
        "categories": "23",
        "phone": "",
        "full_hours": null,
        "open_hours": "{\"mon\": [\"07:00 AM - 12:00 AM\"], \"tue\": [\"07:00 AM - 12:00 AM\"], \"wed\": [\"07:00 AM - 12:00 AM\"], \"thu\": [\"07:00 AM - 12:00 AM\"], \"fri\": [\"07:00 AM - 12:00 AM\"], \"sat\": [\"07:00 AM - 12:00 AM\"], \"sun\": [\"07:00 AM - 12:00 AM\"]}",
        "lat": 1.4955699133225548,
        "lng": 103.74115706122117
    },
    {
        "id": "192",
        "name": "CU Lumut Taman Batik Puteri",
        "street": "CU, No. 6 &, 7, Jalan Batik Puteri 1, Taman Batik Puteri, ",
        "city": "Lumut",
        "state": "Perak",
        "postcode": "32200",
        "country": "Malaysia",
        "slug": "cu-lumut-taman-batik-puteri-lumut",
        "brand": "CU Mart",
        "categories": "29",
        "phone": "",
        "full_hours": "",
        "open_hours": "{\"mon\": [\"07:00 AM - 12:00 AM\"], \"tue\": [\"07:00 AM - 12:00 AM\"], \"wed\": [\"07:00 AM - 12:00 AM\"], \"thu\": [\"07:00 AM - 12:00 AM\"], \"fri\": [\"07:00 AM - 12:00 AM\"], \"sat\": [\"07:00 AM - 12:00 AM\"], \"sun\": [\"07:00 AM - 12:00 AM\"]}",
        "lat": 4.209694344479902,
        "lng": 100.61586300491285
    },
    {
        "id": "96",
        "name": "CU Manjung Point 3",
        "street": "No. 7, Jalan PPMP 3/1,",
        "city": "Seri Manjung",
        "state": "Perak",
        "postcode": "32040",
        "country": "Malaysia",
        "slug": "cu-manjung-point-3-seri-manjung",
        "brand": "CU Mart",
        "categories": "29",
        "phone": "",
        "full_hours": "24 Hours",
        "open_hours": "{\"mon\": \"1\", \"tue\": \"1\", \"wed\": \"1\", \"thu\": \"1\", \"fri\": \"1\", \"sat\": \"1\", \"sun\": \"1\"}",
        "lat": 4.216708603043577,
        "lng": 100.6705397879582
    },
    {
        "id": "175",
        "name": "CU Masai",
        "street": "CU Kota Masai, 23a, Jln Ekoperniagaan 7, Taman Kota Masai,",
        "city": "Pasir Gudang",
        "state": "JOHOR",
        "postcode": "81700 ",
        "country": "Malaysia",
        "slug": "cu-masai-pasir-gudang",
        "brand": "CU Mart",
        "categories": "23",
        "phone": "",
        "full_hours": "",
        "open_hours": "{\"mon\": [\"07:00 AM - 12:00 AM\"], \"tue\": [\"07:00 AM - 12:00 AM\"], \"wed\": [\"07:00 AM - 12:00 AM\"], \"thu\": [\"07:00 AM - 12:00 AM\"], \"fri\": [\"07:00 AM - 12:00 AM\"], \"sat\": [\"07:00 AM - 12:00 AM\"], \"sun\": [\"07:00 AM - 12:00 AM\"]}",
        "lat": 1.4848103149925773,
        "lng": 103.93750797838433
    },
    {
        "id": "201",
        "name": "CU Mayang Mall",
        "street": "Lot G-40, Mayang Mall, 301, Jalan Haji Mat Taukey, Kampung Surau Pasir, ",
        "city": "Kuala Terengganu",
        "state": "Terengganu",
        "postcode": "20000",
        "country": "Malaysia",
        "slug": "cu-mayang-mall-kuala-terengganu",
        "brand": "CU Mart",
        "categories": "33",
        "phone": "",
        "full_hours": "",
        "open_hours": "{\"mon\": [\"10:00 AM - 10:00 PM\"], \"tue\": [\"10:00 AM - 10:00 PM\"], \"wed\": [\"10:00 AM - 10:00 PM\"], \"thu\": [\"10:00 AM - 10:00 PM\"], \"fri\": [\"10:00 AM - 10:00 PM\"], \"sat\": [\"10:00 AM - 10:00 PM\"], \"sun\": [\"10:00 AM - 10:00 PM\"]}",
        "lat": 5.340131867073423,
        "lng": 103.14306022378437
    },
    {
        "id": "88",
        "name": "CU Medan Klebang Restu Chemor",
        "street": "CU, No. 70, Laluan Klebang Restu 2,",
        "city": "Chemor",
        "state": "Perak",
        "postcode": "31200",
        "country": "Malaysia",
        "slug": "cu-medan-klebang-restu-chemor-chemor",
        "brand": "CU Mart",
        "categories": "29",
        "phone": "",
        "full_hours": "",
        "open_hours": "{\"mon\": [\"07:00 AM - 02:00 AM\"], \"tue\": [\"07:00 AM - 02:00 AM\"], \"wed\": [\"07:00 AM - 02:00 AM\"], \"thu\": [\"07:00 AM - 02:00 AM\"], \"fri\": [\"07:00 AM - 02:00 AM\"], \"sat\": [\"07:00 AM - 02:00 AM\"], \"sun\": [\"07:00 AM - 02:00 AM\"]}",
        "lat": 4.681860339649274,
        "lng": 101.12157773892844
    },
    {
        "id": "138",
        "name": "CU Medan Pesona",
        "street": "No. 4, Medan Pesona, Sungai Siput",
        "city": "KUALA KANGSAR",
        "state": "PERAK",
        "postcode": "31100",
        "country": "Malaysia",
        "slug": "cu-medan-pesona-kuala-kangsar",
        "brand": "CU Mart",
        "categories": "29",
        "phone": "",
        "full_hours": "",
        "open_hours": "{\"mon\": [\"07:00 AM - 12:00 AM\"], \"tue\": [\"07:00 AM - 12:00 AM\"], \"wed\": [\"07:00 AM - 12:00 AM\"], \"thu\": [\"07:00 AM - 12:00 AM\"], \"fri\": [\"07:00 AM - 12:00 AM\"], \"sat\": [\"07:00 AM - 12:00 AM\"], \"sun\": [\"07:00 AM - 12:00 AM\"]}",
        "lat": 4.772467856304305,
        "lng": 100.94028647518175
    },
    {
        "id": "72",
        "name": "CU Megan Avenue 1",
        "street": "CU MART, Megan Phileo Promenade Block E, Hampshire Park, ",
        "city": "Kuala Lumpur",
        "state": "Kuala Lumpur",
        "postcode": "50400",
        "country": "Malaysia",
        "slug": "cu-megan-avenue-1-kuala-lumpur",
        "brand": "CU Mart",
        "categories": "24",
        "phone": "",
        "full_hours": "",
        "open_hours": "{\"mon\": [\"07:00 AM - 12:00 AM\"], \"tue\": [\"07:00 AM - 12:00 AM\"], \"wed\": [\"07:00 AM - 12:00 AM\"], \"thu\": [\"07:00 AM - 12:00 AM\"], \"fri\": [\"07:00 AM - 12:00 AM\"], \"sat\": [\"07:00 AM - 12:00 AM\"], \"sun\": [\"07:00 AM - 12:00 AM\"]}",
        "lat": 3.1620187084922917,
        "lng": 101.71703249586837
    },
    {
        "id": "196",
        "name": "CU Mentakab",
        "street": "CU Mentakab, 71G, 87 Jalan Mentakab, Taman Bendera,",
        "city": "Mentakab",
        "state": "Pahang",
        "postcode": "28400",
        "country": "Malaysia",
        "slug": "cu-mentakab-mentakab",
        "brand": "CU Mart",
        "categories": "27",
        "phone": "",
        "full_hours": "",
        "open_hours": "{\"mon\": [\"07:00 AM - 02:00 AM\"], \"tue\": [\"07:00 AM - 02:00 AM\"], \"wed\": [\"07:00 AM - 02:00 AM\"], \"thu\": [\"07:00 AM - 02:00 AM\"], \"fri\": [\"07:00 AM - 02:00 AM\"], \"sat\": [\"07:00 AM - 02:00 AM\"], \"sun\": [\"07:00 AM - 02:00 AM\"]}",
        "lat": 3.4848120837625096,
        "lng": 102.34971607783173
    },
    {
        "id": "158",
        "name": "CU Mesamall Nilai",
        "street": "Mesahill, G-03 Ground Floor Mesamall Lot 13865, Persiaran Ilmu BBN, Bandar Baru Nilai,",
        "city": "NILAI",
        "state": "NEGERI SEMBILAN",
        "postcode": "07180",
        "country": "Malaysia",
        "slug": "cu-mesamall-nilai-nilai",
        "brand": "CU Mart",
        "categories": "26",
        "phone": "",
        "full_hours": "",
        "open_hours": "{\"mon\": [\"10:00 AM - 10:00 PM\"], \"tue\": [\"10:00 AM - 10:00 PM\"], \"wed\": [\"10:00 AM - 10:00 PM\"], \"thu\": [\"10:00 AM - 10:00 PM\"], \"fri\": [\"10:00 AM - 10:00 PM\"], \"sat\": [\"10:00 AM - 10:00 PM\"], \"sun\": [\"10:00 AM - 10:00 PM\"]}",
        "lat": 2.8251367177669895,
        "lng": 101.77778981970866
    },
    {
        "id": "141",
        "name": "CU Mid Valley",
        "street": "Unit G-022 and 023, Level G, Mid Valley Megamall, Mid Valley City, Lingkaran Syed Putra, ",
        "city": "MID VALLEY CITY",
        "state": "KUALA LUMPUR",
        "postcode": "59200",
        "country": "Malaysia",
        "slug": "cu-mid-valley-mid-valley-city",
        "brand": "CU Mart",
        "categories": "24",
        "phone": "",
        "full_hours": null,
        "open_hours": "{\"mon\": [\"07:00 AM - 12:00 AM\"], \"tue\": [\"07:00 AM - 12:00 AM\"], \"wed\": [\"07:00 AM - 12:00 AM\"], \"thu\": [\"07:00 AM - 12:00 AM\"], \"fri\": [\"07:00 AM - 12:00 AM\"], \"sat\": [\"07:00 AM - 12:00 AM\"], \"sun\": [\"07:00 AM - 12:00 AM\"]}",
        "lat": 3.117178299925132,
        "lng": 101.6781221247239
    },
    {
        "id": "193",
        "name": "CU MNR Affin TRX",
        "street": "LOT P1-01, MENARA AFFIN LINGKARAN TRX, TUN RAZAK EXCHANGE, ",
        "city": "Kuala Lumpur",
        "state": "Kuala Lumpur",
        "postcode": "55188",
        "country": "Malaysia",
        "slug": "cu-mnr-affin-trx-kuala-lumpur",
        "brand": "CU Mart",
        "categories": "24",
        "phone": "",
        "full_hours": "",
        "open_hours": "{\"mon\": [\"07:00 AM - 08:00 PM\"], \"tue\": [\"07:00 AM - 08:00 PM\"], \"wed\": [\"07:00 AM - 08:00 PM\"], \"thu\": [\"07:00 AM - 08:00 PM\"], \"fri\": [\"07:00 AM - 08:00 PM\"], \"sat\": [\"07:00 AM - 04:00 PM\"], \"sun\": [\"07:00 AM - 04:00 PM\"]}",
        "lat": 3.141865209474032,
        "lng": 101.71972917472591
    },
    {
        "id": "36",
        "name": "CU Mount Austin Johor Bahru",
        "street": "No. 35, Jalan Austin Heights 3, Taman Mount Austin,",
        "city": "Johor Bahru",
        "state": "Johor",
        "postcode": "81100",
        "country": "Malaysia",
        "slug": "cu-mount-austin-johor-bahru-johor-bahru",
        "brand": "CU Mart",
        "categories": "23",
        "phone": "",
        "full_hours": "",
        "open_hours": "{\"mon\": [\"07:00 AM - 12:00 AM\"], \"tue\": [\"07:00 AM - 12:00 AM\"], \"wed\": [\"07:00 AM - 12:00 AM\"], \"thu\": [\"07:00 AM - 12:00 AM\"], \"fri\": [\"07:00 AM - 12:00 AM\"], \"sat\": [\"07:00 AM - 12:00 AM\"], \"sun\": [\"07:00 AM - 12:00 AM\"]}",
        "lat": 1.5606667954209428,
        "lng": 103.7803365260248
    },
    {
        "id": "37",
        "name": "CU Mutiara Mas Skudai",
        "street": "NO. 63-G, JALAN MUTIARA 1/9 TAMAN MUTIARA MAS ",
        "city": "Johor Bahru",
        "state": "Johor",
        "postcode": "81300",
        "country": "Malaysia",
        "slug": "cu-mutiara-mas-skudai-johor-bahru",
        "brand": "CU Mart",
        "categories": "23",
        "phone": "",
        "full_hours": "24 Hours",
        "open_hours": "{\"mon\": \"1\", \"tue\": \"1\", \"wed\": \"1\", \"thu\": \"1\", \"fri\": \"1\", \"sat\": \"1\", \"sun\": \"1\"}",
        "lat": 1.5138569385050993,
        "lng": 103.63171071860911
    },
    {
        "id": "213",
        "name": "CU Mutiara Mas Skudai",
        "street": "NO. 63-G, JALAN MUTIARA 1/9 TAMAN MUTIARA MAS ",
        "city": "Johor Bahru",
        "state": "Johor",
        "postcode": "81300",
        "country": "Malaysia",
        "slug": "cu-mutiara-mas-skudai-johor-bahru",
        "brand": "CU Mart",
        "categories": "23",
        "phone": "",
        "full_hours": "24 Hours",
        "open_hours": "{\"mon\": \"1\", \"tue\": \"1\", \"wed\": \"1\", \"thu\": \"1\", \"fri\": \"1\", \"sat\": \"1\", \"sun\": \"1\"}",
        "lat": 1.5138569385050993,
        "lng": 103.63171071860911
    },
    {
        "id": "69",
        "name": "CU Mytown Shopping Centre",
        "street": "LOT NO. B1-061, B1-062, B1 MYTOWN SHOPPING CENTRE, NO. 6 JALAN COCHRANE, SEKSYEN 90",
        "city": "Kuala Lumpur",
        "state": "Kuala Lumpur",
        "postcode": "55100",
        "country": "Malaysia",
        "slug": "cu-mytown-shopping-centre-kuala-lumpur",
        "brand": "CU Mart",
        "categories": "24",
        "phone": "",
        "full_hours": null,
        "open_hours": "{\"mon\": [\"07:00 AM - 12:00 AM\"], \"tue\": [\"07:00 AM - 12:00 AM\"], \"wed\": [\"07:00 AM - 12:00 AM\"], \"thu\": [\"07:00 AM - 12:00 AM\"], \"fri\": [\"07:00 AM - 12:00 AM\"], \"sat\": [\"07:00 AM - 12:00 AM\"], \"sun\": [\"07:00 AM - 12:00 AM\"]}",
        "lat": 3.1340750327792186,
        "lng": 101.72307889638441
    },
    {
        "id": "173",
        "name": "CU Nexus Bangsar South",
        "street": "CU Nexus Bangsar South, Unit G-13A, Ground Floor, 7, Jalan Kerinchi, Pantai Dalam, ",
        "city": "Kuala Lumpur",
        "state": "Federal Territory of Kuala Lumpur",
        "postcode": "59200",
        "country": "Malaysia",
        "slug": "cu-nexus-bangsar-south-kuala-lumpur",
        "brand": "CU Mart",
        "categories": "24",
        "phone": "",
        "full_hours": "",
        "open_hours": "{\"mon\": [\"07:00 AM - 10:00 PM\"], \"tue\": [\"07:00 AM - 10:00 PM\"], \"wed\": [\"07:00 AM - 10:00 PM\"], \"thu\": [\"07:00 AM - 10:00 PM\"], \"fri\": [\"07:00 AM - 10:00 PM\"], \"sat\": [\"07:00 AM - 10:00 PM\"], \"sun\": [\"07:00 AM - 10:00 PM\"]}",
        "lat": 3.1100698749013618,
        "lng": 101.66563430035117
    },
    {
        "id": "105",
        "name": "CU Nilam 4B Bukit Tinggi",
        "street": "NO. 62-0, LORONG BATU NILAM 4B BANDAR BUKIT TINGGI ",
        "city": "Klang",
        "state": "Selangor",
        "postcode": "41200",
        "country": "Malaysia",
        "slug": "cu-nilam-4b-bukit-tinggi-klang",
        "brand": "CU Mart",
        "categories": "30",
        "phone": "",
        "full_hours": "",
        "open_hours": "{\"mon\": [\"07:00 AM - 12:00 AM\"], \"tue\": [\"07:00 AM - 12:00 AM\"], \"wed\": [\"07:00 AM - 12:00 AM\"], \"thu\": [\"07:00 AM - 12:00 AM\"], \"fri\": [\"07:00 AM - 12:00 AM\"], \"sat\": [\"07:00 AM - 12:00 AM\"], \"sun\": [\"07:00 AM - 12:00 AM\"]}",
        "lat": 3.007130471072695,
        "lng": 101.43645825071185
    },
    {
        "id": "122",
        "name": "CU Nova U5/N Bestari",
        "street": "CU Mart, 19, Jalan Nova U5/N, Subang Bestari,",
        "city": "Shah Alam",
        "state": "Selangor",
        "postcode": "40150",
        "country": "Malaysia",
        "slug": "cu-nova-u5-n-bestari-shah-alam",
        "brand": "CU Mart",
        "categories": "30",
        "phone": "",
        "full_hours": "",
        "open_hours": "{\"mon\": [\"07:00 AM - 12:00 PM\"], \"tue\": [\"07:00 AM - 12:00 PM\"], \"wed\": [\"07:00 AM - 12:00 PM\"], \"thu\": [\"07:00 AM - 12:00 PM\"], \"fri\": [\"07:00 AM - 12:00 PM\"], \"sat\": [\"07:00 AM - 12:00 PM\"], \"sun\": [\"07:00 AM - 12:00 PM\"]}",
        "lat": 3.1782534,
        "lng": 101.5478947
    },
    {
        "id": "169",
        "name": "CU Pekan Jitra",
        "street": "CU MART Pekan Jitra 2, Pekan Jitra 2,",
        "city": "JITRA",
        "state": "Kedah",
        "postcode": "06000",
        "country": "Malaysia",
        "slug": "cu-pekan-jitra-jitra",
        "brand": "CU Mart",
        "categories": "32",
        "phone": "",
        "full_hours": "",
        "open_hours": "{\"mon\": [\"07:00 AM - 12:00 AM\"], \"tue\": [\"07:00 AM - 12:00 AM\"], \"wed\": [\"07:00 AM - 12:00 AM\"], \"thu\": [\"07:00 AM - 12:00 AM\"], \"fri\": [\"07:00 AM - 12:00 AM\"], \"sat\": [\"07:00 AM - 12:00 AM\"], \"sun\": [\"07:00 AM - 12:00 AM\"]}",
        "lat": 6.258669247579971,
        "lng": 100.41958240996262
    },
    {
        "id": "49",
        "name": "CU Pekan Nenas",
        "street": "CU Pekan Nenas, 83, Jalan Industri 8, Taman Perindustrian Pekan Nenas,",
        "city": "Pontian District",
        "state": "Johor",
        "postcode": "81500",
        "country": "Malaysia",
        "slug": "cu-pekan-nenas-pontian-district",
        "brand": "CU Mart",
        "categories": "23",
        "phone": "",
        "full_hours": "",
        "open_hours": "{\"mon\": [\"07:00 AM - 12:00 AM\"], \"tue\": [\"07:00 AM - 12:00 AM\"], \"wed\": [\"07:00 AM - 12:00 AM\"], \"thu\": [\"07:00 AM - 12:00 AM\"], \"fri\": [\"07:00 AM - 12:00 AM\"], \"sat\": [\"07:00 AM - 12:00 AM\"], \"sun\": [\"07:00 AM - 12:00 AM\"]}",
        "lat": 1.4953697180174503,
        "lng": 103.52620697194357
    },
    {
        "id": "95",
        "name": "CU Perbandaran Kuala Kangsar",
        "street": "No. 5, Persiaran Perbandaran, ",
        "city": "Kuala Kangsar",
        "state": "Perak",
        "postcode": "33800",
        "country": "Malaysia",
        "slug": "cu-perbandaran-kuala-kangsar-kuala-kangsar",
        "brand": "CU Mart",
        "categories": "29",
        "phone": "",
        "full_hours": null,
        "open_hours": "{\"mon\": [\"07:00 AM - 12:00 AM\"], \"tue\": [\"07:00 AM - 12:00 AM\"], \"wed\": [\"07:00 AM - 12:00 AM\"], \"thu\": [\"07:00 AM - 12:00 AM\"], \"fri\": [\"07:00 AM - 12:00 AM\"], \"sat\": [\"07:00 AM - 12:00 AM\"], \"sun\": [\"07:00 AM - 12:00 AM\"]}",
        "lat": 4.7724880625416635,
        "lng": 100.94030193767223
    },
    {
        "id": "39",
        "name": "CU Perling Johor Bahru",
        "street": "CU Mart Taman Perling, No. 18-G, Jalan Persiaran Perling 1, Taman Perling,",
        "city": "Johor Bahru",
        "state": "Johor ",
        "postcode": "81300",
        "country": "Malaysia",
        "slug": "cu-perling-johor-bahru-johor-bahru",
        "brand": "CU Mart",
        "categories": "23",
        "phone": "",
        "full_hours": "",
        "open_hours": "{\"mon\": [\"07:00 AM - 12:00 AM\"], \"tue\": [\"07:00 AM - 12:00 AM\"], \"wed\": [\"07:00 AM - 12:00 AM\"], \"thu\": [\"07:00 AM - 12:00 AM\"], \"fri\": [\"07:00 AM - 12:00 AM\"], \"sat\": [\"07:00 AM - 12:00 AM\"], \"sun\": [\"07:00 AM - 12:00 AM\"]}",
        "lat": 1.4821270120377739,
        "lng": 103.68487813767493
    },
    {
        "id": "47",
        "name": "CU Permas 10 Masai",
        "street": "CU Permas Jaya, 1, Jln Permas 10, Permas Jaya, ",
        "city": "Masai",
        "state": "Johor",
        "postcode": "81750",
        "country": "Malaysia",
        "slug": "cu-permas-10-masai-masai",
        "brand": "CU Mart",
        "categories": "23",
        "phone": "",
        "full_hours": "24 Hours",
        "open_hours": "{\"mon\": \"1\", \"tue\": \"1\", \"wed\": \"1\", \"thu\": \"1\", \"fri\": \"1\", \"sat\": \"1\", \"sun\": \"1\"}",
        "lat": 1.4965263170843552,
        "lng": 103.8151917307091
    },
    {
        "id": "207",
        "name": "CU PETRON Bandar Sri Permaisuri Cheras",
        "street": "CU PETRON BANDAR SRI PERMAISURI, NO. 16, JALAN TASIK PERMAISURI 2 BANDAR TUN RAZAK",
        "city": "Kuala Lumpur",
        "state": "Wilayah Persekutuan Kuala Lumpur",
        "postcode": "56000",
        "country": "Malaysia",
        "slug": "cu-petron-bandar-sri-permaisuri-cheras-kuala-lumpur",
        "brand": "CU Mart",
        "categories": "24",
        "phone": "",
        "full_hours": "",
        "open_hours": "{\"mon\": [\"07:00 AM - 02:00 AM\"], \"tue\": [\"07:00 AM - 02:00 AM\"], \"wed\": [\"07:00 AM - 02:00 AM\"], \"thu\": [\"07:00 AM - 02:00 AM\"], \"fri\": [\"07:00 AM - 02:00 AM\"], \"sat\": [\"07:00 AM - 02:00 AM\"], \"sun\": [\"07:00 AM - 02:00 AM\"]}",
        "lat": 3.0997655244884896,
        "lng": 101.71748224232869
    },
    {
        "id": "160",
        "name": "CU PIKOM Segamat",
        "street": "1 & 2, Jalan Melor, Kampung Abdullah, ",
        "city": "Segamat",
        "state": "JOHOR",
        "postcode": "85000",
        "country": "Malaysia",
        "slug": "cu-pikom-segamat-segamat",
        "brand": "CU Mart",
        "categories": "23",
        "phone": "",
        "full_hours": "24 Hours",
        "open_hours": "{\"mon\": \"1\", \"tue\": \"1\", \"wed\": \"1\", \"thu\": \"1\", \"fri\": \"1\", \"sat\": \"1\", \"sun\": \"1\"}",
        "lat": 2.4997618311324925,
        "lng": 102.82708213642236
    },
    {
        "id": "35",
        "name": "CU PKOM Suria Johor Bahru",
        "street": "NO. 17, JALAN SURIA 2, Taman Nusa Perintis",
        "city": "Gelang Patah",
        "state": "Johor",
        "postcode": "81550",
        "country": "Malaysia",
        "slug": "cu-pkom-suria-johor-bahru-gelang-patah",
        "brand": "CU Mart",
        "categories": "23",
        "phone": "",
        "full_hours": null,
        "open_hours": "{\"mon\": [\"07:00 AM - 12:00 AM\"], \"tue\": [\"07:00 AM - 12:00 AM\"], \"wed\": [\"07:00 AM - 12:00 AM\"], \"thu\": [\"07:00 AM - 12:00 AM\"], \"fri\": [\"07:00 AM - 12:00 AM\"], \"sat\": [\"07:00 AM - 12:00 AM\"], \"sun\": [\"07:00 AM - 12:00 AM\"]}",
        "lat": 1.4556315375019349,
        "lng": 103.59899432869604
    },
    {
        "id": "85",
        "name": "CU Plaza Gurney",
        "street": "CU, 170-B1-39, Gurney Dr, Georgetown,",
        "city": "Penang",
        "state": "Penang",
        "postcode": "10250",
        "country": "Malaysia",
        "slug": "cu-plaza-gurney-penang",
        "brand": "CU Mart",
        "categories": "28",
        "phone": "",
        "full_hours": "",
        "open_hours": "{\"mon\": [\"07:00 AM - 12:00 AM\"], \"tue\": [\"07:00 AM - 12:00 AM\"], \"wed\": [\"07:00 AM - 12:00 AM\"], \"thu\": [\"07:00 AM - 12:00 AM\"], \"fri\": [\"07:00 AM - 12:00 AM\"], \"sat\": [\"07:00 AM - 12:00 AM\"], \"sun\": [\"07:00 AM - 12:00 AM\"]}",
        "lat": 5.437150493864657,
        "lng": 100.30928475275384
    },
    {
        "id": "68",
        "name": "CU Plaza Usahawan Kuala Lumpur",
        "street": "CU Plaza Usahawan Setapak, 8, Jalan Danau Niaga, Danau Kota, ",
        "city": "Kuala Lumpur",
        "state": "Kuala Lumpur",
        "postcode": "53300",
        "country": "Malaysia",
        "slug": "cu-plaza-usahawan-kuala-lumpur-kuala-lumpur",
        "brand": "CU Mart",
        "categories": "24",
        "phone": "",
        "full_hours": "",
        "open_hours": "{\"mon\": [\"07:00 AM - 12:00 AM\"], \"tue\": [\"07:00 AM - 12:00 AM\"], \"wed\": [\"07:00 AM - 12:00 AM\"], \"thu\": [\"07:00 AM - 12:00 AM\"], \"fri\": [\"07:00 AM - 12:00 AM\"], \"sat\": [\"07:00 AM - 12:00 AM\"], \"sun\": [\"07:00 AM - 12:00 AM\"]}",
        "lat": 3.2025866129581275,
        "lng": 101.71717850412098
    },
    {
        "id": "182",
        "name": "CU Pocket C UTP",
        "street": "Pocket C, Universiti Teknologi PETRONAS, Persiaran UTP,",
        "city": "Seri Iskandar",
        "state": "PERAK",
        "postcode": "32610",
        "country": "Malaysia",
        "slug": "cu-pocket-c-utp-seri-iskandar",
        "brand": "CU Mart",
        "categories": "29",
        "phone": "",
        "full_hours": "",
        "open_hours": "{\"mon\": [\"07:00 AM - 11:00 PM\"], \"tue\": [\"07:00 AM - 11:00 PM\"], \"wed\": [\"07:00 AM - 11:00 PM\"], \"thu\": [\"07:00 AM - 11:00 PM\"], \"fri\": [\"07:00 AM - 11:00 PM\"], \"sat\": [\"07:00 AM - 11:00 PM\"], \"sun\": [\"07:00 AM - 11:00 PM\"]}",
        "lat": 4.382995833385813,
        "lng": 100.9643695434402
    },
    {
        "id": "188",
        "name": "CU PP Tunjung KB",
        "street": "CU Tunjung Kota Bharu, PT1365), Ground Floor, Pusar Perniagaan, Lot 506, Jalan Kuala Krai, Bandar Baru Tunjung, ",
        "city": "Kota Bharu",
        "state": "KELANTAN",
        "postcode": "16010",
        "country": "Malaysia",
        "slug": "cu-pp-tunjung-kb-kota-bharu",
        "brand": "CU Mart",
        "categories": "34",
        "phone": "",
        "full_hours": "",
        "open_hours": "{\"mon\": [\"07:00 AM - 02:00 AM\"], \"tue\": [\"07:00 AM - 02:00 AM\"], \"wed\": [\"07:00 AM - 02:00 AM\"], \"thu\": [\"07:00 AM - 02:00 AM\"], \"fri\": [\"07:00 AM - 02:00 AM\"], \"sat\": [\"07:00 AM - 02:00 AM\"], \"sun\": [\"07:00 AM - 02:00 AM\"]}",
        "lat": 6.068942986859981,
        "lng": 102.23766506254081
    },
    {
        "id": "191",
        "name": "CU Presint 15",
        "street": "CU Mart, P15, ST, Nadi, 19, 15, Jln Diplomatik, Presint 15,",
        "city": "Wilayah Persekutuan",
        "state": "Putrajaya",
        "postcode": "62050",
        "country": "Malaysia",
        "slug": "cu-presint-15-wilayah-persekutuan",
        "brand": "CU Mart",
        "categories": "35",
        "phone": "",
        "full_hours": "",
        "open_hours": "{\"mon\": [\"07:00 AM - 12:00 AM\"], \"tue\": [\"07:00 AM - 12:00 AM\"], \"wed\": [\"07:00 AM - 12:00 AM\"], \"thu\": [\"07:00 AM - 12:00 AM\"], \"fri\": [\"07:00 AM - 12:00 AM\"], \"sat\": [\"07:00 AM - 12:00 AM\"], \"sun\": [\"07:00 AM - 12:00 AM\"]}",
        "lat": 2.944944304743335,
        "lng": 101.7214446670842
    },
    {
        "id": "100",
        "name": "CU Prima Batu Caves",
        "street": "29-G, Jalan Prima SG 1 Prima Sri Gombak  ",
        "city": "Batu Caves",
        "state": "selangor",
        "postcode": "68100",
        "country": "Malaysia",
        "slug": "cu-prima-batu-caves-batu-caves",
        "brand": "CU Mart",
        "categories": "30",
        "phone": "",
        "full_hours": null,
        "open_hours": "{\"mon\": [\"07:00 AM - 12:00 AM\"], \"tue\": [\"07:00 AM - 12:00 AM\"], \"wed\": [\"07:00 AM - 12:00 AM\"], \"thu\": [\"07:00 AM - 12:00 AM\"], \"fri\": [\"07:00 AM - 12:00 AM\"], \"sat\": [\"07:00 AM - 12:00 AM\"], \"sun\": [\"07:00 AM - 12:00 AM\"]}",
        "lat": 3.2395823490117084,
        "lng": 101.69987252278241
    },
    {
        "id": "143",
        "name": "CU Promenade",
        "street": "Â CU, NO. 5-G-12, THE PROMENADE PERSIARAN MAHSURI, BANDAR BAYAN BARU, ",
        "city": "BAYAN LEPAS",
        "state": "PULAU PINANG",
        "postcode": "11950",
        "country": "Malaysia",
        "slug": "cu-promenade-bayan-lepas",
        "brand": "CU Mart",
        "categories": "28",
        "phone": "",
        "full_hours": "",
        "open_hours": "{\"mon\": [\"07:00 AM - 12:00 AM\"], \"tue\": [\"07:00 AM - 12:00 AM\"], \"wed\": [\"07:00 AM - 12:00 AM\"], \"thu\": [\"07:00 AM - 12:00 AM\"], \"fri\": [\"07:00 AM - 12:00 AM\"], \"sat\": [\"07:00 AM - 12:00 AM\"], \"sun\": [\"07:00 AM - 12:00 AM\"]}",
        "lat": 5.3242699692081485,
        "lng": 100.28196318748643
    },
    {
        "id": "66",
        "name": "CU Puncak Sentul Kuala Lumpur",
        "street": "AG-19, Ground Floor, 8, Jln Sentul Pasar, Sentul,",
        "city": "Kuala Lumpur",
        "state": "Kuala Lumpur",
        "postcode": "51000",
        "country": "Malaysia",
        "slug": "cu-puncak-sentul-kuala-lumpur-kuala-lumpur",
        "brand": "CU Mart",
        "categories": "24",
        "phone": "",
        "full_hours": "",
        "open_hours": "{\"mon\": [\"07:00 AM - 12:00 AM\"], \"tue\": [\"07:00 AM - 12:00 AM\"], \"wed\": [\"07:00 AM - 12:00 AM\"], \"thu\": [\"07:00 AM - 12:00 AM\"], \"fri\": [\"07:00 AM - 12:00 AM\"], \"sat\": [\"07:00 AM - 12:00 AM\"], \"sun\": [\"07:00 AM - 12:00 AM\"]}",
        "lat": 3.202211751762018,
        "lng": 101.68947846745984
    },
    {
        "id": "82",
        "name": "CU Queens Residences Pulau Pinang",
        "street": "SU-G-25, QUEENS RESIDENCES Q1 JALAN BAYAN INDAH ",
        "city": "Bayan Lepas",
        "state": "Penang",
        "postcode": "11900",
        "country": "Malaysia",
        "slug": "cu-queens-residences-pulau-pinang-bayan-lepas",
        "brand": "CU Mart",
        "categories": "28",
        "phone": "",
        "full_hours": "",
        "open_hours": "{\"mon\": [\"07:00 AM - 12:00 AM\"], \"tue\": [\"07:00 AM - 12:00 AM\"], \"wed\": [\"07:00 AM - 12:00 AM\"], \"thu\": [\"07:00 AM - 12:00 AM\"], \"fri\": [\"07:00 AM - 12:00 AM\"], \"sat\": [\"07:00 AM - 12:00 AM\"], \"sun\": [\"07:00 AM - 12:00 AM\"]}",
        "lat": 5.33216082071719,
        "lng": 100.3092993377062
    },
    {
        "id": "194",
        "name": "CU R&R Seremban South Bound",
        "street": "R&R Seremban South Bound, North-South Expy,",
        "city": "Seremban",
        "state": "Negeri Sembilan",
        "postcode": "79000",
        "country": "Malaysia",
        "slug": "cu-r-r-seremban-south-bound-seremban",
        "brand": "CU Mart",
        "categories": "26",
        "phone": "",
        "full_hours": "24 hours",
        "open_hours": "{\"mon\": \"1\", \"tue\": \"1\", \"wed\": \"1\", \"thu\": \"1\", \"fri\": \"1\", \"sat\": \"1\", \"sun\": \"1\"}",
        "lat": 2.7653376543648043,
        "lng": 101.82898443857303
    },
    {
        "id": "61",
        "name": "CU Radin Bagus",
        "street": "NO. 121 JALAN RADIN BAGUS SRI PETALING",
        "city": "Kuala Lumpur",
        "state": "Kuala Lumpur",
        "postcode": "57000",
        "country": "Malaysia",
        "slug": "cu-radin-bagus-kuala-lumpur",
        "brand": "CU Mart",
        "categories": "24",
        "phone": "",
        "full_hours": null,
        "open_hours": "{\"mon\": [\"07:00 AM - 12:00 AM\"], \"tue\": [\"07:00 AM - 12:00 AM\"], \"wed\": [\"07:00 AM - 12:00 AM\"], \"thu\": [\"07:00 AM - 12:00 AM\"], \"fri\": [\"07:00 AM - 12:00 AM\"], \"sat\": [\"07:00 AM - 12:00 AM\"], \"sun\": [\"07:00 AM - 12:00 AM\"]}",
        "lat": 3.0711228962464263,
        "lng": 101.69322864110669
    },
    {
        "id": "77",
        "name": "CU Rasah Prima",
        "street": "NO. 2G & 3G, JALAN RASAH PRIMA 1 PUSAT KOMERSIAL RASAH PRIMA ",
        "city": "seremban",
        "state": "Negeri Sembilan",
        "postcode": "70300",
        "country": "Malaysia",
        "slug": "cu-rasah-prima-seremban",
        "brand": "CU Mart",
        "categories": "26",
        "phone": "",
        "full_hours": "",
        "open_hours": "{\"mon\": [\"07:00 AM - 12:00 AM\"], \"tue\": [\"07:00 AM - 12:00 AM\"], \"wed\": [\"07:00 AM - 12:00 AM\"], \"thu\": [\"07:00 AM - 12:00 AM\"], \"fri\": [\"07:00 AM - 12:00 AM\"], \"sat\": [\"07:00 AM - 12:00 AM\"], \"sun\": [\"07:00 AM - 12:00 AM\"]}",
        "lat": 2.688856863231449,
        "lng": 101.93324554640557
    },
    {
        "id": "58",
        "name": "CU Rohas Kuala Lumpur",
        "street": "No. 11, Jalan P. Ramlee, City Centre, ",
        "city": "Kuala Lumpur",
        "state": "Kuala Lumpur",
        "postcode": "50250",
        "country": "Malaysia",
        "slug": "cu-rohas-kuala-lumpur-kuala-lumpur",
        "brand": "CU Mart",
        "categories": "24",
        "phone": "",
        "full_hours": "",
        "open_hours": "{\"mon\": [\"07:00 AM - 12:00 AM\"], \"tue\": [\"07:00 AM - 12:00 AM\"], \"wed\": [\"07:00 AM - 12:00 AM\"], \"thu\": [\"07:00 AM - 12:00 AM\"], \"fri\": [\"07:00 AM - 12:00 AM\"], \"sat\": [\"07:00 AM - 12:00 AM\"], \"sun\": [\"07:00 AM - 12:00 AM\"]}",
        "lat": 3.155356478223892,
        "lng": 101.70905101297548
    },
    {
        "id": "180",
        "name": "CU Samsung Negeri Sembilan",
        "street": "Samsung SDI Energy Malaysia Sdn Bhd, Lot 635 & 660, Kawasan Perindustrian Tuanku Jaafar, Seremban, Negeri Sembilan",
        "city": "Seremban",
        "state": "Negeri Sembilan. ",
        "postcode": "72000",
        "country": "Malaysia",
        "slug": "cu-samsung-negeri-sembilan-seremban",
        "brand": "CU Mart",
        "categories": "26",
        "phone": "",
        "full_hours": "",
        "open_hours": "{\"mon\": \"0\", \"tue\": \"0\", \"wed\": \"0\", \"thu\": \"0\", \"fri\": \"0\", \"sat\": \"0\", \"sun\": \"0\"}",
        "lat": 2.6759877400572094,
        "lng": 102.00940743970219
    },
    {
        "id": "125",
        "name": "CU Seksyen 13 Shah Alam",
        "street": "G10, MENARA U, NO 2 JALAN BOLING PADANG 13/62 SEKSYEN 13",
        "city": "Shah Alam",
        "state": "Selangor",
        "postcode": "40100",
        "country": "Malaysia",
        "slug": "cu-seksyen-13-shah-alam-shah-alam",
        "brand": "CU Mart",
        "categories": "30",
        "phone": "",
        "full_hours": null,
        "open_hours": "{\"mon\": [\"07:00 AM - 12:00 AM\"], \"tue\": [\"07:00 AM - 12:00 AM\"], \"wed\": [\"07:00 AM - 12:00 AM\"], \"thu\": [\"07:00 AM - 12:00 AM\"], \"fri\": [\"07:00 AM - 12:00 AM\"], \"sat\": [\"07:00 AM - 12:00 AM\"], \"sun\": [\"07:00 AM - 12:00 AM\"]}",
        "lat": 3.07583,
        "lng": 101.551878
    },
    {
        "id": "56",
        "name": "CU Selayang",
        "street": "No. 67, Jalan 2/16, Bandar Baru Selayang, Selayang",
        "city": "Batu Caves",
        "state": "Kuala Lumpur",
        "postcode": "68100",
        "country": "Malaysia",
        "slug": "cu-selayang-batu-caves",
        "brand": "CU Mart",
        "categories": "24",
        "phone": "",
        "full_hours": "",
        "open_hours": "{\"mon\": [\"07:00 AM - 12:00 AM\"], \"tue\": [\"07:00 AM - 12:00 AM\"], \"wed\": [\"07:00 AM - 12:00 AM\"], \"thu\": [\"07:00 AM - 12:00 AM\"], \"fri\": [\"07:00 AM - 12:00 AM\"], \"sat\": [\"07:00 AM - 12:00 AM\"], \"sun\": [\"07:00 AM - 12:00 AM\"]}",
        "lat": 3.2567165738773336,
        "lng": 101.65627621253495
    },
    {
        "id": "146",
        "name": "CU Semenyih",
        "street": "CU, 39-1, Jalan Vista Valley 3, Vista Valley Semenyih,",
        "city": "SEMENYIH",
        "state": "SELANGOR",
        "postcode": "43500",
        "country": "Malaysia",
        "slug": "cu-semenyih-semenyih",
        "brand": "CU Mart",
        "categories": "30",
        "phone": "",
        "full_hours": "",
        "open_hours": "{\"mon\": [\"07:00 AM - 12:00 AM\"], \"tue\": [\"07:00 AM - 12:00 AM\"], \"wed\": [\"07:00 AM - 12:00 AM\"], \"thu\": [\"07:00 AM - 12:00 AM\"], \"fri\": [\"07:00 AM - 12:00 AM\"], \"sat\": [\"07:00 AM - 12:00 AM\"], \"sun\": [\"07:00 AM - 12:00 AM\"]}",
        "lat": 2.9578146942043038,
        "lng": 101.83962333981358
    },
    {
        "id": "203",
        "name": "CU Senai International Airport",
        "street": "CU Mart, 33-G, Departure Hall, Senai Airport, ",
        "city": "Johor Bahru",
        "state": "Johor",
        "postcode": "81250",
        "country": "Malaysia",
        "slug": "cu-senai-international-airport-johor-bahru",
        "brand": "CU Mart",
        "categories": "23",
        "phone": "",
        "full_hours": "",
        "open_hours": "{\"mon\": [\"07:00 AM - 10:00 PM\"], \"tue\": [\"07:00 AM - 10:00 PM\"], \"wed\": [\"07:00 AM - 10:00 PM\"], \"thu\": [\"07:00 AM - 10:00 PM\"], \"fri\": [\"07:00 AM - 10:00 PM\"], \"sat\": [\"07:00 AM - 10:00 PM\"], \"sun\": [\"07:00 AM - 10:00 PM\"]}",
        "lat": 1.6357877850042095,
        "lng": 103.6632910576717
    },
    {
        "id": "166",
        "name": "CU Setia City Mall",
        "street": "LG-131, LOWER GROUND FLOOR SETIA CITY MALL, 7, PERSIARAN SETIA DAGANG SETIA ALAM",
        "city": "SHAH ALAM",
        "state": "SELANGOR",
        "postcode": "40170",
        "country": "Malaysia",
        "slug": "cu-setia-city-mall-shah-alam",
        "brand": "CU Mart",
        "categories": "30",
        "phone": "",
        "full_hours": null,
        "open_hours": "{\"mon\": [\"07:00 AM - 12:00 AM\"], \"tue\": [\"07:00 AM - 12:00 AM\"], \"wed\": [\"07:00 AM - 12:00 AM\"], \"thu\": [\"07:00 AM - 12:00 AM\"], \"fri\": [\"07:00 AM - 12:00 AM\"], \"sat\": [\"07:00 AM - 12:00 AM\"], \"sun\": [\"07:00 AM - 12:00 AM\"]}",
        "lat": 3.1102786304457983,
        "lng": 101.45807602004894
    },
    {
        "id": "172",
        "name": "CU Sierra Fresco",
        "street": "LOT 2-3, SIERRA ALFRESCO, JALAN SIERRA 10/1, BANDAR 16 SIERRA ",
        "city": "PUCHONG",
        "state": "SELANGOR",
        "postcode": "47110",
        "country": "Malaysia",
        "slug": "cu-sierra-fresco-puchong",
        "brand": "CU Mart",
        "categories": "30",
        "phone": "",
        "full_hours": "",
        "open_hours": "{\"mon\": [\"07:00 AM - 12:00 AM\"], \"tue\": [\"07:00 AM - 12:00 AM\"], \"wed\": [\"07:00 AM - 12:00 AM\"], \"thu\": [\"07:00 AM - 12:00 AM\"], \"fri\": [\"07:00 AM - 12:00 AM\"], \"sat\": [\"07:00 AM - 12:00 AM\"], \"sun\": [\"07:00 AM - 12:00 AM\"]}",
        "lat": 2.974732152552839,
        "lng": 101.65561368737433
    },
    {
        "id": "168",
        "name": "CU Sky Avenue",
        "street": "LOT NO. T2C-B02 LEVEL T2C, SKY AVENUE ",
        "city": "GENTING HIGHLANDS",
        "state": "PAHANG",
        "postcode": "69000",
        "country": "Malaysia",
        "slug": "cu-sky-avenue-genting-highlands",
        "brand": "CU Mart",
        "categories": "27",
        "phone": "",
        "full_hours": "",
        "open_hours": "{\"mon\": [\"07:00 AM - 12:00 AM\"], \"tue\": [\"07:00 AM - 12:00 AM\"], \"wed\": [\"07:00 AM - 12:00 AM\"], \"thu\": [\"07:00 AM - 12:00 AM\"], \"fri\": [\"07:00 AM - 12:00 AM\"], \"sat\": [\"07:00 AM - 12:00 AM\"], \"sun\": [\"07:00 AM - 12:00 AM\"]}",
        "lat": 3.426806929593561,
        "lng": 101.79669455139499
    },
    {
        "id": "81",
        "name": "CU Sky Avenue Genting Highlands",
        "street": "LOT NO. T2C-B02 LEVEL T2C, SKY AVENUE ",
        "city": "Genting Highlands",
        "state": "Pahang",
        "postcode": "69000",
        "country": "Malaysia",
        "slug": "cu-sky-avenue-genting-highlands-genting-highlands",
        "brand": "CU Mart",
        "categories": "27",
        "phone": "",
        "full_hours": "",
        "open_hours": "{\"mon\": [\"07:00 AM - 12:00 AM\"], \"tue\": [\"09:30 AM - 06:30 PM\"], \"wed\": [\"09:30 AM - 06:30 PM\"], \"thu\": [\"09:30 AM - 06:30 PM\"], \"fri\": [\"09:30 AM - 06:30 PM\"], \"sat\": [\"09:30 AM - 06:30 PM\"], \"sun\": [\"09:30 AM - 06:30 PM\"]}",
        "lat": 3.4250583631491214,
        "lng": 101.79639853682716
    },
    {
        "id": "63",
        "name": "CU Solaris",
        "street": "NO. 20-G, JALAN SOLARIS 4 SOLARIS MONT KIARA,",
        "city": "Kuala Lumpur",
        "state": "Kuala Lumpur",
        "postcode": "50480",
        "country": "Malaysia",
        "slug": "cu-solaris-kuala-lumpur",
        "brand": "CU Mart",
        "categories": "24",
        "phone": "",
        "full_hours": null,
        "open_hours": "{\"mon\": [\"07:00 AM - 12:00 AM\"], \"tue\": [\"07:00 AM - 12:00 AM\"], \"wed\": [\"07:00 AM - 12:00 AM\"], \"thu\": [\"07:00 AM - 12:00 AM\"], \"fri\": [\"07:00 AM - 12:00 AM\"], \"sat\": [\"07:00 AM - 12:00 AM\"], \"sun\": [\"07:00 AM - 12:00 AM\"]}",
        "lat": 3.1757186555009924,
        "lng": 101.65971200854486
    },
    {
        "id": "132",
        "name": "CU Southkey",
        "street": "Â F-028, THE MALL MID VALLEY SOUTHKEY NO. 1, PERSIARAN SOUTHKEY 1",
        "city": "JOHOR BAHRU",
        "state": "JOHOR",
        "postcode": "Â 80150 ",
        "country": "Malaysia",
        "slug": "cu-southkey-johor-bahru",
        "brand": "CU Mart",
        "categories": "23",
        "phone": "",
        "full_hours": null,
        "open_hours": "{\"mon\": [\"07:00 AM - 12:00 AM\"], \"tue\": [\"07:00 AM - 12:00 AM\"], \"wed\": [\"07:00 AM - 12:00 AM\"], \"thu\": [\"07:00 AM - 12:00 AM\"], \"fri\": [\"07:00 AM - 12:00 AM\"], \"sat\": [\"07:00 AM - 12:00 AM\"], \"sun\": [\"07:00 AM - 12:00 AM\"]}",
        "lat": 1.5013743230033005,
        "lng": 103.77749727818089
    },
    {
        "id": "126",
        "name": "CU SS15/4 Subang",
        "street": "CU, 76, Jalan SS 15/4, SS 15,",
        "city": "Subang Jaya",
        "state": "selangor",
        "postcode": "47500",
        "country": "Malaysia",
        "slug": "cu-ss15-4-subang-subang-jaya",
        "brand": "CU Mart",
        "categories": "30",
        "phone": "",
        "full_hours": "",
        "open_hours": "{\"mon\": [\"07:00 AM - 12:00 AM\"], \"tue\": [\"07:00 AM - 12:00 AM\"], \"wed\": [\"07:00 AM - 12:00 AM\"], \"thu\": [\"07:00 AM - 12:00 AM\"], \"fri\": [\"07:00 AM - 12:00 AM\"], \"sat\": [\"07:00 AM - 12:00 AM\"], \"sun\": [\"07:00 AM - 12:00 AM\"]}",
        "lat": 3.0757996443139084,
        "lng": 101.5891593210314
    },
    {
        "id": "147",
        "name": "CU Subang Perdana",
        "street": "CU Subang Perdana, LOT 27-G, Jalan Dinar G U3/G, Taman Subang Perdana,",
        "city": "SHAH ALAM",
        "state": "SELANGOR",
        "postcode": "40150",
        "country": "Malaysia",
        "slug": "cu-subang-perdana-shah-alam",
        "brand": "CU Mart",
        "categories": "30",
        "phone": "",
        "full_hours": "",
        "open_hours": "{\"mon\": [\"07:00 AM - 12:00 AM\"], \"tue\": [\"07:00 AM - 12:00 AM\"], \"wed\": [\"07:00 AM - 12:00 AM\"], \"thu\": [\"07:00 AM - 12:00 AM\"], \"fri\": [\"07:00 AM - 12:00 AM\"], \"sat\": [\"07:00 AM - 12:00 AM\"], \"sun\": [\"07:00 AM - 12:00 AM\"]}",
        "lat": 3.1489606354280126,
        "lng": 101.54424854210863
    },
    {
        "id": "91",
        "name": "CU Sultan Iskandar Ipoh",
        "street": "CU, 189-B, Jalan Sultan Iskandar, Taman Jubilee,",
        "city": "ipoh",
        "state": "Perak",
        "postcode": "30000",
        "country": "Malaysia",
        "slug": "cu-sultan-iskandar-ipoh-ipoh",
        "brand": "CU Mart",
        "categories": "29",
        "phone": "",
        "full_hours": "24 Hours",
        "open_hours": "{\"mon\": \"1\", \"tue\": \"1\", \"wed\": \"1\", \"thu\": \"1\", \"fri\": \"1\", \"sat\": \"1\", \"sun\": \"1\"}",
        "lat": 4.592468382554745,
        "lng": 101.0862649373286
    },
    {
        "id": "104",
        "name": "CU Sungai Long Cheras",
        "street": "No 37, JALAN SL 1/3, BANDAR SUNGAI LONG",
        "city": "kajang",
        "state": "Selangor",
        "postcode": "43000",
        "country": "Malaysia",
        "slug": "cu-sungai-long-cheras-kajang",
        "brand": "CU Mart",
        "categories": "30",
        "phone": "",
        "full_hours": null,
        "open_hours": "{\"mon\": [\"07:00 AM - 12:00 AM\"], \"tue\": [\"07:00 AM - 12:00 AM\"], \"wed\": [\"07:00 AM - 12:00 AM\"], \"thu\": [\"07:00 AM - 12:00 AM\"], \"fri\": [\"07:00 AM - 12:00 AM\"], \"sat\": [\"07:00 AM - 12:00 AM\"], \"sun\": [\"07:00 AM - 12:00 AM\"]}",
        "lat": 3.0396398663431214,
        "lng": 101.79309068249414
    },
    {
        "id": "109",
        "name": "CU Sunway Giza",
        "street": "CU Sunway Giza, Sunway Giza, Jalan PJU 5/14, Kota Damansara,",
        "city": "Petaling Jaya",
        "state": "selangor",
        "postcode": "47800",
        "country": "Malaysia",
        "slug": "cu-sunway-giza-petaling-jaya",
        "brand": "CU Mart",
        "categories": "30",
        "phone": "",
        "full_hours": "",
        "open_hours": "{\"mon\": [\"07:00 AM - 12:00 AM\"], \"tue\": [\"07:00 AM - 12:00 AM\"], \"wed\": [\"07:00 AM - 12:00 AM\"], \"thu\": [\"07:00 AM - 12:00 AM\"], \"fri\": [\"07:00 AM - 12:00 AM\"], \"sat\": [\"07:00 AM - 12:00 AM\"], \"sun\": [\"07:00 AM - 12:00 AM\"]}",
        "lat": 3.1508995072164896,
        "lng": 101.59168819546247
    },
    {
        "id": "52",
        "name": "CU Sutera Utama Skudai",
        "street": "NO. 127 (G FLOOR), JALAN SUTERA TANJUNG 8/2 TAMAN SUTERA UTAMA ",
        "city": "Skudai",
        "state": "Johor",
        "postcode": "81200",
        "country": "Malaysia",
        "slug": "cu-sutera-utama-skudai-skudai",
        "brand": "CU Mart",
        "categories": "23",
        "phone": "",
        "full_hours": "24 Hours",
        "open_hours": "{\"mon\": \"1\", \"tue\": \"1\", \"wed\": \"1\", \"thu\": \"1\", \"fri\": \"1\", \"sat\": \"1\", \"sun\": \"1\"}",
        "lat": 1.5151432849418613,
        "lng": 103.66978836002909
    },
    {
        "id": "197",
        "name": "CU Taman Mergong Jaya",
        "street": "CU Taman Mergong Jaya, No.188-G & 189-G, SSN, Taman, Persiaran Bandar Baru Mergong, Taman Mergong Jaya,",
        "city": "Alor Setar",
        "state": "Kedah",
        "postcode": "05150",
        "country": "Malaysia",
        "slug": "cu-taman-mergong-jaya-alor-setar",
        "brand": "CU Mart",
        "categories": "32",
        "phone": "",
        "full_hours": "",
        "open_hours": "{\"mon\": [\"07:00 AM - 12:00 AM\"], \"tue\": [\"07:00 AM - 12:00 AM\"], \"wed\": [\"07:00 AM - 12:00 AM\"], \"thu\": [\"07:00 AM - 12:00 AM\"], \"fri\": [\"07:00 AM - 12:00 AM\"], \"sat\": [\"07:00 AM - 12:00 AM\"], \"sun\": [\"07:00 AM - 12:00 AM\"]}",
        "lat": 6.110898842374808,
        "lng": 100.33572090187208
    },
    {
        "id": "86",
        "name": "CU Taman Pauh Jaya",
        "street": "CU Taman Pauh Jaya, NO. B1-G-16, ELEVATE 1 LORONG PAUH JAYA 1, 3, Taman Pauh Jaya,",
        "city": "Permatang Pauh",
        "state": "Penang",
        "postcode": "13500",
        "country": "Malaysia",
        "slug": "cu-taman-pauh-jaya-permatang-pauh",
        "brand": "CU Mart",
        "categories": "28",
        "phone": "",
        "full_hours": "",
        "open_hours": "{\"mon\": [\"07:00 AM - 12:00 AM\"], \"tue\": [\"07:00 AM - 12:00 AM\"], \"wed\": [\"07:00 AM - 12:00 AM\"], \"thu\": [\"07:00 AM - 12:00 AM\"], \"fri\": [\"07:00 AM - 12:00 AM\"], \"sat\": [\"07:00 AM - 12:00 AM\"], \"sun\": [\"07:00 AM - 12:00 AM\"]}",
        "lat": 5.370111178946342,
        "lng": 100.41557409045747
    },
    {
        "id": "106",
        "name": "CU Taman Saujana Kajang",
        "street": "CU Taman Saujana, 1434, Jalan Sungai Jati, Taman Sentosa,",
        "city": "klang",
        "state": "Selangor",
        "postcode": "41200",
        "country": "Malaysia",
        "slug": "cu-taman-saujana-kajang-klang",
        "brand": "CU Mart",
        "categories": "30",
        "phone": "",
        "full_hours": "",
        "open_hours": "{\"mon\": [\"07:00 AM - 12:00 AM\"], \"tue\": [\"07:00 AM - 12:00 AM\"], \"wed\": [\"07:00 AM - 12:00 AM\"], \"thu\": [\"07:00 AM - 12:00 AM\"], \"fri\": [\"07:00 AM - 12:00 AM\"], \"sat\": [\"07:00 AM - 12:00 AM\"], \"sun\": [\"07:00 AM - 12:00 AM\"]}",
        "lat": 3.0141963077709457,
        "lng": 101.45799350925083
    },
    {
        "id": "204",
        "name": "CU Taman Seri Muda Shah Alam",
        "street": "CU Mart, No.22 G, Jalan Makmur 25/64, Taman Sri Muda,",
        "city": "Shah Alam",
        "state": "Selangor",
        "postcode": "40400",
        "country": "Malaysia",
        "slug": "cu-taman-seri-muda-shah-alam-shah-alam",
        "brand": "CU Mart",
        "categories": "30",
        "phone": "",
        "full_hours": "",
        "open_hours": "{\"mon\": [\"07:00 AM - 12:00 AM\"], \"tue\": [\"07:00 AM - 12:00 AM\"], \"wed\": [\"07:00 AM - 12:00 AM\"], \"thu\": [\"07:00 AM - 12:00 AM\"], \"fri\": [\"07:00 AM - 12:00 AM\"], \"sat\": [\"07:00 AM - 12:00 AM\"], \"sun\": [\"07:00 AM - 12:00 AM\"]}",
        "lat": 3.032397490099408,
        "lng": 101.53608357790938
    },
    {
        "id": "152",
        "name": "CU Taman Sri Serdang",
        "street": "CU Taman Sri Serdang, 3-1, Jalan 18/34, Sri Serdang,",
        "city": "SERI KEMBANGAN",
        "state": "SELANGOR ",
        "postcode": "43300",
        "country": "Malaysia",
        "slug": "cu-taman-sri-serdang-seri-kembangan",
        "brand": "CU Mart",
        "categories": "30",
        "phone": "",
        "full_hours": "",
        "open_hours": "{\"mon\": [\"07:00 AM - 12:00 AM\"], \"tue\": [\"07:00 AM - 12:00 AM\"], \"wed\": [\"07:00 AM - 12:00 AM\"], \"thu\": [\"07:00 AM - 12:00 AM\"], \"fri\": [\"07:00 AM - 12:00 AM\"], \"sat\": [\"07:00 AM - 12:00 AM\"], \"sun\": [\"07:00 AM - 12:00 AM\"]}",
        "lat": 3.00855393726399,
        "lng": 101.71419730769725
    },
    {
        "id": "97",
        "name": "CU Taman Tasik Commercial Centre Taiping",
        "street": "CU Taiping, No.6 Commersial Centre TTCC off, Jalan Pekeliling, Taman Tasik Taiping, ",
        "city": "Taiping",
        "state": "Perak",
        "postcode": "34000",
        "country": "Malaysia",
        "slug": "cu-taman-tasik-commercial-centre-taiping-taiping",
        "brand": "CU Mart",
        "categories": "29",
        "phone": "",
        "full_hours": "24 Hours",
        "open_hours": "{\"mon\": \"1\", \"tue\": \"1\", \"wed\": \"1\", \"thu\": \"1\", \"fri\": \"1\", \"sat\": \"1\", \"sun\": \"1\"}",
        "lat": 4.852840650496826,
        "lng": 100.74574765020363
    },
    {
        "id": "157",
        "name": "CU Tampin",
        "street": "Ground floor of three (3) storey shoplot (corner lot) bearing postal address of PS 28, Jalan Bandar Satelit Sebang 1, Bandar Satelit Sebang, Seksyen 1, ",
        "city": "ALOR GAJAH",
        "state": "MELAKA",
        "postcode": "78000",
        "country": "Malaysia",
        "slug": "cu-tampin-alor-gajah",
        "brand": "CU Mart",
        "categories": "31",
        "phone": "",
        "full_hours": null,
        "open_hours": "{\"mon\": [\"07:00 AM - 12:00 AM\"], \"tue\": [\"07:00 AM - 12:00 AM\"], \"wed\": [\"07:00 AM - 12:00 AM\"], \"thu\": [\"07:00 AM - 12:00 AM\"], \"fri\": [\"07:00 AM - 12:00 AM\"], \"sat\": [\"07:00 AM - 12:00 AM\"], \"sun\": [\"07:00 AM - 12:00 AM\"]}",
        "lat": 2.463726576652006,
        "lng": 102.23594891432623
    },
    {
        "id": "159",
        "name": "CU Tanah Rata",
        "street": "Magnolia Square, 11-1, Cameron Highlands, Tanah Rata,",
        "city": "CAMERON HIGHLANDS",
        "state": "PAHANG",
        "postcode": "39000",
        "country": "Malaysia",
        "slug": "cu-tanah-rata-cameron-highlands",
        "brand": "CU Mart",
        "categories": "27",
        "phone": "",
        "full_hours": "",
        "open_hours": "{\"mon\": [\"07:00 AM - 12:00 AM\"], \"tue\": [\"07:00 AM - 12:00 AM\"], \"wed\": [\"07:00 AM - 12:00 AM\"], \"thu\": [\"07:00 AM - 12:00 AM\"], \"fri\": [\"07:00 AM - 12:00 AM\"], \"sat\": [\"07:00 AM - 12:00 AM\"], \"sun\": [\"07:00 AM - 12:00 AM\"]}",
        "lat": 4.472986004280622,
        "lng": 101.38035561057005
    },
    {
        "id": "137",
        "name": "CU Teluk Intan",
        "street": "53 (GF), JALAN INTAN 4, BANDAR BARU TELUK INTAN, ",
        "city": "TELUK INTAN",
        "state": "PERAK",
        "postcode": "36000",
        "country": "Malaysia",
        "slug": "cu-teluk-intan-teluk-intan",
        "brand": "CU Mart",
        "categories": "29",
        "phone": "",
        "full_hours": null,
        "open_hours": "{\"mon\": [\"07:00 AM - 12:00 AM\"], \"tue\": [\"07:00 AM - 12:00 AM\"], \"wed\": [\"07:00 AM - 12:00 AM\"], \"thu\": [\"07:00 AM - 12:00 AM\"], \"fri\": [\"07:00 AM - 12:00 AM\"], \"sat\": [\"07:00 AM - 12:00 AM\"], \"sun\": [\"07:00 AM - 12:00 AM\"]}",
        "lat": 4.0198408860711945,
        "lng": 101.02305785604224
    },
    {
        "id": "115",
        "name": "CU Ten Kinrara",
        "street": "CU Ten Kinrara, GF-07, Ten Kinrara Residence, Jalan BK 5a/3, Bandar Kinrara,",
        "city": "puchong",
        "state": "Selangor",
        "postcode": "47180",
        "country": "Malaysia",
        "slug": "cu-ten-kinrara-puchong",
        "brand": "CU Mart",
        "categories": "30",
        "phone": "",
        "full_hours": "",
        "open_hours": "{\"mon\": [\"07:00 AM - 12:00 AM\"], \"tue\": [\"07:00 AM - 12:00 AM\"], \"wed\": [\"07:00 AM - 12:00 AM\"], \"thu\": [\"07:00 AM - 12:00 AM\"], \"fri\": [\"07:00 AM - 12:00 AM\"], \"sat\": [\"07:00 AM - 12:00 AM\"], \"sun\": [\"07:00 AM - 12:00 AM\"]}",
        "lat": 3.048068094900457,
        "lng": 101.6463553412628
    },
    {
        "id": "51",
        "name": "CU Terminal 5 Senai",
        "street": "CU Mart, 33-G, Jalan Terminal 5, ",
        "city": "Senai",
        "state": "Johor",
        "postcode": "81400",
        "country": "Malaysia",
        "slug": "cu-terminal-5-senai-senai",
        "brand": "CU Mart",
        "categories": "23",
        "phone": "",
        "full_hours": "",
        "open_hours": "{\"mon\": [\"07:00 AM - 12:00 AM\"], \"tue\": [\"07:00 AM - 12:00 AM\"], \"wed\": [\"07:00 AM - 12:00 AM\"], \"thu\": [\"07:00 AM - 12:00 AM\"], \"fri\": [\"07:00 AM - 12:00 AM\"], \"sat\": [\"07:00 AM - 12:00 AM\"], \"sun\": [\"07:00 AM - 12:00 AM\"]}",
        "lat": 1.6060794648221066,
        "lng": 103.64786146086189
    },
    {
        "id": "111",
        "name": "CU Thomson Hospital",
        "street": "GF, UNIT 1109-5 THOMSON HOSPITAL, 11 JALAN TEKNOLOGI PJU 5, KOTA DAMANSARA",
        "city": "petaling jaya",
        "state": "selangor",
        "postcode": "47810",
        "country": "Malaysia",
        "slug": "cu-thomson-hospital-petaling-jaya",
        "brand": "CU Mart",
        "categories": "30",
        "phone": "",
        "full_hours": "24 Hours",
        "open_hours": "{\"mon\": \"1\", \"tue\": \"1\", \"wed\": \"1\", \"thu\": \"1\", \"fri\": \"1\", \"sat\": \"1\", \"sun\": \"1\"}",
        "lat": 3.1490627437497496,
        "lng": 101.57877881515235
    },
    {
        "id": "128",
        "name": "CU Tropicana Aman Selangor",
        "street": "NO. 9-G & 9-1, JALAN AMAN SINARIA 2 BANDAR TROPICANA AMAN  ",
        "city": "Teluk Panglima Garang",
        "state": "Selangor",
        "postcode": "42500",
        "country": "Malaysia",
        "slug": "cu-tropicana-aman-selangor-teluk-panglima-garang",
        "brand": "CU Mart",
        "categories": "30",
        "phone": "",
        "full_hours": null,
        "open_hours": "{\"mon\": [\"07:00 AM - 12:00 AM\"], \"tue\": [\"07:00 AM - 12:00 AM\"], \"wed\": [\"07:00 AM - 12:00 AM\"], \"thu\": [\"07:00 AM - 12:00 AM\"], \"fri\": [\"07:00 AM - 12:00 AM\"], \"sat\": [\"07:00 AM - 12:00 AM\"], \"sun\": [\"07:00 AM - 12:00 AM\"]}",
        "lat": 2.944712008898226,
        "lng": 101.52739591385881
    },
    {
        "id": "65",
        "name": "CU Tun Mohd Fuad TTDI",
        "street": "CU TTDI, 11, Jalan Tun Mohd Fuad, Taman Tun Dr Ismail, ",
        "city": "Kuala Lumpur",
        "state": "Kuala Lumpur",
        "postcode": "60000",
        "country": "Malaysia",
        "slug": "cu-tun-mohd-fuad-ttdi-kuala-lumpur",
        "brand": "CU Mart",
        "categories": "24",
        "phone": "",
        "full_hours": "",
        "open_hours": "{\"mon\": [\"07:00 AM - 12:00 AM\"], \"tue\": [\"07:00 AM - 12:00 AM\"], \"wed\": [\"07:00 AM - 12:00 AM\"], \"thu\": [\"07:00 AM - 12:00 AM\"], \"fri\": [\"07:00 AM - 12:00 AM\"], \"sat\": [\"07:00 AM - 12:00 AM\"], \"sun\": [\"07:00 AM - 12:00 AM\"]}",
        "lat": 3.141664944730027,
        "lng": 101.6284486437522
    },
    {
        "id": "200",
        "name": "CU UMT Kuala Nerus Terengganu",
        "street": "CU Mart UMT Kuala Terengganu,",
        "city": "Kuala Terengganu",
        "state": "Terengganu",
        "postcode": "21030",
        "country": "Malaysia",
        "slug": "cu-umt-kuala-nerus-terengganu-kuala-terengganu",
        "brand": "CU Mart",
        "categories": "33",
        "phone": "",
        "full_hours": "24 HOURS",
        "open_hours": "{\"mon\": \"1\", \"tue\": \"1\", \"wed\": \"1\", \"thu\": \"1\", \"fri\": \"1\", \"sat\": \"1\", \"sun\": \"1\"}",
        "lat": 5.4071227598139675,
        "lng": 103.0893248106907
    },
    {
        "id": "186",
        "name": "CU UTC Kota Bharu",
        "street": "LOT G1.01 & LOT G1.13, TINGKAT BAWAH BANGUNAN UTC KELANTAN, JALAN HAMZAH BANDAR KOTA BHARU,",
        "city": "Kota Bharu",
        "state": "KELANTAN",
        "postcode": "15050",
        "country": "Malaysia",
        "slug": "cu-utc-kota-bharu-kota-bharu",
        "brand": "CU Mart",
        "categories": "34",
        "phone": "",
        "full_hours": "",
        "open_hours": "{\"mon\": [\"07:00 AM - 02:00 AM\"], \"tue\": [\"07:00 AM - 02:00 AM\"], \"wed\": [\"07:00 AM - 02:00 AM\"], \"thu\": [\"07:00 AM - 02:00 AM\"], \"fri\": [\"07:00 AM - 02:00 AM\"], \"sat\": [\"07:00 AM - 02:00 AM\"], \"sun\": [\"07:00 AM - 02:00 AM\"]}",
        "lat": 6.1184157770440555,
        "lng": 102.23988422774376
    },
    {
        "id": "170",
        "name": "CU UUM Sintok",
        "street": "Sintok, Bangunan, Varsity Mall,",
        "city": "Universiti Utara Malaysia",
        "state": "Kedah",
        "postcode": "06010",
        "country": "Malaysia",
        "slug": "cu-uum-sintok-universiti-utara-malaysia",
        "brand": "CU Mart",
        "categories": "32",
        "phone": "",
        "full_hours": "",
        "open_hours": "{\"mon\": [\"06:00 AM - 12:00 AM\"], \"tue\": [\"06:00 AM - 12:00 AM\"], \"wed\": [\"06:00 AM - 12:00 AM\"], \"thu\": [\"06:00 AM - 12:00 AM\"], \"fri\": [\"06:00 AM - 12:00 AM\"], \"sat\": [\"06:00 AM - 12:00 AM\"], \"sun\": [\"06:00 AM - 12:00 AM\"]}",
        "lat": 6.462850029845793,
        "lng": 100.50166904937223
    },
    {
        "id": "206",
        "name": "CU Viana Tumpat",
        "street": "CU Viana Tumpat, TINGKAT BAWAH, VIANA BUSINESS PARK, PT2611 AND PT3612, Jalan Dato Keramat, Kampung Kelong, ",
        "city": "Tumpat",
        "state": "Kelantan",
        "postcode": "16200",
        "country": "Malaysia",
        "slug": "cu-viana-tumpat-tumpat",
        "brand": "CU Mart",
        "categories": "34",
        "phone": "",
        "full_hours": "",
        "open_hours": "{\"mon\": [\"07:00 AM - 02:00 AM\"], \"tue\": [\"07:00 AM - 02:00 AM\"], \"wed\": [\"07:00 AM - 02:00 AM\"], \"thu\": [\"07:00 AM - 02:00 AM\"], \"fri\": [\"07:00 AM - 02:00 AM\"], \"sat\": [\"07:00 AM - 02:00 AM\"], \"sun\": [\"07:00 AM - 02:00 AM\"]}",
        "lat": 6.190011461712296,
        "lng": 102.16922915280718
    }
]