[{"state":"Johor","name":"Shell Mount Austin","address":"Lot 46115 (Plot 2), Jalan Mutiara Emas Utama, Taman Mount Austin, 81100 Johor Bahru","phone":"012-622 1673","hours":"Daily: 8:00AM - 10:00PM","google_maps":null,"waze":"https:\/\/www.waze.com\/en\/live-map\/directions\/my\/johor\/johor-bahru\/dunkin-shell-mount-austin?place=ChIJ0yYD3u9v2jER16h66NxRVBc"},{"state":"Johor","name":"Galleria @ Kotaraya","address":"Lot LG-35, Lower Ground Floor, Galleria@kotaraya, Jalan Trus, 80000 Johor Bahru, Johor.\nTel: N\/A\nDaily: 10:0AM - 8:00PM","phone":"","hours":"Daily: 10:0AM - 8:00PM","google_maps":null,"waze":"https:\/\/www.waze.com\/en-GB\/livemap?zoom=17&lat=1.4597&lon=103.76309"},{"state":"Johor","name":"Larkin Sentral","address":"5B-110 (C), Ground Floor, No. 5, Jalan Garuda,","phone":"012-622 1713","hours":"Daily: 9:00AM - 9:00PM","google_maps":null,"waze":"https:\/\/www.waze.com\/en-GB\/livemap?zoom=17&lat=1.49601&lon=103.74267"},{"state":"Johor","name":"Petronas Skudai","address":"Petronas Service Station, Lot PTD 76295 HS(D) 355943 PLOT 10, Lebuhraya Utara Selatan, Mukim Senai Kulai, Johor Bahru, Johor.","phone":"012-622 1723","hours":"Daily: 8:00AM \u00e2\u0080\u0093 10:00PM","google_maps":null,"waze":"https:\/\/www.waze.com\/en-GB\/livemap?zoom=17&lat=1.5796&lon=103.65008"},{"state":"Johor","name":"Petronas Taman Universiti","address":"Petronas Service Station, 4A, Jalan Pendidikan, Taman Universiti, Skudai, 81300 Johor Bahru, Johor.","phone":"018-966 0688","hours":"Daily: 9:00AM \u00e2\u0080\u0093 10:00PM","google_maps":null,"waze":"https:\/\/www.waze.com\/en-GB\/livemap?zoom=17&lat=1.54144&lon=103.62809"},{"state":"Johor","name":"Shell Skudai R&R","address":"17, Jalan R&R Skudai,  81400, Kulai, Senai, Johor","phone":"018-6615859","hours":"Daily: 8:00AM \u00e2\u0080\u0093 10:00PM","google_maps":null,"waze":"https:\/\/www.waze.com\/en\/live-map\/directions\/shell-randr-skudai-lebuhraya-utara-selatan-senai?place=w.67895312.679215263.23477680"},{"state":"Johor","name":"Plaza Angsana","address":"Lot L1-13,","phone":"012-622 1727","hours":"Daily: 10.00AM - 10.00PM","google_maps":null,"waze":"https:\/\/www.waze.com\/en-GB\/livemap?zoom=17&lat=1.49534&lon=103.70583"},{"state":"Johor","name":"Shell Dato' Onn","address":"No. 2, Jalan Dato' Onn Utama, Bandar Dato' Onn, 81100 Johor Bahru, Johor.","phone":"018-945 0688","hours":"Daily: 8:00AM \u00e2\u0080\u0093 10:00PM","google_maps":null,"waze":"https:\/\/www.waze.com\/en-GB\/livemap?zoom=17&lat=1.56279&lon=103.73273"},{"state":"Johor","name":"Toppen Shopping Centre","address":"Lot L2.K02, Level 2, No. 33, Jalan Harmonium, Taman Desa Tebrau, 81100 Johor Bahru.","phone":"-","hours":"Daily: 10:00AM \u00e2\u0080\u0093 10:00PM","google_maps":null,"waze":"https:\/\/www.waze.com\/ul?ll=1.55279750%2C103.79777600&navigate=yes"},{"state":"Johor","name":"Midvalley Southkey","address":"Kiosk No. LGK-21, Lower Ground Floor, The Mall, Mid Valley Southkey 1, Persiaran Southkey 1,  Southkey, 80150 Johor Bahru.","phone":"018-6615859","hours":"Daily: 10:00AM - 10:00PM","google_maps":null,"waze":"https:\/\/www.waze.com\/en\/live-map\/directions\/my\/johor\/johor-bahru\/the-mall,-mid-valley-southkey?place=ChIJtc_vgOFs2jERtTpxahI--kw"},{"state":"Kuala Lumpur","name":"Alamanda Putrajaya","address":"Lot OS03, Lower Ground Floor,","phone":"03-8800 0944","hours":"Daily: 10:00AM \u00e2\u0080\u0093 10:00PM","google_maps":null,"waze":"https:\/\/www.waze.com\/en-GB\/livemap?zoom=17&lat=2.9397&lon=101.71071"},{"state":"Kuala Lumpur","name":"Desa Pandan","address":"No. 33, Ground Floor, Jalan 2\/76C,","phone":"03-2856 9322","hours":"Daily: 10:00AM \u00e2\u0080\u0093 9:00PM","google_maps":null,"waze":"https:\/\/www.waze.com\/en-GB\/livemap?zoom=17&lat=3.14855&lon=101.73624"},{"state":"Kuala Lumpur","name":"Eko Cheras Mall","address":"LG33A,","phone":"03-2856 0829","hours":"Daily: 10:00AM - 10:00PM","google_maps":null,"waze":"https:\/\/www.waze.com\/livemap?lat=3.0930202&lng=101.7389238&zoom=16"},{"state":"Kuala Lumpur","name":"Great Eastern Mall","address":"Lot 7, Ground Floor,","phone":"03-4251 1113","hours":"Daily: 10:00AM \u00e2\u0080\u0093 8:00PM","google_maps":null,"waze":"https:\/\/www.waze.com\/en-GB\/livemap?zoom=17&lat=3.16024&lon=101.73671"},{"state":"Kuala Lumpur","name":"Mid Valley","address":"Lot LGK06, Tingkat Bawah,","phone":"012-622 1946","hours":"Daily: 10:00AM \u00e2\u0080\u0093 10:00PM","google_maps":null,"waze":"https:\/\/www.waze.com\/en-GB\/livemap?zoom=17&lat=3.11797&lon=101.67746"},{"state":"Kuala Lumpur","name":"Petronas Sprint","address":"Petronas Service Station, Lot 52985, Mukim and District of Kuala Lumpur, KM 3.4 Lebuhraya Damansara Link Sprint Highway, 60000 Kuala Lumpur.","phone":"03-7956 5264","hours":"Daily: 8:00AM \u00e2\u0080\u0093 9:00PM","google_maps":null,"waze":"https:\/\/www.waze.com\/en-GB\/livemap?zoom=17&lat=3.13037&lon=101.64194"},{"state":"Kuala Lumpur","name":"Petronas TPM","address":"Petronas Service Station, Lot No. PT 4783 & PT 3064, Technology Park, Kuala Lumpur.","phone":"03-8932 9683","hours":"Daily: 8:00AM \u00e2\u0080\u0093 10:00PM","google_maps":null,"waze":"https:\/\/www.waze.com\/en-GB\/livemap?zoom=17&lat=3.15216&lon=101.74535"},{"state":"Kuala Lumpur","name":"Putrajaya Intl Convention Centre (PICC)","address":"Level Mezzanine, Putrajaya International Convention Centre, Dataran Gemilang, Presint 5, Presint 5, 62000 W. P. Putrajaya.\nTel: N\/A\nDaily: 8:00AM \u00e2\u0080\u0093 8:00PM","phone":"","hours":"Daily: 8:00AM \u00e2\u0080\u0093 8:00PM","google_maps":null,"waze":"https:\/\/www.waze.com\/en-GB\/livemap?zoom=17&lat=2.89474&lon=101.67633"},{"state":"Kuala Lumpur","name":"Putrajaya Sentral","address":"Lot KS 32, Aras 3,","phone":"03-8800 0946","hours":"Daily: 10:00AM - 7:00PM","google_maps":null,"waze":"https:\/\/www.waze.com\/en-GB\/livemap?zoom=17&lat=2.93206&lon=101.67073"},{"state":"Kuala Lumpur","name":"Shell Ampang","address":"Lot PT 2536, Lebuhraya Lingkaran Tengah MRR2,   55000 Kuala Lumpur.","phone":"03-9200 1652","hours":"Daily: 9:00AM \u00e2\u0080\u0093 10:00PM","google_maps":null,"waze":"https:\/\/www.waze.com\/en-GB\/livemap?zoom=17&lat=3.15216&lon=101.74535"},{"state":"Kuala Lumpur","name":"LRT Abdullah Hukum","address":"N2, Concourse Level, Kelana Jaya Line, 59200 Kuala Lumpur, Federal Territory of Kuala Lumpur.\nTel: N\/A\nWeekday: 8:00AM - 9:00PM\nWeekend: 8:00AM - 6:00PM","phone":"","hours":null,"google_maps":null,"waze":"https:\/\/www.waze.com\/ul?ll=3.11868310%2C101.67287400&navigate=yes"},{"state":"Kuala Lumpur","name":"SOGO","address":"Lot No. LG-L14, Lower Ground Floor, Kompleks","phone":"03-2698 1027","hours":"Daily: 10:00AM \u00e2\u0080\u0093 10:00PM","google_maps":null,"waze":"https:\/\/www.waze.com\/en-GB\/livemap?zoom=17&lat=3.15649&lon=101.69526"},{"state":"Kuala Lumpur","name":"TBS Bus Terminal","address":"Unit L4-35, Fourth Floor, Terminal Bersepadu Selatan, Bandar Tasek Selatan, 57100 Kuala Lumpur.","phone":"03-9056 2741","hours":"Daily: 9:00AM \u00e2\u0080\u0093 9:00PM","google_maps":null,"waze":"https:\/\/www.waze.com\/en-GB\/livemap?zoom=17&lat=3.07818&lon=101.71125"},{"state":"Kuala Lumpur","name":"Tesco Ampang","address":"Lot OL4, Tesco Stores PT 8880, Jalan Pandan Prima, Dataran Pandan Prima, 55100 Kuala Lumpur.","phone":"03-9201 2796","hours":"Daily: 10:00AM - 10:00PM","google_maps":null,"waze":"https:\/\/www.waze.com\/en-GB\/livemap?zoom=17&lat=3.14408&lon=101.74158"},{"state":"Kuala Lumpur","name":"The Weld","address":"Lot G15, Ground Floor,","phone":"03-2856 9996","hours":"Saturday: 8:00AM \u00e2\u0080\u0093 8:00PM","google_maps":null,"waze":"https:\/\/www.waze.com\/en-GB\/livemap?zoom=17&lat=3.15146&lon=101.70691"},{"state":"Kuala Lumpur","name":"Sungei Wang Plaza","address":"Lot C22(A*B) - Kiosk 3,","phone":"-","hours":"Sungei Wang Plaza","google_maps":null,"waze":"https:\/\/www.waze.com\/ul?ll=3.14477960%2C101.71093160&navigate=yes&zoom=16"},{"state":"Kuala Lumpur","name":"Intermark Mall","address":"Lot C-20, Concourse Floor,","phone":"-","hours":null,"google_maps":null,"waze":null},{"state":"Kuala Lumpur","name":"AEON Taman Maluri","address":"GK02 (Kiosk), Ground Floor,","phone":"012-4256 227","hours":"Daily: 10:00AM \u00e2\u0080\u0093 10:00PM","google_maps":null,"waze":"https:\/\/www.waze.com\/ul?ll=3.12590840%2C101.72841840&navigate=yes"},{"state":"Kuala Lumpur","name":"Petronas Hulu Kelang","address":"Petronas Service Station, Lot 279, Batu 7 1\/2, Jalan Hulu Kelang, 68000 Ampang, Kuala Lumpur.","phone":"03-4800 4619","hours":"Daily: 9:00AM \u00e2\u0080\u0093 10:00PM","google_maps":null,"waze":"https:\/\/www.waze.com\/en-GB\/livemap?zoom=17&lat=3.20196&lon=101.76097"},{"state":"Kuala Lumpur","name":"Suria KLCC","address":"Lot OSC08, Concourse Floor, 241,","phone":"012-425 0180","hours":"Daily: 10:00AM - 10:00PM","google_maps":null,"waze":null},{"state":"Kuala Lumpur","name":"Nu Sentral","address":"Lot No. LG.50A&B, LG Floor,","phone":"-","hours":"Daily: 10:00AM \u00e2\u0080\u0093 10:00PM","google_maps":null,"waze":"https:\/\/www.waze.com\/ul?ll=3.13289990%2C101.68656910&navigate=yes"},{"state":"Kuala Lumpur","name":"LRT Masjid Jamek","address":"S1, Street Level, Kelana Jaya Line, Jalan Tun Perak, 50150 Kuala Lumpur.\nTel: N\/A\nWeekday: 8:00AM - 9:00PM\nWeekend: 8:00AM - 6:00PM","phone":"","hours":null,"google_maps":null,"waze":"https:\/\/www.waze.com\/ul?ll=3.14942900%2C101.69627600&navigate=yes"},{"state":"Kuala Lumpur","name":"Aeon Big Wangsa Maju","address":"Lot F1-62,","phone":"03-2303 0250","hours":"Daily: 10:00AM \u00e2\u0080\u0093 10:00PM","google_maps":null,"waze":"https:\/\/www.waze.com\/en-GB\/livemap?zoom=17&lat=3.19648&lon=101.74296"},{"state":"Kuala Lumpur","name":"BHP Karak","address":"","phone":"03-6189 7443","hours":"Daily: 9:00AM \u00e2\u0080\u0093 10:00PM","google_maps":null,"waze":"https:\/\/www.waze.com\/en-GB\/livemap?zoom=17&lat=3.25368&lon=101.72771"},{"state":"Kuala Lumpur","name":"Pavilion Bukit Jalil","address":"Lot P1.08.00, Level 1,","phone":"012-2060061","hours":"Daily: 10:00AM \u00e2\u0080\u0093 10:00PM","google_maps":null,"waze":"https:\/\/www.waze.com\/en\/live-map\/directions\/my\/wilayah-persekutuan-kuala-lumpur\/kuala-lumpur\/pavilion-bukit-jalil?place=ChIJ1WK28udKzDERlczc3oAKZCQ"},{"state":"Kuala Lumpur","name":"BBCC Lalaport","address":"LG1-FH29, Mitsui Shopping Park LaLaport BUKIT BINTANG CITY CENTRE, Bukit Bintang City Centre, NO. 2, Jalan Hang Tuah, 55100 Kuala Lumpur.","phone":"03-97765985","hours":"Daily: 10:00AM \u00e2\u0080\u0093 10:00PM","google_maps":null,"waze":"https:\/\/www.waze.com\/en\/live-map\/directions\/lalaport-bbcc-jalan-hang-tuah-2-kuala-lumpur?place=w.66650143.666566970.26012980"},{"state":"Kuala Lumpur","name":"Petron Desa Pandan","address":"Lot PT1850, Desa Pandan, 55100 Kuala Lumpur.","phone":"019-6691531","hours":"Daily: 8:00AM \u00e2\u0080\u0093 9:00PM","google_maps":null,"waze":"https:\/\/www.waze.com\/en\/live-map\/directions\/my\/wilayah-persekutuan-kuala-lumpur\/kuala-lumpur\/dunkin-petron-desa-pandan?place=ChIJJz32nus3zDERv7OjIbNVC2g"},{"state":"Kuala Lumpur","name":"BHP Cheras 1 \/ 2","address":"Lot 43944 & 50006, Batu 4 1\/4, Jalan Cheras, 56100 Kuala Lumpur.","phone":"011-16175059","hours":"Daily: 07:30AM \u00e2\u0080\u0093 10:00PM","google_maps":null,"waze":"https:\/\/www.waze.com\/en-GB\/livemap?zoom=17&lat=3.25368&lon=101.72771"},{"state":"Kuala Lumpur","name":"Pavillion Damanasara Heights","address":"P1.10.00, Level 1, Pavilion Damansara Heights, \r\n\t\t\t\t\t\t\t\t\tLot 480023, Jalan Beringin, Bukit Damansara, \r\n\t\t\t\t\t\t\t\t\t50490 Kuala Lumpur\nTel:\nDaily: 10:00AM \u00e2\u0080\u0093 10:00PM","phone":"","hours":"Daily: 10:00AM \u00e2\u0080\u0093 10:00PM","google_maps":null,"waze":"https:\/\/www.waze.com\/en\/live-map\/directions\/pavilion-damansara-heights-jalan-damanlela-kuala-lumpur?place=w.66650143.666239291.14790641"},{"state":"Kuala Lumpur","name":"MRT Ampang Park","address":"Lot 7 & 8, Ampang Park MRT Station, \r\n\t\t\t\t\t\t\t\t\tJalan Ampang, 50450 Kuala Lumpur\nTel:\nDaily: 8:00AM \u00e2\u0080\u0093 10:00PM","phone":"","hours":"Daily: 8:00AM \u00e2\u0080\u0093 10:00PM","google_maps":null,"waze":"https:\/\/www.waze.com\/en\/live-map\/directions?latlng=3.1608272293521464%2C101.71849608421327"},{"state":"Kuala Lumpur","name":"Tun Razak Exchange(TRX)","address":"Unit No. C.OS.08 & C.OS.E08, \r\n\t\t\t\t\t\t\t\t\tPlaza The Exchange TRX, \r\n\t\t\t\t\t\t\t\t\tPersiaran TRX, 55188 \r\n\t\t\t\t\t\t\t\t\tTun Razak Exchange Kuala Lumpur\nTel:\nDaily: 10:00AM \u00e2\u0080\u0093 10:00PM","phone":"","hours":"Daily: 10:00AM \u00e2\u0080\u0093 10:00PM","google_maps":null,"waze":"https:\/\/www.waze.com\/en\/live-map\/directions\/the-exchange-trx-(mall)-basement-parking-entrance-5-jalan-tun-razak-kuala-lumpur?place=w.66650143.666632506.36755079"},{"state":"Kuala Lumpur","name":"MRT Bukit Bintang","address":"Lot K018A-1, Bukit Bintang MRT Station (Kajang Line), \r\n\t\t\t\t\t\t\t\t\t55100 Kuala Lumpur\nTel:\nDaily: 8:00AM \u00e2\u0080\u0093 10:00PM","phone":"","hours":"Daily: 8:00AM \u00e2\u0080\u0093 10:00PM","google_maps":null,"waze":"https:\/\/www.waze.com\/en\/live-map\/directions?latlng=3.1468473042318825%2C101.71154379844667"},{"state":"Kuala Lumpur","name":"Mytown Shopping Centre","address":"Lot B1-K-06, MyTown Shopping Centre, \r\n\t\t\t\t\t\t\t\t\tNo. 6, Jalan Cochrane, Seksyen 90, \r\n\t\t\t\t\t\t\t\t\t55100 Kuala Lumpur\nTel:\nDaily: 10:00AM \u00e2\u0080\u0093 10:00PM","phone":"","hours":"Daily: 10:00AM \u00e2\u0080\u0093 10:00PM","google_maps":null,"waze":"https:\/\/www.waze.com\/en\/live-map\/directions\/mytown-shopping-centre-jalan-cochrane-kuala-lumpur?place=w.66650143.666632505.9244245"},{"state":"Kuala Lumpur","name":"Petron Besraya","address":"Petron BESRAYA Highway, \r\n\t\t\t\t\t\t\t\t\tMine North Rest Area, BESRAYA Highway, 57100 Kuala Lumpur\nTel:\nDaily: 8:00AM \u00e2\u0080\u0093 10:00PM","phone":"","hours":"Daily: 8:00AM \u00e2\u0080\u0093 10:00PM","google_maps":null,"waze":"https:\/\/www.waze.com\/en\/live-map\/directions\/petron-besraya-highway-lebuhraya-sungai-besi-kuala-lumpur?place=w.66650143.666566961.24719"},{"state":"Kuala Lumpur","name":"Petronas RnR Awan Besar","address":"","phone":"","hours":"Daily: 8:00AM \u00e2\u0080\u0093 10:00PM","google_maps":null,"waze":"https:\/\/www.waze.com\/en\/live-map\/directions\/petronas-awan-besar-(ev)-lebuhraya-shah-alam-kuala-lumpur?place=w.66650143.666239283.180098"},{"state":"Kuala Lumpur","name":"Petron Bukti Lanjan","address":"Petron Bukit Lanjan Northbound,\r\n\t\t\t\t\t\t\t\t\tKM 458.4 Lebuhraya Utara Selatan,\r\n\t\t\t\t\t\t\t\t\tRestoran Jejantas PLUS,\r\n\t\t\t\t\t\t\t\t\tSungai Buloh 47000 Selangor.\nTel:\nDaily: 8:00AM \u00e2\u0080\u0093 10:00PM","phone":"","hours":"Sungai Buloh 47000 Selangor.","google_maps":null,"waze":"https:\/\/www.waze.com\/en\/live-map\/directions\/my\/selangor\/sg-buloh\/petron-restoran-jejantas-sungai-buloh-northbound?place=ChIJv_9xmGNPzDERo6EqayhHWLA"},{"state":"Kuala Lumpur","name":"Setapak Central","address":"LOT GK-03, GF,","phone":"","hours":"Daily: 10:00AM \u00e2\u0080\u0093 10:00PM","google_maps":null,"waze":"https:\/\/www.waze.com\/en\/live-map\/directions\/my\/wilayah-persekutuan\/kuala-lumpur\/setapak-central-mall?place=ChIJL4BKORI4zDERB8t2wthEFkI"},{"state":"Kuala Lumpur","name":"Petronas Jelatek","address":"","phone":"","hours":"Daily: 7:00AM \u00e2\u0080\u0093 10:00PM","google_maps":null,"waze":"https:\/\/www.waze.com\/en\/live-map\/directions\/my\/selangor\/kuala-lumpur\/petronas-jalan-jelatek-2-(-warisan-jelatek-)?place=ChIJddRJNLw3zDERccN5Mz67hmI"},{"state":"Kuala Lumpur","name":"Shell MRR2 Gombak","address":"","phone":"","hours":"Daily: 7:00AM \u00e2\u0080\u0093 10:00PM","google_maps":null,"waze":"https:\/\/www.waze.com\/en\/live-map\/directions\/shell-mrr2-gombak-28-jalan-lingkaran-tengah-2-kuala-lumpur?place=w.66650144.666632515.82569"},{"state":"Kuala Lumpur","name":"Shell Jalan Tun Razak","address":"","phone":"","hours":"Daily: 7:00AM \u00e2\u0080\u0093 10:00PM","google_maps":null,"waze":"https:\/\/www.waze.com\/en\/live-map\/directions\/shell-jalan-tun-razak-kuala-lumpur?place=w.66650144.666566973.29423"},{"state":"Melaka","name":"Mahkota Parade","address":"Lot KG7D, Ground Floor,","phone":"06-281 2803","hours":"Daily: 10:00AM - 10:00PM","google_maps":null,"waze":"https:\/\/www.waze.com\/en-GB\/livemap?zoom=17&lat=2.18927&lon=102.24999"},{"state":"Melaka","name":"Mydin MITC","address":"Lot GP-32, Ground Floor, No. 12, Mydin Mall MITC, Hang Tuah Jaya Ayer Keroh, 75450 Melaka.","phone":"018-761 0688","hours":"Daily: 10:00AM - 10:00PM","google_maps":null,"waze":"https:\/\/www.waze.com\/en-GB\/livemap?zoom=17&lat=2.27102&lon=102.29261"},{"state":"Melaka","name":"Petronas Ayer Keroh 3","address":"Petronas Service Station, Lot 2854, Jalan Ayer Keroh, Durian Tunggal, 71300 Melaka.","phone":"018-973 0688","hours":"Daily: 8:00AM \u00e2\u0080\u0093 10:00PM","google_maps":null,"waze":"https:\/\/www.waze.com\/en-GB\/livemap?zoom=17&lat=2.28958&lon=102.30477"},{"state":"Melaka","name":"Plus OBR Ayer Keroh","address":"Lot No. S-01, S-03, S-05, S-07, S-09, Ayer Keroh Overhead Bridge Restaurant NorthBound, 75450 Ayer Keroh, Melaka.\nTel: N\/A\nDaily: 7:00AM \u00e2\u0080\u0093 10:00PM","phone":"","hours":"Daily: 7:00AM \u00e2\u0080\u0093 10:00PM","google_maps":null,"waze":"https:\/\/www.waze.com\/en-GB\/livemap?zoom=17&lat=2.39846&lon=102.21991"},{"state":"Melaka","name":"Shell Batu Berendam","address":"","phone":"","hours":"Daily: 7:00AM \u00e2\u0080\u0093 10:00PM","google_maps":null,"waze":"https:\/\/www.waze.com\/en\/live-map\/directions\/shell-batu-berendam-jalan-datuk-seri-haji-mohd-zin-melaka?place=w.66977815.670105825.9884"},{"state":"Negeri Sembilan","name":"Petronas Pedas Linggi","address":"Petronas Service Station, KM 225, Pedas Linggi Layby, Plus Highway North Bound, Rembau, 71300\r\n       \t\t\t\t\t\t\tNegeri Sembilan.","phone":"018-762 0688","hours":"Daily: 8:00AM \u00e2\u0080\u0093 10:00PM","google_maps":null,"waze":"https:\/\/www.waze.com\/en-GB\/livemap?zoom=16&lat=2.60966&lon=102.10601"},{"state":"Negeri Sembilan","name":"Petronas RSA North","address":"Petronas Service Station, KM 272, Peti Surat 299, Lebuhraya Seremban-Kuala Lumpur, 70730 Seremban, Negeri Sembilan.","phone":"06-791 2445","hours":"Daily: 8:00AM \u00e2\u0080\u0093 10:00PM","google_maps":null,"waze":null},{"state":"Negeri Sembilan","name":"Petronas RSA South","address":"Petronas Service Station, KM 53.1, Peti Surat 48, Lebuhraya Kuala Lumpur-Seremban, 70730 Seremban, Negeri Sembilan.","phone":"06-791 3995","hours":"Daily: 8:00AM \u00e2\u0080\u0093 10:00PM","google_maps":null,"waze":null},{"state":"Negeri Sembilan","name":"Terminal 1 Seremban","address":"Terminal 1 Transport Centre, Jalan Sungai Ujong, 70200 Seremban, Negeri Sembilan.","phone":"06-763 3145","hours":"Sungai Ujong, 70200 Seremban, Negeri Sembilan.","google_maps":null,"waze":"https:\/\/www.waze.com\/en-GB\/livemap?zoom=17&lat=2.72192&lon=101.93699"},{"state":"Negeri Sembilan","name":"Shell Seremban RNR North","address":"Shell NSE Seremban Bound,\r\n\t\t\t\t\t\t\t\t\tKg Kering Labu, 71900, Labu\nTel:\nDaily: 8:00AM \u00e2\u0080\u0093 10:00PM","phone":"","hours":"Daily: 8:00AM \u00e2\u0080\u0093 10:00PM","google_maps":null,"waze":"https:\/\/www.waze.com\/en\/live-map\/directions?latlng=2.7572223856061253%2C101.84562206268312"},{"state":"Negeri Sembilan","name":"Plus Seremban RNR","address":"SBNSB-C08, Kawasan Rehat dan Rawat Seremban (Arah Selatan),\r\n\t\t\t\t\t\t\t\t\tKM 274.4, Lebuhraya Kuala Lumpur-Seremban, \r\n\t\t\t\t\t\t\t\t\t79000 Seremban, Negeri Sembilan\nTel:\nDaily: 8:00AM \u00e2\u0080\u0093 10:00PM","phone":"","hours":"Daily: 8:00AM \u00e2\u0080\u0093 10:00PM","google_maps":null,"waze":"https:\/\/www.waze.com\/en\/live-map\/directions?latlng=2.764402362383592%2C101.83016180992128"},{"state":"Pahang","name":"Petronas Bentong","address":"Petronas Service Station, Kawasan Rehat Bentong, Lot 8207, Mukim Bentong, Daerah Bentong, 28400 Bentong, Pahang Darul Makmur.","phone":"018-773 0688","hours":"Daily: 10:00AM \u00e2\u0080\u0093 10:00PM","google_maps":null,"waze":"https:\/\/www.waze.com\/en-GB\/livemap?zoom=17&lat=3.44333&lon=101.89399"},{"state":"Pahang","name":"Petronas Gambang East","address":"Petronas Service Station Gambang East, R&R Gambang (East Bound), Lebuhraya Pantai Timur, Mukim Hulu Lepar, Kuantan, 26300 Pahang.","phone":"016-375 7969","hours":"Daily: 7:00AM \u00e2\u0080\u0093 10:00PM","google_maps":null,"waze":"https:\/\/www.waze.com\/en-GB\/livemap?zoom=17&lat=3.72431&lon=102.9251"},{"state":"Pahang","name":"Petronas Gambang KM26","address":"Petronas Service Station, Lot 48212, KM 26 Jalan Gambang-Kuantan, 26300 Gambang, Pahang.","phone":"016-374 5969","hours":"Daily: 7:00AM - 10:00PM","google_maps":null,"waze":"https:\/\/www.waze.com\/en-GB\/livemap?zoom=17&lat=3.72415&lon=102.91808"},{"state":"Pahang","name":"Petronas Gambang West","address":"Petronas Service Station Gambang West, R&R Gambang (West Bound), Lebuhraya Pantai Timur, Mukim Hulu Lepar, Kuantan, 26300 Pahang.","phone":"016-341 6969","hours":"Daily: 7:00AM - 10:00PM","google_maps":null,"waze":"https:\/\/www.waze.com\/en-GB\/livemap?zoom=17&lat=3.72395&lon=102.91841"},{"state":"Pahang","name":"Petron Bandar Gambang Perdana","address":"","phone":"-","hours":"Daily: 7:00AM - 10:00PM","google_maps":null,"waze":"https:\/\/www.waze.com\/ul?ll=3.71209441%2C103.11952420&navigate=yes&zoom=17"},{"state":"Pahang","name":"East Coast Mall","address":"GF-K03, Ground Floor,","phone":"-","hours":"Daily: 10:00AM - 10:00PM","google_maps":null,"waze":"https:\/\/www.waze.com\/ul?ll=3.81824070%2C103.32626950&navigate=yes&zoom=16"},{"state":"Pahang","name":"BHP Bentong","address":"DD BHP Karak-KL (Bentong) BHPetrol Karak-KL Highway, Lot 26075 KM 60, Highway KL-Karak, 28700 Bentong, Pahang.","phone":"-","hours":"Daily: 9:00AM - 10:00PM","google_maps":null,"waze":"https:\/\/www.waze.com\/ul?ll=3.46621300%2C101.90271050&navigate=yes"},{"state":"Perak","name":"Plus Tapah North R&R","address":"Lot B1, Kawasan R&R Arah Utara, Lebuhraya Utara Selatan, Kawasan Tapah, 35000 Tapah, Perak.","phone":"05-401 8150","hours":"Daily: 8:00AM - 10:00PM","google_maps":null,"waze":"https:\/\/www.waze.com\/livemap?zoom=17&lat=4.17846&lon=101.28981"},{"state":"Perak","name":"Plus Tapah South R&R","address":"Lot C2, Kawasan R&R Arah Selatan, Lebuhraya Utara Selatan, Kawasan Tapah, 35000 Tapah, Perak.","phone":"05-401 8812","hours":"Daily: 8:00AM - 10:00PM","google_maps":null,"waze":"https:\/\/www.waze.com\/livemap?zoom=17&lat=4.18096&lon=101.28989"},{"state":"Perak","name":"BHP Ladang Bikam","address":"Kawasan Hentian Ladang Bikam, Arah U\/S (PLUS), Mukim Bidor, 35600 Sungkai, Perak Darul Ridzuan.","phone":"05-401 8812","hours":"Sungkai, Perak Darul Ridzuan.","google_maps":null,"waze":"https:\/\/www.waze.com\/en\/live-map\/directions\/my\/perak\/sungkai\/dunkin-bhp-ladang-bikam?place=ChIJzTBU93ILyzERAo0Rns7kt0M"},{"state":"Perak","name":"Petron Behrang South","address":"Petron Behrang Layby Southbound, \r\n\t\t\t\t\t\t\t\t\tKM382.6, North South Expressway, \r\n\t\t\t\t\t\t\t\t\t35950 Behrang Ulu, Perak\nTel:\nDaily: 7:00AM - 10:00PM","phone":"","hours":"Daily: 7:00AM - 10:00PM","google_maps":null,"waze":"https:\/\/www.waze.com\/en\/live-map\/directions\/petron-behrang-layby-sebelah-behrang-lebuhraya-utara-selatan-behrang-stesen?place=w.66453542.664863098.14425533"},{"state":"Penang","name":"Penang International Airport","address":"Lot L2AFB15, Domestic Departure \/ Arrival (Airside), Level 2,","phone":"04-643 9029","hours":"Daily: 7:00AM - 10:00PM","google_maps":null,"waze":"https:\/\/www.waze.com\/en-GB\/livemap?zoom=17&lat=5.29363&lon=100.27154"},{"state":"Penang","name":"Penang International Airport(Arrival)","address":"Lot L1LFB01, Level 1, Arrival Level, Penang International Airport, Pulau Pinang.","phone":"-","hours":"Daily: 7:00AM \u00e2\u0080\u0093 10:00PM","google_maps":null,"waze":"https:\/\/www.waze.com\/en-GB\/livemap?zoom=17&lat=5.29363&lon=100.27154"},{"state":"Sabah","name":"1Borneo Hypermall","address":"Unit No. G-302, Ground Floor, 1 Borneo Hypermall, Jalan Sulaman, 88400 Kota Kinabalu, Sabah.","phone":"012-622 1344","hours":"Daily: 10:00AM \u00e2\u0080\u0093 10:00PM","google_maps":null,"waze":"https:\/\/www.waze.com\/en-GB\/livemap?zoom=17&lat=6.03617&lon=116.12881"},{"state":"Sabah","name":"KKIA L2A-04 (Airside)","address":"PRO-L2A-04, Level 2, Domestic Departure\/Arrival, Airside, Kota Kinabalu International Airport, 88740 Kota Kinabalu Sabah.","phone":"088-413 212","hours":"Daily: 4:00AM \u00e2\u0080\u0093 12:00AM","google_maps":null,"waze":"https:\/\/www.waze.com\/en-GB\/livemap?zoom=17&lat=5.92333&lon=116.05099"},{"state":"Sabah","name":"KKIA L3L-01 (Landside)","address":"PRO-L3L-01, Level 3, Public Concourse, Kota Kinabalu International Airport, 88740 Kota Kinabalu Sabah.","phone":"018-972 0688","hours":"Daily: 8:00AM \u00e2\u0080\u0093 10:00PM","google_maps":null,"waze":"https:\/\/www.waze.com\/en-GB\/livemap?zoom=17&lat=5.92333&lon=116.05099"},{"state":"Sabah","name":"Petronas Menggatal North KM16","address":"Petronas Service Station, Lot 551, CL 015495431, Menggatal North New Township, Jalan Tuaran, 88300 Kota Kinabalu, Sabah.","phone":"012-622 1348","hours":"Daily: 7:30AM \u00e2\u0080\u0093 9:30PM","google_maps":null,"waze":"https:\/\/www.waze.com\/en-GB\/livemap?zoom=17&lat=6.02143&lon=116.15153"},{"state":"Sabah","name":"Petronas Lintas","address":"Petronas Service Station, Lot NT 4190, Jalan Lintas, Bypass Lido Kepayan, 883300 Kota Kinabalu, Sabah.","phone":"012-622 1346","hours":"Daily: 7:00AM \u00e2\u0080\u0093 9:30PM","google_maps":null,"waze":"https:\/\/www.waze.com\/en-GB\/livemap?zoom=17&lat=5.92331&lon=116.06352"},{"state":"Sabah","name":"KKIA L2A-06 (Airside)","address":"Lot L2A06, Level 2, Arrival & Departure Airside, New Terminal Building, Terminal 1, Kota Kinabalu International Airport (KKIA), 88740 Kota Kinabalu, Sabah.","phone":"-","hours":"Daily: 4:00AM \u00e2\u0080\u0093 12:00AM","google_maps":null,"waze":"https:\/\/www.waze.com\/ul?ll=5.92437390%2C116.05036240&navigate=yes"},{"state":"Sabah","name":"Suria Sabah","address":"Kiosk LG-J9, Lower Ground Floor,","phone":"012-622 1763","hours":"Daily: 10:00AM \u00e2\u0080\u0093 10:00PM","google_maps":null,"waze":"https:\/\/www.waze.com\/ul?ll=5.98692070%2C116.07728560&navigate=yes"},{"state":"Sabah","name":"KKIA L1-L09 (Landside)","address":"Lot L1-L09 Kota Kinabalu International Airport (KKIA) Kerbside, 88100 Sabah","phone":"010-2592097","hours":"Daily: 6am - 12am","google_maps":null,"waze":"https:\/\/www.waze.com\/en\/live-map\/directions\/my\/sabah\/kota-kinabalu\/dunkin-donuts-kkia?place=ChIJK0WR-hhoOzIRvt8ZpbNif0E"},{"state":"Selangor","name":"Petronas NKVE","address":"Petronas Service Station, Lot No.15385, New Klang Valley Expressway (NKVE), Mukim Sungai Buloh, Daerah Petaling, Selangor.","phone":"-","hours":"Sungai Buloh, Daerah Petaling, Selangor.","google_maps":null,"waze":"https:\/\/www.waze.com\/ul?ll=3.11923830%2C101.59287170&navigate=yes"},{"state":"Selangor","name":"Ampang Point","address":"Lot G09, Ground Floor,","phone":"012-425 0151","hours":"Daily: 10:00AM \u00e2\u0080\u0093 10:00PM","google_maps":null,"waze":"https:\/\/www.waze.com\/en-GB\/livemap?zoom=17&lat=3.15797&lon=101.75113"},{"state":"Selangor","name":"LRT Taman Jaya","address":"K5, Concourse Level,Kelana Jaya Line,PJS 52, 46200 Petaling Jaya, Selangor.","phone":"-","hours":null,"google_maps":null,"waze":null},{"state":"Selangor","name":"BHP Sungai Buloh","address":"BHP OBR Sg. Buloh R&R South-bound, Mukim Sg. Buloh, 47810 Petaling Jaya, Selangor.\nTel: N\/A\nDaily: 9:00AM \u00e2\u0080\u0093 9:00PM","phone":"","hours":"Sungai Buloh","google_maps":null,"waze":null},{"state":"Selangor","name":"Giant Batu Caves","address":"Lot No. A4 Lot 10243, Giant Hypermarket Batu Caves, Bandar Selayang, 68100 Batu Caves, Selangor.","phone":"03-6178 4268","hours":"Daily: 9:30AM \u00e2\u0080\u0093 10:00PM","google_maps":null,"waze":"https:\/\/www.waze.com\/en-GB\/livemap?zoom=17&lat=3.23513&lon=101.69438"},{"state":"Selangor","name":"Central I-City","address":"LG-K19, Central i-City, No.1, i-city, Persiaran Multimedia, Seksyen 7, 40000 Shah Alam, Selangor.","phone":"-","hours":"Daily: 10.00AM - 10.00PM","google_maps":null,"waze":"https:\/\/www.waze.com\/ul?ll=3.06224280%2C101.48172920&navigate=yes"},{"state":"Selangor","name":"IOI City Mall","address":"LG-K13, Lower Ground Floor,","phone":"018-374 0688","hours":"Daily: 10:00AM \u00e2\u0080\u0093 10:00PM","google_maps":null,"waze":"https:\/\/www.waze.com\/en-GB\/livemap?zoom=17&lat=2.97059&lon=101.71335"},{"state":"Selangor","name":"KLIA L5","address":"Lot No. 6, Domestic Departure, Level 5, KLIA, 64000 Sepang, Selangor\nTel: N\/A\nDaily: 24 Hours","phone":"","hours":"Daily: 24 Hours","google_maps":null,"waze":"https:\/\/www.waze.com\/en-GB\/livemap?zoom=17&lat=2.74816&lon=101.71358"},{"state":"Selangor","name":"KLIA CP 4","address":"Lot CP4, Contact Pier International, KL International Airport, 64000 Sepang, Selangor.","phone":"018-236 0688","hours":"Daily: 24 Hours","google_maps":null,"waze":"https:\/\/www.waze.com\/ul?ll=2.75569000%2C101.70467000&navigate=yes"},{"state":"Selangor","name":"KLIA2 S1","address":"S1-1A-A15, Domestic Departure and Arrival Level (Airside), KLIA2, 64000 Sepang, Selangor.","phone":"03-8778 5751","hours":"Daily: 7:00AM \u00e2\u0080\u0093 10:00PM","google_maps":null,"waze":"https:\/\/www.waze.com\/en-GB\/livemap?zoom=17&lat=2.74331&lon=101.68645"},{"state":"Selangor","name":"KLIA CPD3","address":"CPD-3-A05, Contact Pier Domestic, KLIA, Kuala Lumpur International Airport, 64000 Sepang, Selangor.","phone":"03-8778 7692","hours":"Daily: 24 Hours","google_maps":null,"waze":"https:\/\/www.waze.com\/ul?ll=2.75569000%2C101.70467000&navigate=yes"},{"state":"Selangor","name":"Metro Point Kajang","address":"GL-7, Ground Floor, Metro Point Complex, Jalan Jelok 8, 43000 Kajang, Selangor.","phone":"03-8741 5964","hours":"Daily: 10:00AM \u00e2\u0080\u0093 10:00PM","google_maps":null,"waze":"https:\/\/www.waze.com\/en-GB\/livemap?zoom=17&lat=2.9918&lon=101.79363"},{"state":"Selangor","name":"MEX Highway North R&R","address":"Lot 9, 10 & Part Store-Front Area, R&R Seri Kembangan North Bound, Maju Expressway, 43400 Seri Kembangan, Selangor.\nTel: N\/A\nDaily: 9:00AM \u00e2\u0080\u0093 9:00PM","phone":"","hours":"Daily: 9:00AM \u00e2\u0080\u0093 9:00PM","google_maps":null,"waze":"https:\/\/www.waze.com\/en-GB\/livemap?zoom=17&lat=2.98817&lon=101.68232"},{"state":"Selangor","name":"MEX Highway South R&R","address":"Lot 1, 2 & Part Store-Front Area, R&R Seri Kembangan South Bound, Maju Expressway, 43400 Seri Kembangan, Selangor.\nTel: N\/A\nDaily: 9:00AM \u00e2\u0080\u0093 9:00PM","phone":"","hours":"Daily: 9:00AM \u00e2\u0080\u0093 9:00PM","google_maps":null,"waze":"https:\/\/www.waze.com\/en-GB\/livemap?zoom=17&lat=2.989&lon=101.68427"},{"state":"Selangor","name":"Mydin USJ","address":"Lot No. G-30, Mydin Mall USJ, Persiaran Subang Permai, USJ 1, 47500 Subang Jaya, Selangor.","phone":"03-5650 4767","hours":"Daily: 10:00AM \u00e2\u0080\u0093 10:00PM","google_maps":null,"waze":"https:\/\/www.waze.com\/en-GB\/livemap?zoom=17&lat=3.05918&lon=101.59654"},{"state":"Selangor","name":"Petron Kesas East","address":"","phone":"","hours":"Daily: 9:00AM \u00e2\u0080\u0093 9:00PM","google_maps":null,"waze":"https:\/\/www.waze.com\/en-GB\/livemap?zoom=17&lat=3.04957&lon=101.56194"},{"state":"Selangor","name":"Petron Kesas West","address":"","phone":"","hours":"Daily: 9:00AM \u00e2\u0080\u0093 9:00PM","google_maps":null,"waze":"https:\/\/www.waze.com\/en-GB\/livemap?zoom=17&lat=3.0496&lon=101.56296"},{"state":"Selangor","name":"Petronas Karak","address":"Petronas Service Station, Lot No. PT6075 HS(M) 2384, Mukim Setapak, Daerah Gombak, 68100 Selangor.","phone":"018-234 0688","hours":"Daily: 8:00AM \u00e2\u0080\u0093 10:00PM","google_maps":null,"waze":"https:\/\/www.waze.com\/en-GB\/livemap?zoom=17&lat=3.24145&lon=101.71673"},{"state":"Selangor","name":"Petronas KLIA 1","address":"Petronas Service Station, Lot 3906, KLIA 1, Jalan Terminal Lapangan Terbang Antarabangsa Sepang, Sepang 64000 Selangor.","phone":"012-622 1942","hours":"Daily: 7:00AM \u00e2\u0080\u0093 10:00PM","google_maps":null,"waze":"https:\/\/www.waze.com\/en-GB\/livemap?zoom=17&lat=2.76502&lon=101.68295"},{"state":"Selangor","name":"Petronas KLIA 2","address":"Petronas Service Station, KLIA 2, Jalan Terminal Lapangan Terbang Antarabangsa, Sepang 43900 Selangor.","phone":"03-8787 1213","hours":"Daily: 7:00AM \u00e2\u0080\u0093 10:00PM","google_maps":null,"waze":"https:\/\/www.waze.com\/en-GB\/livemap?zoom=17&lat=2.76574&lon=101.68453"},{"state":"Selangor","name":"Gateway@KLIA2","address":"Lot No. L2-27A & 28,","phone":"-","hours":"Daily: 8:00AM \u00e2\u0080\u0093 10:00PM","google_maps":null,"waze":"https:\/\/www.waze.com\/ul?ll=2.74414730%2C101.68551320&navigate=yes&zoom=16"},{"state":"Selangor","name":"Setia City Mall","address":"LG-K-103,","phone":"03-7887 4015","hours":"Daily: 10:00AM \u00e2\u0080\u0093 10:00PM","google_maps":null,"waze":"https:\/\/www.waze.com\/en\/live-map\/directions\/my\/selangor\/shah-alam\/setia-city-mall?place=ChIJU_KM2n9SzDERdHKiiYBVsyM"},{"state":"Selangor","name":"Petronas Shah Alam","address":"Petronas Service Station, No. 2, Jalan Akuatik A 13\/64A, Seksyen 13, 40100 Shah Alam, Selangor.","phone":"03-5510 7416","hours":"Daily: 8:00AM \u00e2\u0080\u0093 10:30PM","google_maps":null,"waze":"https:\/\/www.waze.com\/en-GB\/livemap?zoom=17&lat=3.07867&lon=101.5469"},{"state":"Selangor","name":"Petronas Ulu Bernam","address":"Petronas Service Station, Kawasan Rehat Ulu Bernam, KM 124, Plus Highway, 35900 Mukim Ulu Bernam, Selangor.","phone":"05-458 3451","hours":"Daily: 9:00AM \u00e2\u0080\u0093 10:00PM","google_maps":null,"waze":"https:\/\/www.waze.com\/en-GB\/livemap?zoom=17&lat=3.66344&lon=101.52028"},{"state":"Selangor","name":"Plus OBR Sungai Buloh","address":"No. S-01-NB, S-03-NB & S-05-NB, Restoran Jejantas Sungai Buloh,\t47000 Petaling Jaya, Selangor.","phone":"03-6157 1526","hours":"Sungai Buloh","google_maps":null,"waze":"https:\/\/www.waze.com\/en-GB\/livemap?zoom=17&lat=3.07867&lon=101.5469"},{"state":"Selangor","name":"Shell Sungai Besi","address":"Stesen Shell Sg. Besi Tol Plaza, Lebuhraya Kuala Lumpur-Seremban, 43300 Selangor.","phone":"03-8938 2190","hours":"Sungai Besi","google_maps":null,"waze":"https:\/\/www.waze.com\/en-GB\/livemap?zoom=17&lat=3.01982&lon=101.71263"},{"state":"Selangor","name":"Sunway Pyramid","address":"Lot 112.32","phone":"03-7491 7295","hours":"Sunway Pyramid","google_maps":null,"waze":"https:\/\/www.waze.com\/en-GB\/livemap?zoom=17&lat=3.07236&lon=101.60688"},{"state":"Selangor","name":"Tesco Setia Alam","address":"Lot G11, No. 2, Jalan Setia Prima SU13\/S, Setia Alam, Seksyen U13, 40170 Shah Alam, Selangor.","phone":"03-6734 0391","hours":"Daily: 10:00AM \u00e2\u0080\u0093 10:00PM","google_maps":null,"waze":"https:\/\/www.waze.com\/en-GB\/livemap?zoom=17&lat=3.10756&lon=101.44445"},{"state":"Selangor","name":"Tropicana Gardens Mall","address":"Lot CC-K46 & K47, Concourse Floor,","phone":"-","hours":"Daily: 10.00AM - 10.00PM","google_maps":null,"waze":"https:\/\/www.waze.com\/ul?place=ChIJETN83OBOzDERqrPV1dnbBj0&ll=3.14838060%2C101.59379860&navigate=yes"},{"state":"Selangor","name":"RnR Rawang (N)","address":"RWGNB-OL3 and RWGNB-OL4, Kawasan Rehat dan Rawat Rawang (Arah Utara), KM440.0 Lebuhraya Tanjung Malim - Sg Buloh, 48000 Rawang, Selangor.\nTel:\nDaily: 9:00AM - 10:00PM","phone":"","hours":"Daily: 9:00AM - 10:00PM","google_maps":null,"waze":"https:\/\/www.waze.com\/livemap?lat=3.3295795&lng=101.5582227&zoom=16"},{"state":"Selangor","name":"Mitsui Outlet Park KLIA","address":"Lot G47a,","phone":"","hours":"Daily: 10:00AM \u00e2\u0080\u0093 10:00PM","google_maps":null,"waze":"https:\/\/www.waze.com\/ul?ll=2.78036160%2C101.67743850&navigate=yes&zoom=16"},{"state":"Selangor","name":"Empire Shopping Gallery","address":"LK-02A, Lower Ground Level,","phone":"012-4624 256","hours":"Daily: 10:00AM - 10:00PM","google_maps":null,"waze":null},{"state":"Selangor","name":"1 Utama Shopping Centre","address":"Lot LGK2A, Lower Ground Floor,","phone":"03-7724 2216","hours":"Daily: 10:00AM - 10:00PM","google_maps":null,"waze":"https:\/\/www.waze.com\/en\/live-map\/directions\/my\/selangor\/pj\/1-utama-shopping-centre?place=ChIJPwfb0tROzDERW0BOxXoWskI"},{"state":"Selangor","name":"FoodGarden @ KLIA","address":"Lot FG13, Level 2, Food Garden, Main Terminal Building,\r\n\t\t\t\t\t\t\t\t\tKL International Airport,\r\n\t\t\t\t\t\t\t\t\t64000 Sepang, Selangor","phone":"010-2216159","hours":"Daily: 07:00AM - 10:00PM","google_maps":null,"waze":"https:\/\/www.waze.com\/en\/live-map\/directions\/my\/selangor\/sepang\/food-garden-klia?place=ChIJMysSMoe_zTERumb9TIXJGbE"},{"state":"Selangor","name":"Shell Damansara Damai","address":"","phone":"","hours":"Daily: 8:00AM - 10:00PM","google_maps":null,"waze":"https:\/\/www.waze.com\/en\/live-map\/directions\/shell-damansara-damai-petaling-jaya?place=w.66584608.665780544.164783"},{"state":"Selangor","name":"Petronas Jalan Plumbum","address":"","phone":"","hours":"Daily: 8:00AM - 10:00PM","google_maps":null,"waze":"https:\/\/www.waze.com\/en\/live-map\/directions\/petronas-jalan-plumbum-seksyen-7-persiaran-kayangan-1-shah-alam?place=w.66519071.665125171.178976"},{"state":"Selangor","name":"Shell Kelana Jaya","address":"Shell LDP, Kelana Jaya, \r\n\t\t\t\t\t\t\t\t\tSS7 Lebuhraya Damansara Puchong, \r\n\t\t\t\t\t\t\t\t\tPetaling Jaya, 47301 Selangor\nTel:\nDaily: 8:00AM - 10:00PM","phone":"","hours":"Daily: 8:00AM - 10:00PM","google_maps":null,"waze":"https:\/\/www.waze.com\/en\/live-map\/directions\/shell-ldp-kelana-jaya-petaling-jaya?place=w.66584607.665846070.68482"},{"state":"Selangor","name":"Shell Cyberjaya","address":"Shell Cyberjad Enterprise, \r\n\t\t\t\t\t\t\t\t\tMukim Dengkil, Cyberjaya, \r\n\t\t\t\t\t\t\t\t\t43800 Selangor\nTel:\nDaily: 8:00AM - 10:00PM","phone":"","hours":"Daily: 8:00AM - 10:00PM","google_maps":null,"waze":"https:\/\/www.waze.com\/en\/live-map\/directions\/shell-cyberjaya-lingkaran-cyber-point-timur?place=w.66650141.666173732.12728522"},{"state":"Selangor","name":"MRT Putrajaya Central","address":"Lot K2041-2, \r\n\t\t\t\t\t\t\t\t\tPutrajaya Sentral MRT Station, \r\n\t\t\t\t\t\t\t\t\tJalan P7A, Presint 7,62000 Putrajaya\nTel:\nDaily: 8:00AM - 10:00PM","phone":"","hours":"Daily: 8:00AM - 10:00PM","google_maps":null,"waze":"https:\/\/www.waze.com\/en\/live-map\/directions\/putrajaya-sentral-jalan-p7-b?place=w.66650141.666304805.5914685"},{"state":"Selangor","name":"IPC Shopping Centre","address":"Lot LG1.05, Lower Ground,","phone":"","hours":"Daily: 10:00AM - 10:00PM","google_maps":null,"waze":"https:\/\/www.waze.com\/en\/live-map\/directions\/ipc-shopping-centre-jalan-pju-72-2-petaling-jaya?place=w.66584608.665911612.306002"},{"state":"Selangor","name":"Petronas Subang Airport","address":"Petronas Subang, (Unit 2) Lot 1210, \r\n\t\t\t\t\t\t\t\t\tJalan Lapangan Terbang Subang, Seksyen U3, \r\n\t\t\t\t\t\t\t\t\t40150 Shah Alam, Selangor.\nTel:\nDaily: 8:00AM - 10:00PM","phone":"","hours":"Daily: 8:00AM - 10:00PM","google_maps":null,"waze":"https:\/\/www.waze.com\/en\/live-map\/directions\/petronas-subang-jalan-lapangan-terbang-subang-1210-shah-alam?place=w.66584607.665649464.272961"}]