[
  {
    "name": "KFC PONTIAN ",
    "address": "Ground Floor No 668 Jalan Taib 82000 Pontian Johor",
    "city": "",
    "state": "Johor",
    "postcode": "",
    "country": "MY",
    "lat": "1.48540400",
    "lng": "103.39083300",
    "phone": "076870569",
    "dinein": "1",
    "drivethru": "0",
    "delivery_open": "10:00:00",
    "delivery_close": "23:00:00",
    "legacy_store_id": "114",
    "locationId": "2",
    "brand": "KFC"
  },
  {
    "name": "KFC KUANTAN 2 - JLN PASAR BARU",
    "address": "19, Jalan Pasar Baru Kuantan 25000 Pahang",
    "city": "",
    "state": "Pahang",
    "postcode": "",
    "country": "MY",
    "lat": "3.81089100",
    "lng": "103.32267300",
    "phone": "095163968",
    "dinein": "1",
    "drivethru": "0",
    "delivery_open": "12:00:00",
    "delivery_close": "23:59:00",
    "legacy_store_id": "61",
    "locationId": "3",
    "brand": "KFC"
  },
  {
    "name": "KFC CHERAS - TAMAN PERTAMA",
    "address": "No. 9, JLN 2/90, Taman Pertama Cheras 56000 Kuala Lumpur",
    "city": "",
    "state": "Kuala Lumpur",
    "postcode": "",
    "country": "MY",
    "lat": "3.11139200",
    "lng": "101.73000000",
    "phone": "0392013725",
    "dinein": "1",
    "drivethru": "0",
    "delivery_open": "10:00:00",
    "delivery_close": "23:00:00",
    "legacy_store_id": "5",
    "locationId": "4",
    "brand": "KFC"
  },
  {
    "name": "KFC COCKMAN",
    "address": "65 Jalan Dato' Onn Jaafar, 30700 Ipoh Perak",
    "city": "",
    "state": "Perak",
    "postcode": "",
    "country": "MY",
    "lat": "4.59844700",
    "lng": "101.08382900",
    "phone": "052428396",
    "dinein": "1",
    "drivethru": "0",
    "delivery_open": "08:00:00",
    "delivery_close": "02:00:00",
    "legacy_store_id": "50",
    "locationId": "5",
    "brand": "KFC"
  },
  {
    "name": "KFC SEREMBAN",
    "address": "No 20 & 21, Jalan Tuan Sheikh Seremban 70000 Negeri Sembilan",
    "city": "",
    "state": "Negeri Sembilan",
    "postcode": "",
    "country": "MY",
    "lat": "2.72451800",
    "lng": "101.94015600",
    "phone": "06067621375",
    "dinein": "1",
    "drivethru": "0",
    "delivery_open": "11:00:00",
    "delivery_close": "05:00:00",
    "legacy_store_id": "36",
    "locationId": "6",
    "brand": "KFC"
  },
  {
    "name": "KFC KAJANG",
    "address": "No 18 & 20, Jalan Sulaiman Kajang 43000 Selangor",
    "city": "",
    "state": "Selangor",
    "postcode": "",
    "country": "MY",
    "lat": "2.99173700",
    "lng": "101.78878000",
    "phone": "0387340608",
    "dinein": "1",
    "drivethru": "0",
    "delivery_open": "10:00:00",
    "delivery_close": "23:00:00",
    "legacy_store_id": "23",
    "locationId": "7",
    "brand": "KFC"
  },
  {
    "name": "KFC KLUANG 1",
    "address": "No 15 Jalan Dato Haji Hassan Yunos 86000 Kluang Johor",
    "city": "",
    "state": "Johor",
    "postcode": "",
    "country": "MY",
    "lat": "2.03246500",
    "lng": "103.32075300",
    "phone": "077743350",
    "dinein": "1",
    "drivethru": "0",
    "delivery_open": "11:00:00",
    "delivery_close": "23:00:00",
    "legacy_store_id": "41",
    "locationId": "8",
    "brand": "KFC"
  },
  {
    "name": "KFC SG DUA",
    "address": "No 559, Jalan Sungai Dua Sri Saujana 11700 Penang",
    "city": "",
    "state": "Penang",
    "postcode": "",
    "country": "MY",
    "lat": "5.35238300",
    "lng": "100.30143000",
    "phone": "046530172",
    "dinein": "1",
    "drivethru": "0",
    "delivery_open": "10:00:00",
    "delivery_close": "23:00:00",
    "legacy_store_id": "45",
    "locationId": "9",
    "brand": "KFC"
  },
  {
    "name": "KFC SERI KEMBANGAN",
    "address": "Lot No. 19-1 & 19-2, Jalan SP1/2, Taman Serdang Perdana, Seksyen 2, 43300 Seri Kembangan",
    "city": "",
    "state": "Selangor",
    "postcode": "",
    "country": "MY",
    "lat": "3.03057400",
    "lng": "101.70904200",
    "phone": "0389584220",
    "dinein": "1",
    "drivethru": "0",
    "delivery_open": "08:00:00",
    "delivery_close": "23:00:00",
    "legacy_store_id": "31",
    "locationId": "10",
    "brand": "KFC"
  },
  {
    "name": "KFC SEA PARK",
    "address": "No. 2, Jalan 21/19 Sea Park Petaling Jaya 46300 Selangor",
    "city": "",
    "state": "Selangor",
    "postcode": "",
    "country": "MY",
    "lat": "3.10899900",
    "lng": "101.62279500",
    "phone": "0378655860",
    "dinein": "1",
    "drivethru": "0",
    "delivery_open": "10:00:00",
    "delivery_close": "23:00:00",
    "legacy_store_id": "8",
    "locationId": "11",
    "brand": "KFC"
  },
  {
    "name": "KFC TAMAN MELAWATI KL",
    "address": "Ground & 1st Floor, No 241, Jalan Bandar 13,Taman Melawati 53100 KL",
    "city": "",
    "state": "Kuala Lumpur",
    "postcode": "",
    "country": "MY",
    "lat": "3.20952500",
    "lng": "101.74914400",
    "phone": "0341058613",
    "dinein": "1",
    "drivethru": "0",
    "delivery_open": "10:00:00",
    "delivery_close": "23:00:00",
    "legacy_store_id": "13",
    "locationId": "12",
    "brand": "KFC"
  },
  {
    "name": "KFC PUCHONG",
    "address": "No 14433, 7-1/2 miles, Jalan Puchong 47100 Puchong",
    "city": "",
    "state": "Selangor",
    "postcode": "",
    "country": "MY",
    "lat": "3.06173200",
    "lng": "101.64592900",
    "phone": "0380827443",
    "dinein": "1",
    "drivethru": "0",
    "delivery_open": "10:00:00",
    "delivery_close": "22:00:00",
    "legacy_store_id": "30",
    "locationId": "13",
    "brand": "KFC"
  },
  {
    "name": "KFC BAYAN BARU",
    "address": "No. 34G, Jalan Mahsuri, Bandar Baru Bayan, 11950 Bayan Baru Penang ",
    "city": "",
    "state": "Penang",
    "postcode": "",
    "country": "MY",
    "lat": "5.32661300",
    "lng": "100.28677900",
    "phone": "046456575",
    "dinein": "1",
    "drivethru": "0",
    "delivery_open": "08:00:00",
    "delivery_close": "02:00:00",
    "legacy_store_id": "48",
    "locationId": "14",
    "brand": "KFC"
  },
  {
    "name": "KFC JOHOR JAYA",
    "address": "No 96, Jln Dedap 4 Taman Johor Jaya 81100 Johor Bahru",
    "city": "",
    "state": "Johor",
    "postcode": "",
    "country": "MY",
    "lat": "1.54237500",
    "lng": "103.80291500",
    "phone": "073562785",
    "dinein": "1",
    "drivethru": "0",
    "delivery_open": "11:00:00",
    "delivery_close": "22:00:00",
    "legacy_store_id": "81",
    "locationId": "15",
    "brand": "KFC"
  },
  {
    "name": "KFC KELANA JAYA",
    "address": "Ground Floor, No.16, Jalan SS 6/3, Kelana Jaya, Petaling Jaya, 47301 Selangor",
    "city": "",
    "state": "Selangor",
    "postcode": "",
    "country": "MY",
    "lat": "3.10495500",
    "lng": "101.60022400",
    "phone": "0378866826",
    "dinein": "1",
    "drivethru": "0",
    "delivery_open": "10:00:00",
    "delivery_close": "23:00:00",
    "legacy_store_id": "7",
    "locationId": "16",
    "brand": "KFC"
  },
  {
    "name": "KFC DESA JAYA",
    "address": "NO 23 & 24,JALAN 54, DESA JAYA, KEPONG 52100 KL",
    "city": "",
    "state": "Selangor",
    "postcode": "",
    "country": "MY",
    "lat": "3.21306100",
    "lng": "101.63194500",
    "phone": "0362635683",
    "dinein": "1",
    "drivethru": "0",
    "delivery_open": "10:00:00",
    "delivery_close": "23:00:00",
    "legacy_store_id": "6",
    "locationId": "17",
    "brand": "KFC"
  },
  {
    "name": "KFC KULIM",
    "address": "Lot 88, Jalan Teo Moh Soo, Kulim 09000 Kedah",
    "city": "",
    "state": "Kedah",
    "postcode": "",
    "country": "MY",
    "lat": "5.37213000",
    "lng": "100.55438800",
    "phone": "01163022885",
    "dinein": "1",
    "drivethru": "0",
    "delivery_open": "10:00:00",
    "delivery_close": "23:00:00",
    "legacy_store_id": "66",
    "locationId": "18",
    "brand": "KFC"
  },
  {
    "name": "KFC BANDAR BARU FARLIM",
    "address": "16D Lebuhraya Thean Tek Farlim Business Centre, 11060 Bandar Baru Farlim, Penang",
    "city": "",
    "state": "Penang",
    "postcode": "",
    "country": "MY",
    "lat": "5.39122200",
    "lng": "100.28307800",
    "phone": "048350947",
    "dinein": "1",
    "drivethru": "0",
    "delivery_open": "00:00:00",
    "delivery_close": "24:00:00",
    "legacy_store_id": "52",
    "locationId": "19",
    "brand": "KFC"
  },
  {
    "name": "KFC SG. BESI",
    "address": "No 44 Jalan 7/108C Taman Sg Besi off Jalan Sg Besi 57100 Kuala Lumpur",
    "city": "",
    "state": "Kuala Lumpur",
    "postcode": "",
    "country": "MY",
    "lat": "3.09403700",
    "lng": "101.70136000",
    "phone": "0379844961",
    "dinein": "1",
    "drivethru": "0",
    "delivery_open": "10:00:00",
    "delivery_close": "22:00:00",
    "legacy_store_id": "108",
    "locationId": "20",
    "brand": "KFC"
  },
  {
    "name": "KFC SETIAWANGSA",
    "address": "No. 34G, Jalan 10/55A, Taman Setiawangsa 54200 KL",
    "city": "",
    "state": "Kuala Lumpur",
    "postcode": "",
    "country": "MY",
    "lat": "3.17780500",
    "lng": "101.74273200",
    "phone": "0342653532",
    "dinein": "1",
    "drivethru": "0",
    "delivery_open": "10:00:00",
    "delivery_close": "23:59:00",
    "legacy_store_id": "3",
    "locationId": "21",
    "brand": "KFC"
  },
  {
    "name": "KFC ALAM MEGAH - SHAH ALAM 3",
    "address": "No. 28 Jalan Batu Laut, Section 28, 40990 Shah Alam, Selangor",
    "city": "",
    "state": "Selangor",
    "postcode": "",
    "country": "MY",
    "lat": "3.00647100",
    "lng": "101.56813700",
    "phone": "0351039574",
    "dinein": "1",
    "drivethru": "0",
    "delivery_open": "10:00:00",
    "delivery_close": "22:00:00",
    "legacy_store_id": "25",
    "locationId": "22",
    "brand": "KFC"
  },
  {
    "name": "KFC PANDAMARAN",
    "address": "No. 9, Jalan Batu Unjur, Pandamaran, Port Klang 42000 Selangor",
    "city": "",
    "state": "Selangor",
    "postcode": "",
    "country": "MY",
    "lat": "3.01600000",
    "lng": "101.42495900",
    "phone": "0333230276",
    "dinein": "1",
    "drivethru": "0",
    "delivery_open": "10:00:00",
    "delivery_close": "23:00:00",
    "legacy_store_id": "17",
    "locationId": "23",
    "brand": "KFC"
  },
  {
    "name": "KFC USJ TAIPAN",
    "address": "No. 71 Jalan USJ 10/ 1A, Subang Jaya, Petaling Jaya 47100 Selangor",
    "city": "",
    "state": "Selangor",
    "postcode": "",
    "country": "MY",
    "lat": "3.05016600",
    "lng": "101.58376600",
    "phone": "0380116659",
    "dinein": "1",
    "drivethru": "0",
    "delivery_open": "08:00:00",
    "delivery_close": "23:00:00",
    "legacy_store_id": "4",
    "locationId": "24",
    "brand": "KFC"
  },
  {
    "name": "KFC RASAH JAYA",
    "address": "No 3825, Jalan RJ 6/8, Rasah Jaya, 70300 Seremban",
    "city": "",
    "state": "Negeri Sembilan",
    "postcode": "",
    "country": "MY",
    "lat": "2.68320900",
    "lng": "101.94251800",
    "phone": "066303595",
    "dinein": "1",
    "drivethru": "0",
    "delivery_open": "10:00:00",
    "delivery_close": "23:00:00",
    "legacy_store_id": "96",
    "locationId": "25",
    "brand": "KFC"
  },
  {
    "name": "KFC AMPANG 2 - JLN WAWASAN",
    "address": "52G -54G Jalan Wawasan 2/3 Bandar Baru Ampang, Kuala Lumpur",
    "city": "",
    "state": "Kuala Lumpur",
    "postcode": "",
    "country": "MY",
    "lat": "3.14599100",
    "lng": "101.76692400",
    "phone": "0342884371",
    "dinein": "1",
    "drivethru": "0",
    "delivery_open": "10:00:00",
    "delivery_close": "23:59:00",
    "legacy_store_id": "9",
    "locationId": "26",
    "brand": "KFC"
  },
  {
    "name": "KFC SRI GOMBAK",
    "address": "No. 7, Ground Floor, Jalan SG 1/6, Taman Industrial Bolton, Batu Caves 68100 Selangor",
    "city": "",
    "state": "Kuala Lumpur",
    "postcode": "",
    "country": "MY",
    "lat": "3.23772500",
    "lng": "101.69751400",
    "phone": "0361771848",
    "dinein": "1",
    "drivethru": "0",
    "delivery_open": "10:00:00",
    "delivery_close": "23:00:00",
    "legacy_store_id": "15",
    "locationId": "27",
    "brand": "KFC"
  },
  {
    "name": "KFC MERU",
    "address": "No. 186, Jalan Meru, Klang 41050 Selangor",
    "city": "",
    "state": "Selangor",
    "postcode": "",
    "country": "MY",
    "lat": "3.06506000",
    "lng": "101.45193500",
    "phone": "0333456764",
    "dinein": "1",
    "drivethru": "0",
    "delivery_open": "10:00:00",
    "delivery_close": "23:00:00",
    "legacy_store_id": "97",
    "locationId": "28",
    "brand": "KFC"
  },
  {
    "name": "KFC MIDLANDS",
    "address": "Lot 488B-G-45, Midlands Park Centre, Jalan Burma, 10350 Pulau Pinang",
    "city": "",
    "state": "Penang",
    "postcode": "",
    "country": "MY",
    "lat": "5.43324000",
    "lng": "100.30645500",
    "phone": "042170709",
    "dinein": "1",
    "drivethru": "0",
    "delivery_open": "10:30:00",
    "delivery_close": "23:00:00",
    "legacy_store_id": "46",
    "locationId": "29",
    "brand": "KFC"
  },
  {
    "name": "KFC SG. BULOH 2",
    "address": "Lot 2394, Jalan 1A/3, Bandar Baru Sg Buloh 47000 Selangor",
    "city": "",
    "state": "Kuala Lumpur",
    "postcode": "",
    "country": "MY",
    "lat": "3.21148000",
    "lng": "101.56457300",
    "phone": "0361511071",
    "dinein": "1",
    "drivethru": "0",
    "delivery_open": "8:00:00",
    "delivery_close": "2:00:00",
    "legacy_store_id": "74",
    "locationId": "30",
    "brand": "KFC"
  },
  {
    "name": "KFC INDERAWASIH",
    "address": "Ground & First Floor No.12, Medan Kikik Satu Taman Inderawasih 13600 Prai, Penang",
    "city": "",
    "state": "Penang",
    "postcode": "",
    "country": "MY",
    "lat": "5.38733200",
    "lng": "100.38617900",
    "phone": "043988834",
    "dinein": "1",
    "drivethru": "0",
    "delivery_open": "10:00:00",
    "delivery_close": "22:00:00",
    "legacy_store_id": "65",
    "locationId": "31",
    "brand": "KFC"
  },
  {
    "name": "KFC SENAWANG",
    "address": "No.24 & 26, Jln Bunga Raya 7, Pusat Perniagaan Senawang, Tmn Tasek Jaya Senawang 30400 Negeri Sembilan.",
    "city": "",
    "state": "Negeri Sembilan",
    "postcode": "",
    "country": "MY",
    "lat": "2.72024700",
    "lng": "102.00158200",
    "phone": "066789513",
    "dinein": "1",
    "drivethru": "0",
    "delivery_open": "10:00:00",
    "delivery_close": "22:00:00",
    "legacy_store_id": "76",
    "locationId": "32",
    "brand": "KFC"
  },
  {
    "name": "KFC SS 15",
    "address": "NO 17, JLN SS15/4G,SUBANG JAYA, 47500 PJ",
    "city": "",
    "state": "Selangor",
    "postcode": "",
    "country": "MY",
    "lat": "3.07822300",
    "lng": "101.58827300",
    "phone": "0356134083",
    "dinein": "1",
    "drivethru": "0",
    "delivery_open": "09:00:00",
    "delivery_close": "23:00:00",
    "legacy_store_id": "10",
    "locationId": "36",
    "brand": "KFC"
  },
  {
    "name": "KFC PADANG LALLANG",
    "address": "NO 1390 Jalan Padang Lallang, Taman Sri Rambai, 14000 Bukit Mertajam Pulau Pinang",
    "city": "",
    "state": "Penang",
    "postcode": "",
    "country": "MY",
    "lat": "5.36506400",
    "lng": "100.44514200",
    "phone": "045304677",
    "dinein": "1",
    "drivethru": "0",
    "delivery_open": "10:00:00",
    "delivery_close": "22:00:00",
    "legacy_store_id": "70",
    "locationId": "37",
    "brand": "KFC"
  },
  {
    "name": "KFC TAMAN CONNAUGHT",
    "address": "No 44, Ground & Mezzanine Floor, Jalan Cerdas, Taman Connaught 56000 Cheras, Kuala Lumpur",
    "city": "",
    "state": "Kuala Lumpur",
    "postcode": "",
    "country": "MY",
    "lat": "3.08137100",
    "lng": "101.73804200",
    "phone": "0391078693",
    "dinein": "1",
    "drivethru": "0",
    "delivery_open": "10:00:00",
    "delivery_close": "23:59:00",
    "legacy_store_id": "29",
    "locationId": "38",
    "brand": "KFC"
  },
  {
    "name": "KFC NILAI",
    "address": "Lot PT 12162 & 12163 Ground Floor, Jalan BBN 1/1F Putra Point Phase 2B Bandar Baru Nilai 71800 Nilai",
    "city": "",
    "state": "Negeri Sembilan",
    "postcode": "",
    "country": "MY",
    "lat": "2.81447100",
    "lng": "101.79736800",
    "phone": "067990937",
    "dinein": "1",
    "drivethru": "0",
    "delivery_open": "11:30:00",
    "delivery_close": "23:00:00",
    "legacy_store_id": "87",
    "locationId": "39",
    "brand": "KFC"
  },
  {
    "name": "KFC DESA PANDAN",
    "address": "NO 12 & 14, Ground Floor, Jalan 1/76D, Desa Pandan 55100 Kuala Lumpur",
    "city": "",
    "state": "Kuala Lumpur",
    "postcode": "",
    "country": "MY",
    "lat": "3.14695900",
    "lng": "101.73721600",
    "phone": "0392867147",
    "dinein": "1",
    "drivethru": "0",
    "delivery_open": "08:00:00",
    "delivery_close": "23:00:00",
    "legacy_store_id": "11",
    "locationId": "40",
    "brand": "KFC"
  },
  {
    "name": "KFC JLN PUTRA - ALOR STAR",
    "address": "201 Medan Putra Jalan Seberang Putra, 05100 Alor Setar, Kedah",
    "city": "",
    "state": "Kedah",
    "postcode": "",
    "country": "MY",
    "lat": "6.12505600",
    "lng": "100.35704200",
    "phone": "047306402",
    "dinein": "1",
    "drivethru": "0",
    "delivery_open": "10:00:00",
    "delivery_close": "22:00:00",
    "legacy_store_id": "122",
    "locationId": "41",
    "brand": "KFC"
  },
  {
    "name": "KFC LARKIN PERDANA",
    "address": "Ground & 1st Floor No. 45, Jalan Susur Dewata 1 Larkin Perdana 80350 Johor Bahru",
    "city": "",
    "state": "Johor",
    "postcode": "",
    "country": "MY",
    "lat": "1.50149800",
    "lng": "103.74805700",
    "phone": "072348428",
    "dinein": "1",
    "drivethru": "0",
    "delivery_open": "11:00:00",
    "delivery_close": "22:00:00",
    "legacy_store_id": "73",
    "locationId": "42",
    "brand": "KFC"
  },
  {
    "name": "KFC PASIR GUDANG",
    "address": "Level 3-27B, Level 3 Kompleks Pusat Bandar Pasir Gudang 81200 Pasir Gudang",
    "city": "",
    "state": "Johor",
    "postcode": "",
    "country": "MY",
    "lat": "1.50953700",
    "lng": "103.92288800",
    "phone": "072526821",
    "dinein": "1",
    "drivethru": "0",
    "delivery_open": "10:00:00",
    "delivery_close": "23:59:00",
    "legacy_store_id": "78",
    "locationId": "43",
    "brand": "KFC"
  },
  {
    "name": "KFC PKNS BANGI",
    "address": "Lot 20, Ground Floor Komplek PKNS Bangi, Bandar Baru Bangi 43650 Selangor",
    "city": "",
    "state": "Kuala Lumpur",
    "postcode": "",
    "country": "MY",
    "lat": "2.96189500",
    "lng": "101.75698600",
    "phone": "0389223278",
    "dinein": "1",
    "drivethru": "0",
    "delivery_open": "10:00:00",
    "delivery_close": "22:00:00",
    "legacy_store_id": "34",
    "locationId": "44",
    "brand": "KFC"
  },
  {
    "name": "KFC BUKIT PASIR - B PAHAT 3",
    "address": "No 2 Jalan Kundang 1 Taman Bukit Pasir 83000 Batu Pahat Johor",
    "city": "",
    "state": "Johor",
    "postcode": "",
    "country": "MY",
    "lat": "1.86525200",
    "lng": "102.93932200",
    "phone": "074319351",
    "dinein": "1",
    "drivethru": "0",
    "delivery_open": "10:00:00",
    "delivery_close": "22:00:00",
    "legacy_store_id": "40",
    "locationId": "45",
    "brand": "KFC"
  },
  {
    "name": "KFC LOTUSS PUCHONG ",
    "address": "Lot No 18 Ground Floor Tesco Puchong Hypermarket, No 148 - 149 Jln Bandar 3 Pusat Bandar Puchong 47100 Selangor",
    "city": "",
    "state": "Selangor",
    "postcode": "",
    "country": "MY",
    "lat": "3.03433100",
    "lng": "101.61600400",
    "phone": "0380717534",
    "dinein": "1",
    "drivethru": "0",
    "delivery_open": "10:00:00",
    "delivery_close": "22:00:00",
    "legacy_store_id": "18",
    "locationId": "47",
    "brand": "KFC"
  },
  {
    "name": "KFC JELUTONG, PENANG",
    "address": "37 - J , Lot 20 Jalan Lenggong 11600 Pulau Pinang",
    "city": "",
    "state": "Penang",
    "postcode": "",
    "country": "MY",
    "lat": "5.39631300",
    "lng": "100.31581900",
    "phone": "042804590",
    "dinein": "1",
    "drivethru": "0",
    "delivery_open": "10:00:00",
    "delivery_close": "22:30:00",
    "legacy_store_id": "44",
    "locationId": "48",
    "brand": "KFC"
  },
  {
    "name": "KFC AEON TAMAN UNIVERSITI",
    "address": "Lot LG15, Lower Ground Floor, AEON Taman University Shopping Center, Taman Universiti 81300 Johor Bahru",
    "city": "",
    "state": "Johor",
    "postcode": "",
    "country": "MY",
    "lat": "1.54275800",
    "lng": "103.62907300",
    "phone": "075224593",
    "dinein": "1",
    "drivethru": "0",
    "delivery_open": "10:00:00",
    "delivery_close": "22:00:00",
    "legacy_store_id": "79",
    "locationId": "49",
    "brand": "KFC"
  },
  {
    "name": "KFC PUCHONG PRIMA ",
    "address": "Blok F01 - 09 & F01 - 10 Blok F, Pusat Perdagangan Puchong Prima, Jalan Prima 5/3 Puchong, 41700 Selangor",
    "city": "",
    "state": "Selangor",
    "postcode": "",
    "country": "MY",
    "lat": "2.99954300",
    "lng": "101.59601100",
    "phone": "0380516738",
    "dinein": "1",
    "drivethru": "0",
    "delivery_open": "10:00:00",
    "delivery_close": "23:00:00",
    "legacy_store_id": "26",
    "locationId": "50",
    "brand": "KFC"
  },
  {
    "name": "KFC BATU BERENDAM",
    "address": "NO 35 & 37 Jalan BBP 1 Taman Batu Berendam Putra 75350 Melaka",
    "city": "",
    "state": "Melaka",
    "postcode": "",
    "country": "MY",
    "lat": "2.24353400",
    "lng": "102.25700500",
    "phone": "065528648",
    "dinein": "1",
    "drivethru": "0",
    "delivery_open": "10:00:00",
    "delivery_close": "23:00:00",
    "legacy_store_id": "39",
    "locationId": "51",
    "brand": "KFC"
  },
  {
    "name": "KFC LOTUSS SHAH ALAM",
    "address": "No.6 Ground Floor, Tesco Hypermarket Shah Alam, No.3 Jalan Aerobik 13/43, Section 13 Shah Alam 40100 Selangor",
    "city": "",
    "state": "Selangor",
    "postcode": "",
    "country": "MY",
    "lat": "3.07174100",
    "lng": "101.53853700",
    "phone": "0355241334",
    "dinein": "0",
    "drivethru": "0",
    "delivery_open": "14:00:00",
    "delivery_close": "21:00:00",
    "legacy_store_id": "24",
    "locationId": "52",
    "brand": "KFC"
  },
  {
    "name": "KFC NUSA BESTARI",
    "address": "No 1 Jalan Bestari 1/5 Taman Nusa Bestari 81300 Johor Bahru",
    "city": "",
    "state": "Johor",
    "postcode": "",
    "country": "MY",
    "lat": "1.49700900",
    "lng": "103.65572800",
    "phone": "075543949",
    "dinein": "1",
    "drivethru": "0",
    "delivery_open": "10:00:00",
    "delivery_close": "01:00:00",
    "legacy_store_id": "80",
    "locationId": "53",
    "brand": "KFC"
  },
  {
    "name": "KFC PUSAT BANDAR BARU RAWANG",
    "address": "No. 11, Jalan Bandar Rawang 10, Rawang 48000 Selangor",
    "city": "",
    "state": "Selangor",
    "postcode": "",
    "country": "MY",
    "lat": "3.31912400",
    "lng": "101.57762000",
    "phone": "0360924536",
    "dinein": "1",
    "drivethru": "0",
    "delivery_open": "10:00:00",
    "delivery_close": "23:00:00",
    "legacy_store_id": "35",
    "locationId": "54",
    "brand": "KFC"
  },
  {
    "name": "KFC AEON EQUINE PARK",
    "address": "LG10 AEON Taman Equine Shopping Centre Seri Kembangan 43300 Selangor",
    "city": "",
    "state": "Selangor",
    "postcode": "",
    "country": "MY",
    "lat": "2.99510100",
    "lng": "101.67483900",
    "phone": "0389595815",
    "dinein": "1",
    "drivethru": "0",
    "delivery_open": "10:00:00",
    "delivery_close": "22:00:00",
    "legacy_store_id": "88",
    "locationId": "55",
    "brand": "KFC"
  },
  {
    "name": "KFC LOTUSS SERI ALAM",
    "address": "Lease 3 , Tesco Seri Alam Bandar Baru Seri Alam 81750 Johor Bahru Johor",
    "city": "",
    "state": "Johor",
    "postcode": "",
    "country": "MY",
    "lat": "1.49698900",
    "lng": "103.86953800",
    "phone": "073868195",
    "dinein": "1",
    "drivethru": "0",
    "delivery_open": "11:00:00",
    "delivery_close": "21:00:00",
    "legacy_store_id": "83",
    "locationId": "56",
    "brand": "KFC"
  },
  {
    "name": "KFC KEPALA BATAS 2",
    "address": "No 2 Lorong Usahawan 2, Pusat Perniagaan Kepala Batas 03200 Kepala Batas Penang",
    "city": "",
    "state": "Penang",
    "postcode": "",
    "country": "MY",
    "lat": "5.51513100",
    "lng": "100.43031900",
    "phone": "045752329",
    "dinein": "1",
    "drivethru": "0",
    "delivery_open": "11:00:00",
    "delivery_close": "22:00:00",
    "legacy_store_id": "67",
    "locationId": "57",
    "brand": "KFC"
  },
  {
    "name": "KFC KULAI DT",
    "address": "Lot 5035, Bt 17 1/2, Jalan Air Hitam, Saleng 81400 Senai",
    "city": "",
    "state": "Johor",
    "postcode": "",
    "country": "MY",
    "lat": "1.63264500",
    "lng": "103.63238500",
    "phone": "042020246",
    "dinein": "1",
    "drivethru": "0",
    "delivery_open": "10:00:00",
    "delivery_close": "23:59:00",
    "legacy_store_id": "72",
    "locationId": "58",
    "brand": "KFC"
  },
  {
    "name": "KFC BANDAR SG LONG",
    "address": "No 9 Jalan SL 1/10 Bandar Sungai Long 43000 Kajang Selangor",
    "city": "",
    "state": "Kuala Lumpur",
    "postcode": "",
    "country": "MY",
    "lat": "3.04117000",
    "lng": "101.79245400",
    "phone": "0390116474",
    "dinein": "1",
    "drivethru": "0",
    "delivery_open": "08:00:00",
    "delivery_close": "23:00:00",
    "legacy_store_id": "107",
    "locationId": "59",
    "brand": "KFC"
  },
  {
    "name": "KFC TAMAN DANAU DESA",
    "address": "No. 25, Ground & 1st Floor, Block C, Jalan 2/109F, Taman Danau Desa, 58100 KL",
    "city": "",
    "state": "Kuala Lumpur",
    "postcode": "",
    "country": "MY",
    "lat": "3.09965800",
    "lng": "101.68653300",
    "phone": "0379712495",
    "dinein": "1",
    "drivethru": "0",
    "delivery_open": "10:00:00",
    "delivery_close": "23:00:00",
    "legacy_store_id": "1",
    "locationId": "60",
    "brand": "KFC"
  },
  {
    "name": "KFC SANDAKAN 2 - MILE 4",
    "address": "Ground & 1st Floor, Block M, PH II, Lot 99, Bandar Pasaraya, Mile 4, 90309 Sandakan",
    "city": "",
    "state": "Sabah",
    "postcode": "",
    "country": "MY",
    "lat": "5.85782000",
    "lng": "118.07874100",
    "phone": "089227889",
    "dinein": "1",
    "drivethru": "0",
    "delivery_open": "09:00:00",
    "delivery_close": "23:00:00",
    "legacy_store_id": "84",
    "locationId": "61",
    "brand": "KFC"
  },
  {
    "name": "KFC PLAZA JUTA",
    "address": "Ground & 1st Floor, Lot 22, Block B, Plaza Juta, Jalan Tuaran, Kota Kinabalu, Sabah",
    "city": "",
    "state": "Sabah",
    "postcode": "",
    "country": "MY",
    "lat": "5.99269300",
    "lng": "116.11250900",
    "phone": "088273741",
    "dinein": "1",
    "drivethru": "0",
    "delivery_open": "10:00:00",
    "delivery_close": "22:00:00",
    "legacy_store_id": "59",
    "locationId": "62",
    "brand": "KFC"
  },
  {
    "name": "KFC SEPANGGAR",
    "address": "Ground & 1st Floor, Lot No. S3A-06 (corner lot), Taman Indah Permai, Jalan Sepanggar Bay, 88450 Kota Kinabalu, Sabah",
    "city": "",
    "state": "Sabah",
    "postcode": "",
    "country": "MY",
    "lat": "6.06156900",
    "lng": "116.15007800",
    "phone": "088496409",
    "dinein": "1",
    "drivethru": "0",
    "delivery_open": "10:00:00",
    "delivery_close": "23:00:00",
    "legacy_store_id": "62",
    "locationId": "63",
    "brand": "KFC"
  },
  {
    "name": "KFC PUTATAN",
    "address": "Lot No. 11 (Intermediate) & 12 (corner lot), Putatan Plaza, Sabah",
    "city": "",
    "state": "Sabah",
    "postcode": "",
    "country": "MY",
    "lat": "5.89421500",
    "lng": "116.04919600",
    "phone": "088761471",
    "dinein": "1",
    "drivethru": "0",
    "delivery_open": "09:00:00",
    "delivery_close": "23:00:00",
    "legacy_store_id": "60",
    "locationId": "64",
    "brand": "KFC"
  },
  {
    "name": "KFC UTAMA JAYA",
    "address": "Lot C19 (Corner Lot), Jalan Kemajuan / Ujong Pasir, W.P Labuan",
    "city": "",
    "state": "Labuan",
    "postcode": "",
    "country": "MY",
    "lat": "5.28148900",
    "lng": "115.23998400",
    "phone": "087586856",
    "dinein": "1",
    "drivethru": "0",
    "delivery_open": "10:00:00",
    "delivery_close": "22:00:00",
    "legacy_store_id": "75",
    "locationId": "67",
    "brand": "KFC"
  },
  {
    "name": "KFC PAVILION BUNDUSAN",
    "address": "Lot No. D-33-G (Ground Floor), D-33-1 (1st Floor), D-33A-2 (2nd Floor), Type C, Block D, Pavilion Bundusan, Jalan Bundusan Penampang, Kota Kinabalu",
    "city": "",
    "state": "Sabah",
    "postcode": "",
    "country": "MY",
    "lat": "5.92866100",
    "lng": "116.09428100",
    "phone": "088718225",
    "dinein": "1",
    "drivethru": "0",
    "delivery_open": "09:00:00",
    "delivery_close": "23:00:00",
    "legacy_store_id": "63",
    "locationId": "68",
    "brand": "KFC"
  },
  {
    "name": "KFC Lintas Jaya Boulevard",
    "address": "Lot A, Ground Floor of 5, Storey Building Boulevard Hypermarket & Departmental, Store Lintas Jata Uptownship, Penampang, Sabah.",
    "city": "",
    "state": "Sabah",
    "postcode": "",
    "country": "MY",
    "lat": "5.93147300",
    "lng": "116.07019100",
    "phone": "089520876",
    "dinein": "1",
    "drivethru": "0",
    "delivery_open": "00:00:00",
    "delivery_close": "23:59:59",
    "legacy_store_id": "109",
    "locationId": "69",
    "brand": "KFC"
  },
  {
    "name": "KFC Bandar Perdana Sandakan",
    "address": "No. 42 & 43, Ground & First Floor, Block F, Bandar Perdana, Sandakan",
    "city": "",
    "state": "Sabah",
    "postcode": "",
    "country": "MY",
    "lat": "5.88880700",
    "lng": "118.05925400",
    "phone": "089671821",
    "dinein": "1",
    "drivethru": "0",
    "delivery_open": "10:00:00",
    "delivery_close": "22:00:00",
    "legacy_store_id": "126",
    "locationId": "70",
    "brand": "KFC"
  },
  {
    "name": "KFC BANDAR SIERRA",
    "address": "Lot No 1 (B-G-1,B-1-1 & B-2-1), Lot No 2 (B-G-2), Block B, Bandar Sierra Hub, 88450 Kota Kinabalu, Sabah.",
    "city": "",
    "state": "Sabah",
    "postcode": "",
    "country": "MY",
    "lat": "6.06248900",
    "lng": "116.18179000",
    "phone": "088496846",
    "dinein": "1",
    "drivethru": "0",
    "delivery_open": "10:00:00",
    "delivery_close": "23:00:00",
    "legacy_store_id": "113",
    "locationId": "71",
    "brand": "KFC"
  },
  {
    "name": "KFC BOULEVARD MIRI",
    "address": "UGF 1.11 Lot 2526, Boulevard Shopping Complex, Miri.",
    "city": "",
    "state": "Sarawak",
    "postcode": "",
    "country": "MY",
    "lat": "4.41494600",
    "lng": "114.01303800",
    "phone": "085418927",
    "dinein": "1",
    "drivethru": "0",
    "delivery_open": "10:00:00",
    "delivery_close": "22:00:00",
    "legacy_store_id": "68",
    "locationId": "72",
    "brand": "KFC"
  },
  {
    "name": "KFC PREMIER 101",
    "address": "Lot 96, Parent Lot 228, Jalan Tun Jugah, Kuching, Sarawak",
    "city": "",
    "state": "Sarawak",
    "postcode": "",
    "country": "MY",
    "lat": "1.51585800",
    "lng": "110.35381600",
    "phone": "082574407",
    "dinein": "1",
    "drivethru": "0",
    "delivery_open": "10:00:00",
    "delivery_close": "22:00:00",
    "legacy_store_id": "57",
    "locationId": "73",
    "brand": "KFC"
  },
  {
    "name": "KFC KOMPLEKS ISLAM SARAWAK",
    "address": "S33, Ground Floor, Kompleks Islam Sarawak, Off Jalan P. Ramlee, 93400 Kuching",
    "city": "",
    "state": "Sarawak",
    "postcode": "",
    "country": "MY",
    "lat": "1.55508300",
    "lng": "110.34023500",
    "phone": "082240791",
    "dinein": "1",
    "drivethru": "0",
    "delivery_open": "10:00:00",
    "delivery_close": "18:30:00",
    "legacy_store_id": "58",
    "locationId": "74",
    "brand": "KFC"
  },
  {
    "name": "KFC E-MART RIAM",
    "address": "Ground Floor Sublot 38 (Survey Lot 8848), Ground Floor & First Floor Sublot 39 (Survey Lot 8849), Lambir Land District, 98000 Miri.",
    "city": "",
    "state": "Sarawak",
    "postcode": "",
    "country": "MY",
    "lat": "4.34355300",
    "lng": "113.99276900",
    "phone": "085421574",
    "dinein": "1",
    "drivethru": "0",
    "delivery_open": "10:00:00",
    "delivery_close": "22:00:00",
    "legacy_store_id": "106",
    "locationId": "75",
    "brand": "KFC"
  },
  {
    "name": "KFC PARAGON BINTULU",
    "address": "Lot DG-01 & DG-02 Ground Floor, Block D, Naim Streetmall, Bintulu Paragon, 97000 Bintulu, Sarawak.",
    "city": "",
    "state": "Sarawak",
    "postcode": "",
    "country": "MY",
    "lat": "3.17030900",
    "lng": "113.04806100",
    "phone": "086315356",
    "dinein": "1",
    "drivethru": "0",
    "delivery_open": "10:00:00",
    "delivery_close": "22:00:00",
    "legacy_store_id": "112",
    "locationId": "76",
    "brand": "KFC"
  },
  {
    "name": "KFC AIMAN KOTA SAMARAHAN",
    "address": "GF, Sublot 7, Aiman Shoplot Centre, Jalan Datuk Mohmad Musa, 94300 Kota Samarahan",
    "city": "",
    "state": "Sarawak",
    "postcode": "",
    "country": "MY",
    "lat": "1.45603000",
    "lng": "110.44741800",
    "phone": "082505245",
    "dinein": "1",
    "drivethru": "0",
    "delivery_open": "09:00:00",
    "delivery_close": "23:00:00",
    "legacy_store_id": "120",
    "locationId": "77",
    "brand": "KFC"
  },
  {
    "name": "KFC DESA SRI HARTAMAS",
    "address": "No. 1, Ground & 1st Floor, Jalan 26A/70A, Desa Sri Hartamas 50480 KL",
    "city": "",
    "state": "Kuala Lumpur",
    "postcode": "",
    "country": "MY",
    "lat": "3.16135300",
    "lng": "101.64992800",
    "phone": "0362110939",
    "dinein": "1",
    "drivethru": "0",
    "delivery_open": "10:00:00",
    "delivery_close": "23:00:00",
    "legacy_store_id": "47",
    "locationId": "78",
    "brand": "KFC"
  },
  {
    "name": "KFC AEON BIG TUN HUSSIEN ONN",
    "address": "Lot G.05, AEON Big Persiaran Sua Rasa 2, Bandar Tun Hussien Onn, Kajang 43100 Selangor",
    "city": "",
    "state": "Kuala Lumpur",
    "postcode": "",
    "country": "MY",
    "lat": "3.04831700",
    "lng": "101.75900700",
    "phone": "0390827459",
    "dinein": "1",
    "drivethru": "0",
    "delivery_open": "10:00:00",
    "delivery_close": "22:00:00",
    "legacy_store_id": "32",
    "locationId": "79",
    "brand": "KFC"
  },
  {
    "name": "KFC TAMAN SRI MANJA",
    "address": "Lot No 2-1 Ground & 1st Floor, Sri Manja Square 2, Jalan PJS3/61, Taman Sri Manja 46000 Petaling Jaya",
    "city": "",
    "state": "Selangor",
    "postcode": "",
    "country": "MY",
    "lat": "3.07415800",
    "lng": "101.65007200",
    "phone": "0377847526",
    "dinein": "1",
    "drivethru": "0",
    "delivery_open": "10:00:00",
    "delivery_close": "22:00:00",
    "legacy_store_id": "110",
    "locationId": "80",
    "brand": "KFC"
  },
  {
    "name": "KFC TAMAN CEMPAKA KL",
    "address": "Lot No G-12 & GAF 13A, First Floor Axis Atrium, Jalan Cempaka, Ampang 68000 Selangor",
    "city": "",
    "state": "Selangor",
    "postcode": "",
    "country": "MY",
    "lat": "3.13647100",
    "lng": "101.74683700",
    "phone": "0392014652",
    "dinein": "1",
    "drivethru": "0",
    "delivery_open": "10:00:00",
    "delivery_close": "22:00:00",
    "legacy_store_id": "20",
    "locationId": "81",
    "brand": "KFC"
  },
  {
    "name": "KFC BANDAR BARU SELAYANG",
    "address": "36 Jalan 2/16, Bandar Baru Selayang 68100 Batu Caves, Selangor",
    "city": "",
    "state": "Selangor",
    "postcode": "",
    "country": "MY",
    "lat": "3.25636900",
    "lng": "101.65659300",
    "phone": "0361283597",
    "dinein": "1",
    "drivethru": "0",
    "delivery_open": "10:00:00",
    "delivery_close": "23:00:00",
    "legacy_store_id": "16",
    "locationId": "82",
    "brand": "KFC"
  },
  {
    "name": "KFC CENTRE POINT, BANDAR UTAMA",
    "address": "G115, Ground Floor Centre Point, Bandar Utama Petaling Jaya 46000 Selangor",
    "city": "",
    "state": "Selangor",
    "postcode": "",
    "country": "MY",
    "lat": "3.13806100",
    "lng": "101.60993800",
    "phone": "0377319821",
    "dinein": "1",
    "drivethru": "0",
    "delivery_open": "10:00:00",
    "delivery_close": "22:00:00",
    "legacy_store_id": "43",
    "locationId": "83",
    "brand": "KFC"
  },
  {
    "name": "KFC AEON BIG BUKIT RIMAU",
    "address": "No 2 AEON Big Bukit Rimau Shopping Centre, Jalan Sungai Burung, 22/68 Section 32 40460 Shah Alam",
    "city": "",
    "state": "Kuala Lumpur",
    "postcode": "",
    "country": "MY",
    "lat": "2.99877900",
    "lng": "101.52846100",
    "phone": "0351319984",
    "dinein": "1",
    "drivethru": "0",
    "delivery_open": "12:00:00",
    "delivery_close": "22:00:00",
    "legacy_store_id": "105",
    "locationId": "85",
    "brand": "KFC"
  },
  {
    "name": "KFC TUNKU HAMIMAH SG PETANI",
    "address": "33A, Jalan Tengku Haminah 1, Taman Tengku Haminah, 08200 Sg Petani, Kedah",
    "city": "",
    "state": "Kedah",
    "postcode": "",
    "country": "MY",
    "lat": "5.65428600",
    "lng": "100.51418300",
    "phone": "044419102",
    "dinein": "1",
    "drivethru": "0",
    "delivery_open": "09:30:00",
    "delivery_close": "01:00:00",
    "legacy_store_id": "71",
    "locationId": "86",
    "brand": "KFC"
  },
  {
    "name": "KFC NUSA PERINTIS",
    "address": "No 59 Medan Nusa Perintis 6, Taman Nusa Perintis 2, 81550 Gelang Patah, Johor",
    "city": "",
    "state": "Johor",
    "postcode": "",
    "country": "MY",
    "lat": "1.45064300",
    "lng": "103.59225900",
    "phone": "075854837",
    "dinein": "1",
    "drivethru": "0",
    "delivery_open": "10:30:00",
    "delivery_close": "22:00:00",
    "legacy_store_id": "89",
    "locationId": "87",
    "brand": "KFC"
  },
  {
    "name": "KFC BANDAR BARU SAUJANA",
    "address": "No 56G, Jalan 6/3 Jalan Bidara Sg Buloh 47000 Selangor",
    "city": "",
    "state": "Kuala Lumpur",
    "postcode": "",
    "country": "MY",
    "lat": "3.20310800",
    "lng": "101.48733600",
    "phone": "060360875876",
    "dinein": "1",
    "drivethru": "0",
    "delivery_open": "10:00:00",
    "delivery_close": "23:00:00",
    "legacy_store_id": "102",
    "locationId": "88",
    "brand": "KFC"
  },
  {
    "name": "KFC LOTUSS SEREMBAN 2",
    "address": "Lot No G02, Ground Floor Tesco Seremban 2, PT 2347 Pekan Bukit Kepayang Daerah Seremban 70300 N.Sembilan.",
    "city": "",
    "state": "Negeri Sembilan",
    "postcode": "",
    "country": "MY",
    "lat": "2.71258100",
    "lng": "101.91449100",
    "phone": "066307185",
    "dinein": "1",
    "drivethru": "0",
    "delivery_open": "10:00:00",
    "delivery_close": "22:00:00",
    "legacy_store_id": "118",
    "locationId": "89",
    "brand": "KFC"
  },
  {
    "name": "KFC MEDAN NIAGA SG BESI",
    "address": "No T2-23, Jalan Tasek Utama, Medan Niaga Tasik Damai Sg Besi, 57100 Kuala Lumpur",
    "city": "",
    "state": "Kuala Lumpur",
    "postcode": "",
    "country": "MY",
    "lat": "3.06219400",
    "lng": "101.70932400",
    "phone": "0390546848",
    "dinein": "1",
    "drivethru": "0",
    "delivery_open": "10:00:00",
    "delivery_close": "22:00:00",
    "legacy_store_id": "28",
    "locationId": "91",
    "brand": "KFC"
  },
  {
    "name": "KFC BUKIT SENTOSA",
    "address": "No 2, 2-1 & 2-2 Jalan Orkid 1D/2 Seksyen BS1 Bandar Bukit Sentosa 48300 Rawang",
    "city": "",
    "state": "Selangor",
    "postcode": "",
    "country": "MY",
    "lat": "3.40430100",
    "lng": "101.55754900",
    "phone": "0360781533",
    "dinein": "1",
    "drivethru": "0",
    "delivery_open": "10:00:00",
    "delivery_close": "23:00:00",
    "legacy_store_id": "86",
    "locationId": "92",
    "brand": "KFC"
  },
  {
    "name": "KFC TAMAN SEJATI INDAH",
    "address": "Taman Sejati Grd & 1st Floor, Lot No. C 119, Lorong 10, Taman Sejati Indah, Sg Petani 08000 Kedah",
    "city": "",
    "state": "Kedah",
    "postcode": "",
    "country": "MY",
    "lat": "5.61419200",
    "lng": "100.48330800",
    "phone": "044312634",
    "dinein": "1",
    "drivethru": "0",
    "delivery_open": "10:30:00",
    "delivery_close": "23:00:00",
    "legacy_store_id": "69",
    "locationId": "93",
    "brand": "KFC"
  },
  {
    "name": "KFC SAUJANA PUTRA",
    "address": "No. 52, Ground Floor, Jalan SPU1, Bandar Saujana 42610 Jenjarom Saujana",
    "city": "",
    "state": "Selangor",
    "postcode": "",
    "country": "MY",
    "lat": "2.95229100",
    "lng": "101.58114100",
    "phone": "0351910326",
    "dinein": "1",
    "drivethru": "0",
    "delivery_open": "11:00:00",
    "delivery_close": "22:00:00",
    "legacy_store_id": "123",
    "locationId": "94",
    "brand": "KFC"
  },
  {
    "name": "KFC TAMING JAYA",
    "address": "Lot No. 2-3A, Ground Floor, Wisma Pausan, Taman Taming Jaya 43300 Seri Kembangan",
    "city": "",
    "state": "Selangor",
    "postcode": "",
    "country": "MY",
    "lat": "3.02521100",
    "lng": "101.74060100",
    "phone": "0389640307",
    "dinein": "1",
    "drivethru": "0",
    "delivery_open": "10:00:00",
    "delivery_close": "23:00:00",
    "legacy_store_id": "99",
    "locationId": "95",
    "brand": "KFC"
  },
  {
    "name": "KFC DE CENTRUM",
    "address": "LG3 & LG5, De Centrum Complex, Taman Uniparks Suria, Jalan Ikram-Uniten, 43000 Kajang",
    "city": "",
    "state": "Selangor",
    "postcode": "",
    "country": "MY",
    "lat": "2.97966200",
    "lng": "101.73876500",
    "phone": "0389204668",
    "dinein": "1",
    "drivethru": "0",
    "delivery_open": "11:00:00",
    "delivery_close": "21:00:00",
    "legacy_store_id": "121",
    "locationId": "96",
    "brand": "KFC"
  },
  {
    "name": "KFC DAMANSARA DAMAI",
    "address": "Lot A/010, A011 GF & 1st Floor, Jalan PJU 10 Damansara Damai 47800 Petaling Jaya",
    "city": "",
    "state": "Selangor",
    "postcode": "",
    "country": "MY",
    "lat": "3.19901400",
    "lng": "101.59434700",
    "phone": "0361501153",
    "dinein": "1",
    "drivethru": "0",
    "delivery_open": "08:00:00",
    "delivery_close": "23:00:00",
    "legacy_store_id": "100",
    "locationId": "97",
    "brand": "KFC"
  },
  {
    "name": "KFC VIVA JALAN IPOH",
    "address": "No. 21, Jalan Suppiah Pillay, Off Jalan Ipoh 51200 Kuala Lumpur",
    "city": "",
    "state": "Kuala Lumpur",
    "postcode": "",
    "country": "MY",
    "lat": "3.17791200",
    "lng": "101.68470700",
    "phone": "0340504649",
    "dinein": "1",
    "drivethru": "0",
    "delivery_open": "10:00:00",
    "delivery_close": "22:00:00",
    "legacy_store_id": "101",
    "locationId": "98",
    "brand": "KFC"
  },
  {
    "name": "KFC GENTING KLANG 2",
    "address": "No. 45 (Ground Floor), Jalan 3/23A, Off Jalan Genting Klang, Taman Danau Kota 53300 Setapak",
    "city": "",
    "state": "Selangor",
    "postcode": "",
    "country": "MY",
    "lat": "3.20178300",
    "lng": "101.72114000",
    "phone": "0341314391",
    "dinein": "0",
    "drivethru": "0",
    "delivery_open": "10:00:00",
    "delivery_close": "23:00:00",
    "legacy_store_id": "104",
    "locationId": "99",
    "brand": "KFC"
  },
  {
    "name": "KFC PUNCAK JALIL",
    "address": "No. 56, Jalan PUJ 3/2, Taman Puncak Jalil 43300 Seri Kembangan",
    "city": "",
    "state": "Kuala Lumpur",
    "postcode": "",
    "country": "MY",
    "lat": "3.01817600",
    "lng": "101.67535800",
    "phone": "0380740017",
    "dinein": "1",
    "drivethru": "0",
    "delivery_open": "12:00:00",
    "delivery_close": "22:00:00",
    "legacy_store_id": "111",
    "locationId": "100",
    "brand": "KFC"
  },
  {
    "name": "KFC COUNTRY HOMES RAWANG",
    "address": "No. 19A, Jalan BCH 1A, Bandar Country Homes 48000 Rawang",
    "city": "",
    "state": "Selangor",
    "postcode": "",
    "country": "MY",
    "lat": "3.32394000",
    "lng": "101.52607500",
    "phone": "0360960037",
    "dinein": "1",
    "drivethru": "0",
    "delivery_open": "10:00:00",
    "delivery_close": "23:00:00",
    "legacy_store_id": "116",
    "locationId": "101",
    "brand": "KFC"
  },
  {
    "name": "KFC TELUK KUMBAR",
    "address": "Lot No. 40, Changkat Bukit Belah, Telur Kumbar 11920 Bayan Lepas",
    "city": "",
    "state": "Penang",
    "postcode": "",
    "country": "MY",
    "lat": "5.28946300",
    "lng": "100.24947200",
    "phone": "046491645",
    "dinein": "1",
    "drivethru": "0",
    "delivery_open": "09:00:00",
    "delivery_close": "23:00:00",
    "legacy_store_id": "117",
    "locationId": "102",
    "brand": "KFC"
  },
  {
    "name": "KFC TTDI GROOVE",
    "address": "Lot No. 2A-1, 2A-2 & 2A-3, Jalan TTDI Grove, Saujana Impian Kajang 43000 Kajang",
    "city": "",
    "state": "Kuala Lumpur",
    "postcode": "",
    "country": "MY",
    "lat": "2.99788100",
    "lng": "101.81209800",
    "phone": "0387387245",
    "dinein": "1",
    "drivethru": "0",
    "delivery_open": "10:00:00",
    "delivery_close": "23:00:00",
    "legacy_store_id": "119",
    "locationId": "103",
    "brand": "KFC"
  },
  {
    "name": "KFC CYBERJAYA",
    "address": "No. 8, Cottage Walk off Jalan Persiaran APEC 63000 Cyberjaya",
    "city": "",
    "state": "Selangor",
    "postcode": "",
    "country": "MY",
    "lat": "2.92001300",
    "lng": "101.65914600",
    "phone": "0383192204",
    "dinein": "1",
    "drivethru": "0",
    "delivery_open": "10:00:00",
    "delivery_close": "23:00:00",
    "legacy_store_id": "115",
    "locationId": "104",
    "brand": "KFC"
  },
  {
    "name": "KFC BANGSAR HUB",
    "address": "No. 4, Tingkat Bawah, Jalan Telawi, Bangsar Baru 59100 Kuala Lumpur",
    "city": "",
    "state": "Kuala Lumpur",
    "postcode": "",
    "country": "MY",
    "lat": "3.13267300",
    "lng": "101.67061000",
    "phone": "0322015498",
    "dinein": "0",
    "drivethru": "0",
    "delivery_open": "10:00:00",
    "delivery_close": "22:00:00",
    "legacy_store_id": "124",
    "locationId": "105",
    "brand": "KFC"
  },
  {
    "name": "KFC SUNWAY MENTARI",
    "address": "48 & 50, Ground Floor, Jalan PJS 8/6, Sunway Mentari, Bandar Sunway 46150 Petaling Jaya",
    "city": "",
    "state": "Selangor",
    "postcode": "",
    "country": "MY",
    "lat": "3.07622400",
    "lng": "101.61117800",
    "phone": "0356125332",
    "dinein": "1",
    "drivethru": "0",
    "delivery_open": "10:00:00",
    "delivery_close": "23:00:00",
    "legacy_store_id": "125",
    "locationId": "106",
    "brand": "KFC"
  },
  {
    "name": "KFC PRESINT 15 PUTRAJAYA",
    "address": "Lot No 68, Jalan Perak, Presint 15, 62000 Putrajaya, Wilayah Persekutuan",
    "city": "",
    "state": "Kuala Lumpur",
    "postcode": "",
    "country": "MY",
    "lat": "2.94597600",
    "lng": "101.72169000",
    "phone": "0388614682",
    "dinein": "1",
    "drivethru": "0",
    "delivery_open": "10:00:00",
    "delivery_close": "23:00:00",
    "legacy_store_id": "128",
    "locationId": "107",
    "brand": "KFC"
  },
  {
    "name": "KFC GURNEY MALL UTM KL",
    "address": "Lot No. 1-20 & 1-21, Gurney Mall @ Residensi UTMKL, Level 1, No. 8, Jalan Maktab 54000 Kuala Lumpur",
    "city": "",
    "state": "Kuala Lumpur",
    "postcode": "",
    "country": "MY",
    "lat": "3.17213700",
    "lng": "101.72228200",
    "phone": "0326021587",
    "dinein": "1",
    "drivethru": "0",
    "delivery_open": "11:00:00",
    "delivery_close": "22:30:00",
    "legacy_store_id": "127",
    "locationId": "108",
    "brand": "KFC"
  },
  {
    "name": "KFC PACIFIC PLACE",
    "address": "Unit F-1-7, Block F, Pacific Place Commercial Centre, Jalan PJU 1A/4, Ara Damansara, 47301 Petaling Jaya, Selangor",
    "city": "",
    "state": "Selangor",
    "postcode": "",
    "country": "MY",
    "lat": "3.11105300",
    "lng": "101.58722300",
    "phone": "0378311851",
    "dinein": "1",
    "drivethru": "0",
    "delivery_open": "10:00:00",
    "delivery_close": "23:00:00",
    "legacy_store_id": "129",
    "locationId": "109",
    "brand": "KFC"
  },
  {
    "name": "KFC STATE",
    "address": "No 49 & 51, Ground Floor, Jalan 52/12 PJ New Town Petaling Jaya 46200 Selangor",
    "city": "",
    "state": "Kuala Lumpur",
    "postcode": "",
    "country": "MY",
    "lat": "3.09892600",
    "lng": "101.64618600",
    "phone": "0379312544",
    "dinein": "1",
    "drivethru": "0",
    "delivery_open": "10:00:00",
    "delivery_close": "22:00:00",
    "legacy_store_id": "90",
    "locationId": "110",
    "brand": "KFC"
  },
  {
    "name": "KFC PETRONAS JALAN MASAI DT",
    "address": "Lot No PTD 173043, HD (D) 351588, Mukim Plentong, Jalan Masai Lama, 81750 Masai, Johor Bahru, Johor",
    "city": "",
    "state": "Johor",
    "postcode": "",
    "country": "MY",
    "lat": "1.52448200",
    "lng": "103.81689700",
    "phone": "073649581",
    "dinein": "1",
    "drivethru": "0",
    "delivery_open": "12:00:00",
    "delivery_close": "21:00:00",
    "legacy_store_id": "130",
    "locationId": "112",
    "brand": "KFC"
  },
  {
    "name": "KFC THE RADIANCE KUANTAN",
    "address": "No A1–11–G, Ground Floor and 1st Floor, The RadianceCommercial Area, Indera Mahkota 3, Jalan Pintasan Kuantan, 26200 Kuantan, Pahang",
    "city": "",
    "state": "Pahang",
    "postcode": "",
    "country": "MY",
    "lat": "3.81740600",
    "lng": "103.27648200",
    "phone": "095737125",
    "dinein": "1",
    "drivethru": "0",
    "delivery_open": "12:00:00",
    "delivery_close": "23:59:00",
    "legacy_store_id": "132",
    "locationId": "113",
    "brand": "KFC"
  },
  {
    "name": "KFC PETRON SETIA ALAM DT",
    "address": "No. 2 (PT 32575), Jalan Setia Gemilang U13/47, Setia Alam, Seksyen U13 40170 Shah Alam",
    "city": "",
    "state": "Selangor",
    "postcode": "",
    "country": "MY",
    "lat": "3.12550200",
    "lng": "101.47222100",
    "phone": "0333488404",
    "dinein": "1",
    "drivethru": "0",
    "delivery_open": "08:00:00",
    "delivery_close": "23:59:00",
    "legacy_store_id": "1130934",
    "locationId": "129",
    "brand": "KFC"
  },
  {
    "name": "KFC PUNCAK ALAM",
    "address": "No. 6-1 & 8-1 (Ground Floor), Jalan Puncak Alam Jaya 13, Pusat Perdagangan Puncak Alam Jaya 42300 Bandar Puncak Alam",
    "city": "",
    "state": "Selangor",
    "postcode": "",
    "country": "MY",
    "lat": "3.24206700",
    "lng": "101.43272200",
    "phone": "0333934691",
    "dinein": "1",
    "drivethru": "0",
    "delivery_open": "10:00:00",
    "delivery_close": "23:00:00",
    "legacy_store_id": "1130907",
    "locationId": "130",
    "brand": "KFC"
  },
  {
    "name": "KFC SUBANG 2 DT",
    "address": "No 1, Jalan Apollo CH U5/CH, Seksyen U5, 40150 Shah Alam, Selangor",
    "city": "",
    "state": "Selangor",
    "postcode": "",
    "country": "MY",
    "lat": "3.15522300",
    "lng": "101.54561100",
    "phone": "0378323205",
    "dinein": "1",
    "drivethru": "0",
    "delivery_open": "00:00:00",
    "delivery_close": "23:59:59",
    "legacy_store_id": "1130778",
    "locationId": "131",
    "brand": "KFC"
  },
  {
    "name": "KFC SHAH ALAM SECTION 7 DT",
    "address": "Lot 1508, Jalan Plumbum 2-7/2, Seksyen 7 Shah Alam 40100 Selangor",
    "city": "",
    "state": "Selangor",
    "postcode": "",
    "country": "MY",
    "lat": "3.06706700",
    "lng": "101.49090200",
    "phone": "0355135672",
    "dinein": "1",
    "drivethru": "0",
    "delivery_open": "08:00:00",
    "delivery_close": "01:30:00",
    "legacy_store_id": "1130728",
    "locationId": "132",
    "brand": "KFC"
  },
  {
    "name": "KFC PETRONAS TAMAN TUN DT",
    "address": "1st Floor Petronas Station, Pinggiran Zaaba,Taman Tun Dr Ismail 60000 KL",
    "city": "",
    "state": "Kuala Lumpur",
    "postcode": "",
    "country": "MY",
    "lat": "3.14223100",
    "lng": "101.62520900",
    "phone": "0377328768",
    "dinein": "1",
    "drivethru": "0",
    "delivery_open": "08:00:00",
    "delivery_close": "23:00:00",
    "legacy_store_id": "1130740",
    "locationId": "133",
    "brand": "KFC"
  },
  {
    "name": "KFC KOTA DAMANSARA DT",
    "address": "Jalan Cecawi 6/18, Seksyen 6, Kota Damansara, Petaling Jaya 47810 Selangor",
    "city": "",
    "state": "Selangor",
    "postcode": "",
    "country": "MY",
    "lat": "3.16012200",
    "lng": "101.57481100",
    "phone": "0361433291",
    "dinein": "1",
    "drivethru": "0",
    "delivery_open": "10:00:00",
    "delivery_close": "23:59:59",
    "legacy_store_id": "1130332",
    "locationId": "134",
    "brand": "KFC"
  },
  {
    "name": "KFC TAMAN PELANGI SEMENYIH DT",
    "address": "Lot PT 26794, Persiaran Pelangi Semenyih, Bandar Semenyih, Semenyih, 43500 Selangor",
    "city": "",
    "state": "Selangor",
    "postcode": "",
    "country": "MY",
    "lat": "2.93256900",
    "lng": "101.85523300",
    "phone": "0387240662",
    "dinein": "1",
    "drivethru": "0",
    "delivery_open": "10:00:00",
    "delivery_close": "23:00:00",
    "legacy_store_id": "1130709",
    "locationId": "136",
    "brand": "KFC"
  },
  {
    "name": "KFC THE STORE SEMENYIH",
    "address": "Ground Floor ( Fast Food Area ) The Store, Semenyih Sentral, Jalan Semenyih 3 Semenyih 43500 Selangor",
    "city": "",
    "state": "Selangor",
    "postcode": "",
    "country": "MY",
    "lat": "2.94387600",
    "lng": "101.84481000",
    "phone": "0387230521",
    "dinein": "1",
    "drivethru": "0",
    "delivery_open": "11:00:00",
    "delivery_close": "22:00:00",
    "legacy_store_id": "1130307",
    "locationId": "137",
    "brand": "KFC"
  },
  {
    "name": "KFC KAJANG DRIVE THRU",
    "address": "Lot P.T 35855 Jalan Semenyih Kajang 43000 Selangor",
    "city": "",
    "state": "Selangor",
    "postcode": "",
    "country": "MY",
    "lat": "2.99135900",
    "lng": "101.79473700",
    "phone": "0387340274",
    "dinein": "1",
    "drivethru": "0",
    "delivery_open": "08:00:00",
    "delivery_close": "23:00:00",
    "legacy_store_id": "1130296",
    "locationId": "138",
    "brand": "KFC"
  },
  {
    "name": "KFC EXTREME PARK DT",
    "address": "Extreme Park D/T Lot 1 Shah Alam Extreme Park Jalan Lompat 13/37, Section 13 Shah Alam 40100 Selangor",
    "city": "",
    "state": "Selangor",
    "postcode": "",
    "country": "MY",
    "lat": "3.08681400",
    "lng": "101.54207800",
    "phone": "0355239467",
    "dinein": "1",
    "drivethru": "0",
    "delivery_open": "12:00:00",
    "delivery_close": "23:00:00",
    "legacy_store_id": "1130377",
    "locationId": "139",
    "brand": "KFC"
  },
  {
    "name": "KFC SHAH ALAM 2 -  SECTION 18",
    "address": "NO. 39 Jalan 18/ B, Section 18, Shah Alam 40000 Selangor",
    "city": "",
    "state": "Selangor",
    "postcode": "",
    "country": "MY",
    "lat": "3.04407200",
    "lng": "101.51815300",
    "phone": "0355419388",
    "dinein": "1",
    "drivethru": "0",
    "delivery_open": "08:00:00",
    "delivery_close": "21:00:00",
    "legacy_store_id": "1130063",
    "locationId": "140",
    "brand": "KFC"
  },
  {
    "name": "KFC JALAN UNIVERSITI DT",
    "address": "Lot 47 (PT 28), Lorong Universiti A, Section 16, Petaling Jaya 59200 Kuala Lumpur",
    "city": "",
    "state": "Selangor",
    "postcode": "",
    "country": "MY",
    "lat": "3.11843900",
    "lng": "101.64808100",
    "phone": "0379321084",
    "dinein": "1",
    "drivethru": "0",
    "delivery_open": "08:00:00",
    "delivery_close": "23:00:00",
    "legacy_store_id": "1130308",
    "locationId": "143",
    "brand": "KFC"
  },
  {
    "name": "KFC PETRON HULU LANGAT DT",
    "address": "Lot PT 10881 (HSM 7618) Batu 10, Jalan Hulu Langat 43100 Selangor",
    "city": "",
    "state": "Selangor",
    "postcode": "",
    "country": "MY",
    "lat": "3.07025400",
    "lng": "101.78097400",
    "phone": "0390829164",
    "dinein": "1",
    "drivethru": "0",
    "delivery_open": "10:00:00",
    "delivery_close": "23:00:00",
    "legacy_store_id": "1130811",
    "locationId": "144",
    "brand": "KFC"
  },
  {
    "name": "KFC PETRONAS TECHNOLOGY PARK M'SIA DT",
    "address": "Petronas Bukit Jalil, Lot 762 & Lot PT 7004 HSD 95960 MK Petaling, Bukit Jalil",
    "city": "",
    "state": "Kuala Lumpur",
    "postcode": "",
    "country": "MY",
    "lat": "3.04878800",
    "lng": "101.67943100",
    "phone": "01123479570",
    "dinein": "1",
    "drivethru": "0",
    "delivery_open": "10:00:00",
    "delivery_close": "23:00:00",
    "legacy_store_id": "1130817",
    "locationId": "145",
    "brand": "KFC"
  },
  {
    "name": "KFC SENTUL PERDANA",
    "address": "No 13 (Ground & 1st Floor, SKYWANI COMMERCIAL, Jalan Sentul Perdana, Setapak, 51100 Kuala Lumpur",
    "city": "",
    "state": "Kuala Lumpur",
    "postcode": "",
    "country": "MY",
    "lat": "3.20874600",
    "lng": "101.68999900",
    "phone": "0340317580",
    "dinein": "1",
    "drivethru": "0",
    "delivery_open": "10:00:00",
    "delivery_close": "23:00:00",
    "legacy_store_id": "1130985",
    "locationId": "146",
    "brand": "KFC"
  },
  {
    "name": "KFC SETIA ALAM DT",
    "address": "No 4, Persiaran Setia Impian Bandar Setia Alam, Section U13 Shah Alam 40170 Selangor",
    "city": "",
    "state": "Selangor",
    "postcode": "",
    "country": "MY",
    "lat": "3.10166500",
    "lng": "101.44521900",
    "phone": "0333599608",
    "dinein": "1",
    "drivethru": "0",
    "delivery_open": "08:00:00",
    "delivery_close": "02:00:00",
    "legacy_store_id": "1130731",
    "locationId": "147",
    "brand": "KFC"
  },
  {
    "name": "KFC SEMARAK",
    "address": "Lot 77 & 78, Taman Sejati, Mile 5, Jalan Kuhara, 91000 Kuhara, Tawau",
    "city": "",
    "state": "Sabah",
    "postcode": "",
    "country": "MY",
    "lat": "4.30012900",
    "lng": "117.88512700",
    "phone": "089763669",
    "dinein": "1",
    "drivethru": "0",
    "delivery_open": "10:00:00",
    "delivery_close": "22:00:00",
    "legacy_store_id": "1130467",
    "locationId": "148",
    "brand": "KFC"
  },
  {
    "name": "KFC WANGSA MAJU DT",
    "address": "LOT PT 6878,JLN 8/72A,WANGSA MAJU 53300 KL",
    "city": "",
    "state": "Kuala Lumpur",
    "postcode": "",
    "country": "MY",
    "lat": "3.19739800",
    "lng": "101.74375600",
    "phone": "0341419168",
    "dinein": "1",
    "drivethru": "0",
    "delivery_open": "08:00:00",
    "delivery_close": "23:00:00",
    "legacy_store_id": "1130297",
    "locationId": "149",
    "brand": "KFC"
  },
  {
    "name": "KFC BANDAR ENSTEK NILAI",
    "address": "No. 21 & 22, Jalan Timur 6/1A@Enstek, 71760 Bandar Enstek Nilai, Negeri Sembilan",
    "city": "",
    "state": "Negeri Sembilan",
    "postcode": "",
    "country": "MY",
    "lat": "2.74716500",
    "lng": "101.76389600",
    "phone": "067995431",
    "dinein": "1",
    "drivethru": "0",
    "delivery_open": "11:00:00",
    "delivery_close": "23:00:00",
    "legacy_store_id": "1130862",
    "locationId": "150",
    "brand": "KFC"
  },
  {
    "name": "KFC BESERAH",
    "address": "Lot B-1461, Jalan Beserah 25300 Kuantan",
    "city": "",
    "state": "Pahang",
    "postcode": "",
    "country": "MY",
    "lat": "3.82703600",
    "lng": "103.33848100",
    "phone": "095601061",
    "dinein": "1",
    "drivethru": "0",
    "delivery_open": "10:00:00",
    "delivery_close": "22:00:00",
    "legacy_store_id": "1130920",
    "locationId": "151",
    "brand": "KFC"
  },
  {
    "name": "KFC BHP KAMPAR DT",
    "address": "Lot 303177, Jalan Batu Sinar, Bandar Baru Kampar 31900 Kampar",
    "city": "",
    "state": "Perak",
    "postcode": "",
    "country": "MY",
    "lat": "4.32561000",
    "lng": "101.14787000",
    "phone": "054670236",
    "dinein": "1",
    "drivethru": "0",
    "delivery_open": "09:00:00",
    "delivery_close": "23:59:00",
    "legacy_store_id": "1130935",
    "locationId": "152",
    "brand": "KFC"
  },
  {
    "name": "KFC BHP TG MALIM DT",
    "address": "BHP Petrol Station Lot No 4632, Hulu Bernam Timor, Batang Padang 35900 Perak",
    "city": "",
    "state": "Perak",
    "postcode": "",
    "country": "MY",
    "lat": "3.69532600",
    "lng": "101.51576600",
    "phone": "054582934",
    "dinein": "1",
    "drivethru": "0",
    "delivery_open": "11:00:00",
    "delivery_close": "22:00:00",
    "legacy_store_id": "1130796",
    "locationId": "153",
    "brand": "KFC"
  },
  {
    "name": "KFC BRINCHANG CAMERON HIGHLAND",
    "address": "Brinchang No.1A Ground & 1st Floor, Jalan Besar, Brinchang, Cameron Highlands 39100 Pahang",
    "city": "",
    "state": "Pahang",
    "postcode": "",
    "country": "MY",
    "lat": "4.49136700",
    "lng": "101.38841300",
    "phone": "054851842",
    "dinein": "1",
    "drivethru": "0",
    "delivery_open": "10:00:00",
    "delivery_close": "23:59:00",
    "legacy_store_id": "1130349",
    "locationId": "154",
    "brand": "KFC"
  },
  {
    "name": "KFC BUKIT KEMUNING DT",
    "address": "Lot 1, Prima D33/D, Taman Kemuning Utama, Seksyen 33, 40480 Shah Alam , Selangor",
    "city": "",
    "state": "Kuala Lumpur",
    "postcode": "",
    "country": "MY",
    "lat": "3.02114300",
    "lng": "101.53824200",
    "phone": "0355252317",
    "dinein": "1",
    "drivethru": "0",
    "delivery_open": "10:00:00",
    "delivery_close": "23:00:00",
    "legacy_store_id": "1130750",
    "locationId": "155",
    "brand": "KFC"
  },
  {
    "name": "KFC CALTEX COALFIELDS DT",
    "address": "Caltex Ijok, Bandar Seri Coalfields, Jalan Kuala Selangor 47000 Sungai Buloh",
    "city": "",
    "state": "Selangor",
    "postcode": "",
    "country": "MY",
    "lat": "3.25095700",
    "lng": "101.47126600",
    "phone": "0360876126",
    "dinein": "1",
    "drivethru": "0",
    "delivery_open": "11:00:00",
    "delivery_close": "23:59:00",
    "legacy_store_id": "1130922",
    "locationId": "156",
    "brand": "KFC"
  },
  {
    "name": "KFC DENGKIL",
    "address": "Lot No 9, Delux Business Park, 43800 Dengkil, Selangor",
    "city": "",
    "state": "Selangor",
    "postcode": "",
    "country": "MY",
    "lat": "2.86390400",
    "lng": "101.67579500",
    "phone": "0387688250",
    "dinein": "1",
    "drivethru": "0",
    "delivery_open": "10:00:00",
    "delivery_close": "23:00:00",
    "legacy_store_id": "1130769",
    "locationId": "157",
    "brand": "KFC"
  },
  {
    "name": "KFC DESA AMANPURI",
    "address": "NO 2-25, JALAN DESA 1/1 DESA AMAN PURI,KEPONG 52100 KL",
    "city": "",
    "state": "Selangor",
    "postcode": "",
    "country": "MY",
    "lat": "3.21098900",
    "lng": "101.61642300",
    "phone": "0362638083",
    "dinein": "1",
    "drivethru": "0",
    "delivery_open": "10:00:00",
    "delivery_close": "23:00:00",
    "legacy_store_id": "1130261",
    "locationId": "158",
    "brand": "KFC"
  },
  {
    "name": "KFC GUNUNG RAPAT DT",
    "address": "Lot 36643 Jalan Raja Dr Nazrin Shah, 31350 Ipoh Perak",
    "city": "",
    "state": "Perak",
    "postcode": "",
    "country": "MY",
    "lat": "4.56930600",
    "lng": "101.11429700",
    "phone": "053184348",
    "dinein": "1",
    "drivethru": "0",
    "delivery_open": "08:00:00",
    "delivery_close": "04:00:00",
    "legacy_store_id": "1130161",
    "locationId": "159",
    "brand": "KFC"
  },
  {
    "name": "KFC INDERA MAHKOTA DT",
    "address": "Lot PT118445, Mukim Kuala Kuantan, Indera Mahkota, Daerah Kuantan",
    "city": "",
    "state": "Pahang",
    "postcode": "",
    "country": "MY",
    "lat": "3.82520200",
    "lng": "103.30507700",
    "phone": "095751948",
    "dinein": "1",
    "drivethru": "0",
    "delivery_open": "10:00:00",
    "delivery_close": "03:00:00",
    "legacy_store_id": "1130881",
    "locationId": "160",
    "brand": "KFC"
  },
  {
    "name": "KFC KEPONG 2 - DRIVE THRU",
    "address": "No. 15144, Jalan Kepong, Batu 6 1/2, 52100 KL",
    "city": "",
    "state": "Kuala Lumpur",
    "postcode": "",
    "country": "MY",
    "lat": "3.21300800",
    "lng": "101.64370100",
    "phone": "0362627490",
    "dinein": "1",
    "drivethru": "0",
    "delivery_open": "08:00:00",
    "delivery_close": "02:00:00",
    "legacy_store_id": "1130265",
    "locationId": "161",
    "brand": "KFC"
  },
  {
    "name": "KFC KLANG 1",
    "address": "No 24, Jalan Taiping Klang 41400 Selangor",
    "city": "",
    "state": "Selangor",
    "postcode": "",
    "country": "MY",
    "lat": "3.04944300",
    "lng": "101.44758900",
    "phone": "0333623036",
    "dinein": "1",
    "drivethru": "0",
    "delivery_open": "10:00:00",
    "delivery_close": "23:00:00",
    "legacy_store_id": "1130043",
    "locationId": "162",
    "brand": "KFC"
  },
  {
    "name": "KFC KOTA SYAHBANDAR",
    "address": "No 45, 45-1 Ground & 1st Floor, Jalan KBS 11, Kota Syahbandar, 75200 Melaka",
    "city": "",
    "state": "Melaka",
    "postcode": "",
    "country": "MY",
    "lat": "2.19528300",
    "lng": "102.23520100",
    "phone": "062889548",
    "dinein": "1",
    "drivethru": "0",
    "delivery_open": "10:00:00",
    "delivery_close": "23:00:00",
    "legacy_store_id": "1130981",
    "locationId": "163",
    "brand": "KFC"
  },
  {
    "name": "KFC KUCHAI LAMA DT",
    "address": "Lot 14083, Jalan Kuchai Lama 58200 KL",
    "city": "",
    "state": "Kuala Lumpur",
    "postcode": "",
    "country": "MY",
    "lat": "3.09250600",
    "lng": "101.68611100",
    "phone": "0379714494",
    "dinein": "1",
    "drivethru": "0",
    "delivery_open": "08:00:00",
    "delivery_close": "23:00:00",
    "legacy_store_id": "1130013",
    "locationId": "164",
    "brand": "KFC"
  },
  {
    "name": "KFC MALIM JAYA",
    "address": "No. 9, Jalan PPM 9, Plaza Pandan-Malim Business Park Balai Panjang 75250 Melaka.",
    "city": "",
    "state": "Melaka",
    "postcode": "",
    "country": "MY",
    "lat": "2.22951800",
    "lng": "102.22727600",
    "phone": "063359402",
    "dinein": "1",
    "drivethru": "0",
    "delivery_open": "10:00:00",
    "delivery_close": "22:00:00",
    "legacy_store_id": "1130223",
    "locationId": "165",
    "brand": "KFC"
  },
  {
    "name": "KFC MERLIMAU DT",
    "address": "Lot 6497 Mukim Merlimau 77300 Jasin, Melaka",
    "city": "",
    "state": "Melaka",
    "postcode": "",
    "country": "MY",
    "lat": "2.16547300",
    "lng": "102.43068100",
    "phone": "062636804",
    "dinein": "1",
    "drivethru": "0",
    "delivery_open": "10:00:00",
    "delivery_close": "23:00:00",
    "legacy_store_id": "1130822",
    "locationId": "166",
    "brand": "KFC"
  },
  {
    "name": "KFC MERU RAYA DT",
    "address": "Lot PT 241415, Medan Meru Bistari, Bandar Meru Raya, Mukim Hulu Kinta, 30020 Daerah Kinta Perak",
    "city": "",
    "state": "Perak",
    "postcode": "",
    "country": "MY",
    "lat": "4.67246200",
    "lng": "101.07583100",
    "phone": "055297452",
    "dinein": "1",
    "drivethru": "0",
    "delivery_open": "09:00:00",
    "delivery_close": "02:00:00",
    "legacy_store_id": "1130866",
    "locationId": "167",
    "brand": "KFC"
  },
  {
    "name": "KFC PETRON BUKIT KATIL DT",
    "address": "Lot 4984, Jalan Tun Hamzah, Mukim Bukit Katil, 75450 Melaka Tengah",
    "city": "",
    "state": "Melaka",
    "postcode": "",
    "country": "MY",
    "lat": "2.23551200",
    "lng": "102.30190800",
    "phone": "062349073",
    "dinein": "1",
    "drivethru": "0",
    "delivery_open": "10:00:00",
    "delivery_close": "23:59:00",
    "legacy_store_id": "1130963",
    "locationId": "168",
    "brand": "KFC"
  },
  {
    "name": "KFC PETRONAS METRAMAC DT",
    "address": "Lot 56441, HS (D) 11375 PT7424 Jalan cheras 56100 Kuala Lumpur Wilayah Persekutuan",
    "city": "",
    "state": "Kuala Lumpur",
    "postcode": "",
    "country": "MY",
    "lat": "3.10546900",
    "lng": "101.73242800",
    "phone": "0391338500",
    "dinein": "1",
    "drivethru": "0",
    "delivery_open": "08:00:00",
    "delivery_close": "23:00:00",
    "legacy_store_id": "1130831",
    "locationId": "169",
    "brand": "KFC"
  },
  {
    "name": "KFC PORT DICKSON DT",
    "address": "Lot 2636 and 2641, Batu 4, 71000 Port Dickson",
    "city": "",
    "state": "Negeri Sembilan",
    "postcode": "",
    "country": "MY",
    "lat": "2.50450800",
    "lng": "101.83542900",
    "phone": "01123479457",
    "dinein": "1",
    "drivethru": "0",
    "delivery_open": "11:00:00",
    "delivery_close": "23:00:00",
    "legacy_store_id": "1130895",
    "locationId": "170",
    "brand": "KFC"
  },
  {
    "name": "KFC SEGAMAT DT",
    "address": "Lot 2690, Jalan Segamat Kuantan 85000 Segamat",
    "city": "",
    "state": "Johor",
    "postcode": "",
    "country": "MY",
    "lat": "2.54660500",
    "lng": "102.79329900",
    "phone": "079710012",
    "dinein": "1",
    "drivethru": "0",
    "delivery_open": "10:00:00",
    "delivery_close": "23:00:00",
    "legacy_store_id": "1130943",
    "locationId": "171",
    "brand": "KFC"
  },
  {
    "name": "KFC SHELL BANDAR PINGGIRAN PUTRA DT",
    "address": "Shell Petrol Station, Lot 64880, Jalan Putra Permai, Bandar Pinggiran Putra 43300 Seri Kembangan",
    "city": "",
    "state": "Selangor",
    "postcode": "",
    "country": "MY",
    "lat": "2.98861800",
    "lng": "101.67055500",
    "phone": "01123478798",
    "dinein": "1",
    "drivethru": "0",
    "delivery_open": "10:00:00",
    "delivery_close": "23:00:00",
    "legacy_store_id": "1130931",
    "locationId": "172",
    "brand": "KFC"
  },
  {
    "name": "KFC SRI ISKANDAR PERAK DT",
    "address": "Lot HS (D) 12038 PT 11378 Mukim Bota Daerah Perak",
    "city": "",
    "state": "Perak",
    "postcode": "",
    "country": "MY",
    "lat": "4.36676000",
    "lng": "100.98014500",
    "phone": "01123479573",
    "dinein": "1",
    "drivethru": "0",
    "delivery_open": "09:00:00",
    "delivery_close": "23:59:00",
    "legacy_store_id": "1130838",
    "locationId": "173",
    "brand": "KFC"
  },
  {
    "name": "KFC SRI SERDANG",
    "address": "Ground Floor, No:13G, Jln 18/35, Tmn Sri Serdang, Phase 8, Sri Kembangan 43300 Selangor",
    "city": "",
    "state": "Selangor",
    "postcode": "",
    "country": "MY",
    "lat": "3.00809600",
    "lng": "101.71353500",
    "phone": "0389585602",
    "dinein": "1",
    "drivethru": "0",
    "delivery_open": "10:00:00",
    "delivery_close": "23:00:00",
    "legacy_store_id": "1130156",
    "locationId": "174",
    "brand": "KFC"
  },
  {
    "name": "KFC SUNWAY TAMBUN",
    "address": "No. 2, Persiaran SCI 2/1, Sunway City Ipoh 31150 Ipoh",
    "city": "",
    "state": "Perak",
    "postcode": "",
    "country": "MY",
    "lat": "4.62168400",
    "lng": "101.14897200",
    "phone": "055496873",
    "dinein": "1",
    "drivethru": "0",
    "delivery_open": "09:00:00",
    "delivery_close": "00:00:00",
    "legacy_store_id": "1130945",
    "locationId": "175",
    "brand": "KFC"
  },
  {
    "name": "KFC TAMAN SRI MUDA",
    "address": "No. 68 Jalan 25/62 Taman Sri Muda Shah Alam 40000 Selangor",
    "city": "",
    "state": "Selangor",
    "postcode": "",
    "country": "MY",
    "lat": "3.03196600",
    "lng": "101.53497300",
    "phone": "0351314296",
    "dinein": "1",
    "drivethru": "0",
    "delivery_open": "10:00:00",
    "delivery_close": "22:00:00",
    "legacy_store_id": "1130257",
    "locationId": "176",
    "brand": "KFC"
  },
  {
    "name": "KFC TASEK IPOH DT",
    "address": "Lot PT 217643, Jalan Kuala Kangsar,Taman Tasek Mutiara 31400 Ipoh, Perak",
    "city": "",
    "state": "Perak",
    "postcode": "",
    "country": "MY",
    "lat": "4.65374900",
    "lng": "101.10758300",
    "phone": "052910832",
    "dinein": "1",
    "drivethru": "0",
    "delivery_open": "09:00:00",
    "delivery_close": "00:00:00",
    "legacy_store_id": "1130779",
    "locationId": "177",
    "brand": "KFC"
  },
  {
    "name": "KFC TELUK INTAN DT",
    "address": "Lot 1789, Daerah Hilir Perak, Bandar Teluk Intan 36000 Perak",
    "city": "",
    "state": "Perak",
    "postcode": "",
    "country": "MY",
    "lat": "4.00075800",
    "lng": "101.01033200",
    "phone": "056223897",
    "dinein": "1",
    "drivethru": "0",
    "delivery_open": "10:00:00",
    "delivery_close": "23:00:00",
    "legacy_store_id": "1130818",
    "locationId": "178",
    "brand": "KFC"
  },
  {
    "name": "KFC TEMERLOH DT",
    "address": "Lot 266, Jalan Chengal Baru, 1/1 Pusat Perniagaan Chengal 28000 Temerloh, Pahang",
    "city": "",
    "state": "Pahang",
    "postcode": "",
    "country": "MY",
    "lat": "3.46606000",
    "lng": "102.39098100",
    "phone": "092969064",
    "dinein": "1",
    "drivethru": "0",
    "delivery_open": "10:00:00",
    "delivery_close": "22:00:00",
    "legacy_store_id": "1130808",
    "locationId": "179",
    "brand": "KFC"
  },
  {
    "name": "KFC AMAN JAYA DT",
    "address": "Lot 819, Seksyen 64, Bandar Aman Jaya 09000 Sungai Petani",
    "city": "",
    "state": "Kedah",
    "postcode": "",
    "country": "MY",
    "lat": "5.67022400",
    "lng": "100.50770100",
    "phone": "044423894",
    "dinein": "1",
    "drivethru": "0",
    "delivery_open": "11:00:00",
    "delivery_close": "04:00:00",
    "legacy_store_id": "1130957",
    "locationId": "180",
    "brand": "KFC"
  },
  {
    "name": "KFC BERTAM DT",
    "address": "Lot No. 22529, Jalan Bertam Mukim 6, 13200 Kepala Batas, Seberang Prai Utara",
    "city": "",
    "state": "Penang",
    "postcode": "",
    "country": "MY",
    "lat": "5.51718000",
    "lng": "100.44420000",
    "phone": "045767898",
    "dinein": "1",
    "drivethru": "0",
    "delivery_open": "10:00:00",
    "delivery_close": "05:00:00",
    "legacy_store_id": "1130933",
    "locationId": "182",
    "brand": "KFC"
  },
  {
    "name": "KFC BUKIT MERTAJAM DT",
    "address": "Lot 10019, Mukim 10, Jln Song Ban Kheng, Bukit Mertajam, Seberang Prai Tengah, Pulau Pinang",
    "city": "",
    "state": "Penang",
    "postcode": "",
    "country": "MY",
    "lat": "5.35065800",
    "lng": "100.46025800",
    "phone": "045302309",
    "dinein": "1",
    "drivethru": "0",
    "delivery_open": "10:00:00",
    "delivery_close": "23:00:00",
    "legacy_store_id": "1130832",
    "locationId": "183",
    "brand": "KFC"
  },
  {
    "name": "KFC CALTEX ALOR MENGKUDU DT",
    "address": "Lot 13883, Caltex Petrol Station, Jalan Alor Mengkudu 05400 Alor Star, Kedah",
    "city": "",
    "state": "Kedah",
    "postcode": "",
    "country": "MY",
    "lat": "6.09659900",
    "lng": "100.37513800",
    "phone": "047352920",
    "dinein": "1",
    "drivethru": "0",
    "delivery_open": "08:00:00",
    "delivery_close": "23:00:00",
    "legacy_store_id": "1130857",
    "locationId": "184",
    "brand": "KFC"
  },
  {
    "name": "KFC GREENLANE PULAU PINANG DT",
    "address": "Lot 559 Jalan Masjid Negeri, Greenlane 11500 Penang",
    "city": "",
    "state": "Penang",
    "postcode": "",
    "country": "MY",
    "lat": "5.40518300",
    "lng": "100.30305200",
    "phone": "046380454",
    "dinein": "1",
    "drivethru": "0",
    "delivery_open": "10:00:00",
    "delivery_close": "02:00:00",
    "legacy_store_id": "1130836",
    "locationId": "187",
    "brand": "KFC"
  },
  {
    "name": "KFC JALAN BARU DT",
    "address": "Lot No. 671, Mukim 6, Jalan Baru, Seberang Perai Tengah 14000 Bukit Mertajam",
    "city": "",
    "state": "Penang",
    "postcode": "",
    "country": "MY",
    "lat": "5.36889900",
    "lng": "100.41816300",
    "phone": "043830793",
    "dinein": "1",
    "drivethru": "0",
    "delivery_open": "11:00:00",
    "delivery_close": "23:59:00",
    "legacy_store_id": "1130888",
    "locationId": "188",
    "brand": "KFC"
  },
  {
    "name": "KFC JERTEH",
    "address": "No 463, Lot 369, Jalan Besar, 22000 Jerteh, Terengganu",
    "city": "",
    "state": "Terengganu",
    "postcode": "",
    "country": "MY",
    "lat": "5.73805900",
    "lng": "102.49598200",
    "phone": "096400032",
    "dinein": "1",
    "drivethru": "0",
    "delivery_open": "10:00:00",
    "delivery_close": "23:00:00",
    "legacy_store_id": "1130334",
    "locationId": "189",
    "brand": "KFC"
  },
  {
    "name": "KFC JURU AUTO CITY",
    "address": "Drive Thru Auto City Juru, Unit 10, Highway Auto, North South Highway, Juru Interchange, Prai 13600 Pulau Pinang",
    "city": "",
    "state": "Penang",
    "postcode": "",
    "country": "MY",
    "lat": "5.33741500",
    "lng": "100.42953300",
    "phone": "045054171",
    "dinein": "1",
    "drivethru": "0",
    "delivery_open": "10:00:00",
    "delivery_close": "23:00:00",
    "legacy_store_id": "1130345",
    "locationId": "190",
    "brand": "KFC"
  },
  {
    "name": "KFC KEMAMAN",
    "address": "K 53, Business Centre, Kemaman Centre Point, Jalan Lebai Saras, 24000 Cukai, Kemaman (3-Storey Corner Shophouse)",
    "city": "",
    "state": "Terengganu",
    "postcode": "",
    "country": "MY",
    "lat": "4.23277800",
    "lng": "103.42391700",
    "phone": "098591023",
    "dinein": "1",
    "drivethru": "0",
    "delivery_open": "10:00:00",
    "delivery_close": "23:00:00",
    "legacy_store_id": "1130007",
    "locationId": "191",
    "brand": "KFC"
  },
  {
    "name": "KFC KUALA TERENGGANU",
    "address": "Kompleks Kolam Renang, Majlis Perbandaran Kuala Terengganu, Pantai Batu Buruk, 20400 Kuala Terengganu",
    "city": "",
    "state": "Terengganu",
    "postcode": "",
    "country": "MY",
    "lat": "5.32480300",
    "lng": "103.15254300",
    "phone": "09-6305630",
    "dinein": "1",
    "drivethru": "0",
    "delivery_open": "10:00:00",
    "delivery_close": "03:00:00",
    "legacy_store_id": "1130111",
    "locationId": "193",
    "brand": "KFC"
  },
  {
    "name": "KFC KUBANG KERIAN DT",
    "address": "Lot 2100, Jln Raja Perempuan Zainab 2, Kubang Kerian, 16150 Kota Baru, Kelantan",
    "city": "",
    "state": "Kelantan",
    "postcode": "",
    "country": "MY",
    "lat": "6.09178900",
    "lng": "102.27640500",
    "phone": "097124578",
    "dinein": "1",
    "drivethru": "0",
    "delivery_open": "00:00:00",
    "delivery_close": "23:59:59",
    "legacy_store_id": "1130357",
    "locationId": "194",
    "brand": "KFC"
  },
  {
    "name": "KFC LIMBONG KAPAL DT",
    "address": "Lot 310, Jalan Limbong Kapal Alor Star 05460 Kedah",
    "city": "",
    "state": "Kedah",
    "postcode": "",
    "country": "MY",
    "lat": "6.11610200",
    "lng": "100.36684300",
    "phone": "047339240",
    "dinein": "1",
    "drivethru": "0",
    "delivery_open": "12:00:00",
    "delivery_close": "22:00:00",
    "legacy_store_id": "1130398",
    "locationId": "195",
    "brand": "KFC"
  },
  {
    "name": "KFC MARANG",
    "address": "Lot 8990, Ground & 1st Floor 21600 Marang",
    "city": "",
    "state": "Terengganu",
    "postcode": "",
    "country": "MY",
    "lat": "5.20733300",
    "lng": "103.20636100",
    "phone": "096184759",
    "dinein": "1",
    "drivethru": "0",
    "delivery_open": "10:00:00",
    "delivery_close": "23:00:00",
    "legacy_store_id": "1130814",
    "locationId": "196",
    "brand": "KFC"
  },
  {
    "name": "KFC PETRONAS SEBERANG JAYA DT",
    "address": "Petronas Service Station ( PPS Bandar Sunway ) Lot 5494 / 5729, Mukim 1, Bandar Sunway, Seberang Jaya, Prai 13700 Pulau Pinang",
    "city": "",
    "state": "Penang",
    "postcode": "",
    "country": "MY",
    "lat": "5.40001400",
    "lng": "100.39977400",
    "phone": "043985643",
    "dinein": "1",
    "drivethru": "0",
    "delivery_open": "08:00:00",
    "delivery_close": "04:00:00",
    "legacy_store_id": "1130323",
    "locationId": "198",
    "brand": "KFC"
  },
  {
    "name": "KFC RAJA UDA BUTTERWORTH",
    "address": "No: 62 & 64,Ground Floor, Jalan Raja Uda, 12300 Butterworth, Pulau Pinang.",
    "city": "",
    "state": "Penang",
    "postcode": "",
    "country": "MY",
    "lat": "5.41656000",
    "lng": "100.37998000",
    "phone": "043136199",
    "dinein": "1",
    "drivethru": "0",
    "delivery_open": "10:00:00",
    "delivery_close": "23:00:00",
    "legacy_store_id": "1130725",
    "locationId": "199",
    "brand": "KFC"
  },
  {
    "name": "KFC SIMPANG TAIPING DT",
    "address": "Lot No. 648, District Larut & Matang, Pekan Simpang Perak 34700 Perak",
    "city": "",
    "state": "Perak",
    "postcode": "",
    "country": "MY",
    "lat": "4.82033000",
    "lng": "100.70659000",
    "phone": "058492406",
    "dinein": "1",
    "drivethru": "0",
    "delivery_open": "10:00:00",
    "delivery_close": "23:00:00",
    "legacy_store_id": "1130806",
    "locationId": "201",
    "brand": "KFC"
  },
  {
    "name": "KFC STADIUM KOTA BARU DT",
    "address": "Sec 12, Bandar Kota Bahru, 15200 Jajahan Kota Bahru Kelantan",
    "city": "",
    "state": "Kelantan",
    "postcode": "",
    "country": "MY",
    "lat": "6.12221900",
    "lng": "102.24400000",
    "phone": "097449056",
    "dinein": "1",
    "drivethru": "0",
    "delivery_open": "00:00:00",
    "delivery_close": "23:59:00",
    "legacy_store_id": "1130798",
    "locationId": "202",
    "brand": "KFC"
  },
  {
    "name": "KFC BANDAR PUTERI DT SG PETANI",
    "address": "Lot 70276 (47452), Fasa 4 Bandar Puteri Jaya, Mukim Sungai Petani, 08000 Sungai Petani, Kedah Darul Aman.",
    "city": "",
    "state": "Kedah",
    "postcode": "",
    "country": "MY",
    "lat": "5.62159200",
    "lng": "100.53957100",
    "phone": "044218031",
    "dinein": "1",
    "drivethru": "0",
    "delivery_open": "10:00:00",
    "delivery_close": "22:00:00",
    "legacy_store_id": "1130807",
    "locationId": "203",
    "brand": "KFC"
  },
  {
    "name": "KFC TANAH MERAH",
    "address": "No 509, Jln Taman Hiburan, '17500 Tanah Merah,",
    "city": "",
    "state": "Kelantan",
    "postcode": "",
    "country": "MY",
    "lat": "5.80652500",
    "lng": "102.14765000",
    "phone": "099554648",
    "dinein": "1",
    "drivethru": "0",
    "delivery_open": "15:00:00",
    "delivery_close": "23:00:00",
    "legacy_store_id": "1130210",
    "locationId": "204",
    "brand": "KFC"
  },
  {
    "name": "KFC TANJUNG TOKONG DT",
    "address": "No. 10-8-01 Presint 10, Jalan Tanjung Tokong 10470 Tanjung Tokong",
    "city": "",
    "state": "Penang",
    "postcode": "",
    "country": "MY",
    "lat": "5.44950700",
    "lng": "100.30558800",
    "phone": "048909663",
    "dinein": "1",
    "drivethru": "0",
    "delivery_open": "10:00:00",
    "delivery_close": "02:00:00",
    "legacy_store_id": "1130879",
    "locationId": "205",
    "brand": "KFC"
  },
  {
    "name": "KFC KANGAR",
    "address": "No 17, Jalan Bukit Lagi, Kangar 01000 Perlis",
    "city": "",
    "state": "Perlis",
    "postcode": "",
    "country": "MY",
    "lat": "6.43599100",
    "lng": "100.19402200",
    "phone": "049799846",
    "dinein": "1",
    "drivethru": "0",
    "delivery_open": "12:00:00",
    "delivery_close": "23:59:00",
    "legacy_store_id": "1130096",
    "locationId": "206",
    "brand": "KFC"
  },
  {
    "name": "KFC JERANTUT",
    "address": "1758, Jalan Dewangsa , Bandar Baru Jerantut,  Jerantut 27000 Pahang",
    "city": "",
    "state": "Pahang",
    "postcode": "",
    "country": "MY",
    "lat": "3.93728500",
    "lng": "102.36045900",
    "phone": "092668152",
    "dinein": "1",
    "drivethru": "0",
    "delivery_open": "10:00:00",
    "delivery_close": "23:00:00",
    "legacy_store_id": "1130134",
    "locationId": "207",
    "brand": "KFC"
  },
  {
    "name": "KFC PEKAN",
    "address": "G-04, G05 Bangunan UMNO Bahagian Pekan Jalan Tengku Arif Bendahara Pekan 26600 Pahang",
    "city": "",
    "state": "Pahang",
    "postcode": "",
    "country": "MY",
    "lat": "3.49251200",
    "lng": "103.39205300",
    "phone": "092750012",
    "dinein": "0",
    "drivethru": "0",
    "delivery_open": "11:00:00",
    "delivery_close": "21:00:00",
    "legacy_store_id": "1130153",
    "locationId": "208",
    "brand": "KFC"
  },
  {
    "name": "KFC PERMAS JAYA",
    "address": "No 1,1-01, 1-02 & 1-03 Jln Permas 10/1 Bandar Baru Permas Jaya 81750 Johor Bahru",
    "city": "",
    "state": "Johor",
    "postcode": "",
    "country": "MY",
    "lat": "1.49826000",
    "lng": "103.81599300",
    "phone": "073825928",
    "dinein": "1",
    "drivethru": "0",
    "delivery_open": "10:00:00",
    "delivery_close": "23:00:00",
    "legacy_store_id": "1130175",
    "locationId": "209",
    "brand": "KFC"
  },
  {
    "name": "KFC TAMAN MOLEK",
    "address": "No 21 Jalan Molek 1/29 Taman Molek Johor Bahru",
    "city": "",
    "state": "Johor",
    "postcode": "",
    "country": "MY",
    "lat": "1.52419600",
    "lng": "103.78600300",
    "phone": "073504835",
    "dinein": "1",
    "drivethru": "0",
    "delivery_open": "10:30:00",
    "delivery_close": "22:00:00",
    "legacy_store_id": "1130355",
    "locationId": "210",
    "brand": "KFC"
  },
  {
    "name": "KFC ECO MALL PETRA JAYA",
    "address": "Lot No. G2 & G3, Giant Hypermarket Petra Jaya, Lot No. 5688 & 10166, Section No. 65, District of Kuching Town Land, 93050 Kuching, Sarawak.",
    "city": "",
    "state": "Sarawak",
    "postcode": "",
    "country": "MY",
    "lat": "1.58240400",
    "lng": "110.33168800",
    "phone": "082447465",
    "dinein": "1",
    "drivethru": "0",
    "delivery_open": "10:00:00",
    "delivery_close": "22:00:00",
    "legacy_store_id": "1130557",
    "locationId": "211",
    "brand": "KFC"
  },
  {
    "name": "KFC BANDAR MUADZAM SHAH",
    "address": "Lot No 37 Blok C, Bandar Satelit Muadzam Shah Kuantan Pahang",
    "city": "",
    "state": "Pahang",
    "postcode": "",
    "country": "MY",
    "lat": "3.06980000",
    "lng": "103.06950000",
    "phone": "094521694",
    "dinein": "1",
    "drivethru": "0",
    "delivery_open": "12:00:00",
    "delivery_close": "23:59:00",
    "legacy_store_id": "1130826",
    "locationId": "212",
    "brand": "KFC"
  },
  {
    "name": "KFC TRIANG DT",
    "address": "PT 25216 Mukim Triang Daerah Bera 28200 Triang Pahang",
    "city": "",
    "state": "Pahang",
    "postcode": "",
    "country": "MY",
    "lat": "3.25866600",
    "lng": "102.43461400",
    "phone": "092541350",
    "dinein": "1",
    "drivethru": "0",
    "delivery_open": "12:00:00",
    "delivery_close": "23:59:00",
    "legacy_store_id": "1130844",
    "locationId": "213",
    "brand": "KFC"
  },
  {
    "name": "KFC PUTERI WANGSA DT",
    "address": "Lot PTD 113519, Taman Puteri Wangsa, Mukim Tebrau, Daerah Johor Bahru 81800 Johor Bahru",
    "city": "",
    "state": "Johor",
    "postcode": "",
    "country": "MY",
    "lat": "1.57390400",
    "lng": "103.81436500",
    "phone": "078624631",
    "dinein": "1",
    "drivethru": "0",
    "delivery_open": "10:00:00",
    "delivery_close": "23:00:00",
    "legacy_store_id": "1130850",
    "locationId": "214",
    "brand": "KFC"
  },
  {
    "name": "KFC SHELL MOUNT AUSTIN DT",
    "address": "Jalan Mutiara Emas Utama, Taman Austin Perdana 81100 Johor Bahru",
    "city": "",
    "state": "Johor",
    "postcode": "",
    "country": "MY",
    "lat": "1.54733300",
    "lng": "103.78683000",
    "phone": "073517957",
    "dinein": "1",
    "drivethru": "0",
    "delivery_open": "11:00:00",
    "delivery_close": "23:00:00",
    "legacy_store_id": "1130947",
    "locationId": "215",
    "brand": "KFC"
  },
  {
    "name": "KFC KOTA TINGGI",
    "address": "No 37, Jln Mawai Ground & First Floor 81900 Kota Tinggi",
    "city": "",
    "state": "Johor",
    "postcode": "",
    "country": "MY",
    "lat": "1.73097700",
    "lng": "103.90141800",
    "phone": "078839496",
    "dinein": "1",
    "drivethru": "0",
    "delivery_open": "10:00:00",
    "delivery_close": "23:00:00",
    "legacy_store_id": "1130003",
    "locationId": "216",
    "brand": "KFC"
  },
  {
    "name": "KFC SEGAMAT",
    "address": "No. 150 & 151, Jln Sia Her Yam 85000 Segamat",
    "city": "",
    "state": "Johor",
    "postcode": "",
    "country": "MY",
    "lat": "2.50406100",
    "lng": "102.82274100",
    "phone": "079064760",
    "dinein": "1",
    "drivethru": "0",
    "delivery_open": "10:00:00",
    "delivery_close": "02:00:00",
    "legacy_store_id": "1130040",
    "locationId": "217",
    "brand": "KFC"
  },
  {
    "name": "KFC PORT DICKSON",
    "address": "No1, Jalan Aman, Kawasan Penambakan Laut, Bandar Port Dickson, 71009 Negeri Sembilan",
    "city": "",
    "state": "Negeri Sembilan",
    "postcode": "",
    "country": "MY",
    "lat": "2.52294300",
    "lng": "101.79695700",
    "phone": "066462402",
    "dinein": "1",
    "drivethru": "0",
    "delivery_open": "11:00:00",
    "delivery_close": "23:00:00",
    "legacy_store_id": "1130085",
    "locationId": "218",
    "brand": "KFC"
  },
  {
    "name": "KFC KULAI",
    "address": "No 152 & 153 Jalan Susur 3 81000 Kulai",
    "city": "",
    "state": "Johor",
    "postcode": "",
    "country": "MY",
    "lat": "1.65944300",
    "lng": "103.60590000",
    "phone": "06076639529",
    "dinein": "1",
    "drivethru": "0",
    "delivery_open": "10:00:00",
    "delivery_close": "22:00:00",
    "legacy_store_id": "1130106",
    "locationId": "219",
    "brand": "KFC"
  },
  {
    "name": "KFC Tun Aminah",
    "address": "66 Jalan Perwira Satu, Taman Ungku Tun Aminah 8 1/2 Miles Skudai 81300 Johor Bahru",
    "city": "",
    "state": "Johor",
    "postcode": "",
    "country": "MY",
    "lat": "1.52386200",
    "lng": "103.66440700",
    "phone": "075114434",
    "dinein": "1",
    "drivethru": "0",
    "delivery_open": "10:00:00",
    "delivery_close": "23:00:00",
    "legacy_store_id": "1130120",
    "locationId": "220",
    "brand": "KFC"
  },
  {
    "name": "KFC KUALA PILAH",
    "address": "No. 907, Jalan Raja Melewar, 72000 Kuala Pilah, Negeri Sembilan",
    "city": "",
    "state": "Negeri Sembilan",
    "postcode": "",
    "country": "MY",
    "lat": "2.73726400",
    "lng": "102.24615200",
    "phone": "064815260",
    "dinein": "1",
    "drivethru": "0",
    "delivery_open": "11:00:00",
    "delivery_close": "23:59:00",
    "legacy_store_id": "1130191",
    "locationId": "221",
    "brand": "KFC"
  },
  {
    "name": "KFC DAMANSARA ALIFF DT",
    "address": "Lot 413 Jalan Tampoi / Damansara Aliff, Taman Damansara Aliff, 81200 Johor Bahru",
    "city": "",
    "state": "Johor",
    "postcode": "",
    "country": "MY",
    "lat": "1.51028700",
    "lng": "103.72473200",
    "phone": "072320468",
    "dinein": "1",
    "drivethru": "0",
    "delivery_open": "11:00:00",
    "delivery_close": "23:00:00",
    "legacy_store_id": "1130710",
    "locationId": "222",
    "brand": "KFC"
  },
  {
    "name": "KFC LOTUSS CHENG",
    "address": "Lot No G14 & G15, No.1 Jalan Inang 3, Taman Paya Rumput Utama, 75400 Melaka.",
    "city": "",
    "state": "Melaka",
    "postcode": "",
    "country": "MY",
    "lat": "2.28160200",
    "lng": "102.21581800",
    "phone": "062250036",
    "dinein": "1",
    "drivethru": "0",
    "delivery_open": "11:00:00",
    "delivery_close": "21:00:00",
    "legacy_store_id": "1130759",
    "locationId": "224",
    "brand": "KFC"
  },
  {
    "name": "KFC SENAI IMPIAN DT",
    "address": "PTD 103231 Taman Impian Senai Mukim Senai Daerah Kulai Jaya 81400 Johor",
    "city": "",
    "state": "Johor",
    "postcode": "",
    "country": "MY",
    "lat": "1.59345200",
    "lng": "103.64725000",
    "phone": "075970007",
    "dinein": "1",
    "drivethru": "0",
    "delivery_open": "10:30:00",
    "delivery_close": "23:00:00",
    "legacy_store_id": "1130824",
    "locationId": "225",
    "brand": "KFC"
  },
  {
    "name": "KFC TAMAN TAS KUANTAN",
    "address": "No. A1, Ground to 2nd Floor, Lorong Pandan Damai 2/2, Taman Pandan Permai, Batu 7, Taman Tas 26070 Kuantan",
    "city": "",
    "state": "Pahang",
    "postcode": "",
    "country": "MY",
    "lat": "3.77056200",
    "lng": "103.23220800",
    "phone": "09-539 3091",
    "dinein": "1",
    "drivethru": "0",
    "delivery_open": "10:00:00",
    "delivery_close": "22:00:00",
    "legacy_store_id": "1130873",
    "locationId": "226",
    "brand": "KFC"
  },
  {
    "name": "KFC SHELL SIMPANG RENGGAM DT",
    "address": "SHELL GAS STATION AT LOT NO. 794, GM 399, Mukim Renggam, Daerah Kluang, 86200 Simpang Renggam Johor Darul Takzim",
    "city": "",
    "state": "Johor",
    "postcode": "",
    "country": "MY",
    "lat": "1.82153400",
    "lng": "103.31586300",
    "phone": "077230010",
    "dinein": "1",
    "drivethru": "0",
    "delivery_open": "11:00:00",
    "delivery_close": "23:00:00",
    "legacy_store_id": "1130875",
    "locationId": "227",
    "brand": "KFC"
  },
  {
    "name": "KFC KOTA WARISAN DT",
    "address": "Lot No, DT01 & DT01AA, Kota Warisan Salak Tinggi 43900 Sepang",
    "city": "",
    "state": "Selangor",
    "postcode": "",
    "country": "MY",
    "lat": "2.82327500",
    "lng": "101.69439800",
    "phone": "0387066259",
    "dinein": "1",
    "drivethru": "0",
    "delivery_open": "10:00:00",
    "delivery_close": "23:00:00",
    "legacy_store_id": "1130944",
    "locationId": "228",
    "brand": "KFC"
  },
  {
    "name": "KFC SIBU BUS TERMINAL",
    "address": "Lot 6190 & 6191, Block 10, Seduan Land District, Off Jalan Pahlawan, 96000 Sibu.",
    "city": "",
    "state": "Sarawak",
    "postcode": "",
    "country": "MY",
    "lat": "2.30444300",
    "lng": "111.85011600",
    "phone": "084250843",
    "dinein": "1",
    "drivethru": "0",
    "delivery_open": "10:00:00",
    "delivery_close": "22:00:00",
    "legacy_store_id": "1130553",
    "locationId": "229",
    "brand": "KFC"
  },
  {
    "name": "KFC SEMENYIH VISTA VALLEY",
    "address": "1 & 2 Ground Floor, Semenyih Vista Valley, 43500 Semenyih, Selangor",
    "city": "",
    "state": "Selangor",
    "postcode": "",
    "country": "MY",
    "lat": "2.95802700",
    "lng": "101.84058400",
    "phone": "0387242103",
    "dinein": "1",
    "drivethru": "0",
    "delivery_open": "10:00:00",
    "delivery_close": "23:00:00",
    "legacy_store_id": "1130998",
    "locationId": "230",
    "brand": "KFC"
  },
  {
    "name": "KFC BATU KAWAH",
    "address": "BD 106, Batu Kawah New Township, Jln Batu Kawa, 93250 Kuching.",
    "city": "",
    "state": "Sarawak",
    "postcode": "",
    "country": "MY",
    "lat": "1.51317000",
    "lng": "110.30866000",
    "phone": "082450420",
    "dinein": "1",
    "drivethru": "0",
    "delivery_open": "10:00:00",
    "delivery_close": "22:00:00",
    "legacy_store_id": "1130523",
    "locationId": "231",
    "brand": "KFC"
  },
  {
    "name": "KFC EMART MIRI",
    "address": "Lot No.2861, Block 6, KBLD, Jalan Tudan, 98100 Miri, Sarawak.",
    "city": "",
    "state": "Sarawak",
    "postcode": "",
    "country": "MY",
    "lat": "4.47840100",
    "lng": "114.03958800",
    "phone": "085659958",
    "dinein": "1",
    "drivethru": "0",
    "delivery_open": "09:00:00",
    "delivery_close": "23:30:00",
    "legacy_store_id": "1130533",
    "locationId": "233",
    "brand": "KFC"
  },
  {
    "name": "KFC THE STORE BANTING",
    "address": "Lot 1256, Jalan Besar, Banting 42700 Selangor",
    "city": "",
    "state": "Selangor",
    "postcode": "",
    "country": "MY",
    "lat": "2.81392600",
    "lng": "101.50287000",
    "phone": "0331804447",
    "dinein": "1",
    "drivethru": "0",
    "delivery_open": "10:00:00",
    "delivery_close": "22:00:00",
    "legacy_store_id": "1130324",
    "locationId": "234",
    "brand": "KFC"
  },
  {
    "name": "KFC KIDURONG BINTULU",
    "address": "Ground Floor of Sublot 73 and Ground Floor & 1st Floor of Sublot 74, Kidurong Commercial Centre, Sungai Plan Bintulu, 97000 Bintulu, Sarawak.",
    "city": "",
    "state": "Sarawak",
    "postcode": "",
    "country": "MY",
    "lat": "3.26649600",
    "lng": "113.09960900",
    "phone": "086299012",
    "dinein": "1",
    "drivethru": "0",
    "delivery_open": "10:00:00",
    "delivery_close": "22:00:00",
    "legacy_store_id": "1130556",
    "locationId": "235",
    "brand": "KFC"
  },
  {
    "name": "KFC KUAH",
    "address": "D Langkawi Island Mall 45, Arked Pokok Assam, Langkawi Mall, Kuah, Langkawi 07000 Kedah",
    "city": "",
    "state": "Kedah",
    "postcode": "",
    "country": "MY",
    "lat": "6.32713900",
    "lng": "99.84049200",
    "phone": "049662483",
    "dinein": "1",
    "drivethru": "0",
    "delivery_open": "12:00:00",
    "delivery_close": "23:00:00",
    "legacy_store_id": "1130174",
    "locationId": "236",
    "brand": "KFC"
  },
  {
    "name": "KFC KUCHING SENTRAL",
    "address": "Lots 101, 102, 120-122, Ground Floor, Kuching Sentral Commercial Complex, 93250 Kuching",
    "city": "",
    "state": "Sarawak",
    "postcode": "",
    "country": "MY",
    "lat": "1.48182800",
    "lng": "110.33227500",
    "phone": "082627943",
    "dinein": "1",
    "drivethru": "0",
    "delivery_open": "10:00:00",
    "delivery_close": "22:00:00",
    "legacy_store_id": "1130538",
    "locationId": "237",
    "brand": "KFC"
  },
  {
    "name": "KFC PADANG BANDARAN (KENINGAU 2)",
    "address": "Lot No. 12, Keningau Township, 89008 Keningau, Sabah",
    "city": "",
    "state": "Sabah",
    "postcode": "",
    "country": "MY",
    "lat": "5.33313800",
    "lng": "116.15289200",
    "phone": "087338813",
    "dinein": "1",
    "drivethru": "0",
    "delivery_open": "09:00:00",
    "delivery_close": "22:00:00",
    "legacy_store_id": "1130451",
    "locationId": "238",
    "brand": "KFC"
  },
  {
    "name": "KFC PETRONAS KOTA DAMANSARA DT",
    "address": "Lot 1, Jalan Camar 4/1, Off Persiaran Surian, Seksyen 4, Kota Damansara 47810 Selangor",
    "city": "",
    "state": "Selangor",
    "postcode": "",
    "country": "MY",
    "lat": "3.15052400",
    "lng": "101.58548900",
    "phone": "0361489152",
    "dinein": "1",
    "drivethru": "0",
    "delivery_open": "10:00:00",
    "delivery_close": "23:00:00",
    "legacy_store_id": "1130776",
    "locationId": "239",
    "brand": "KFC"
  },
  {
    "name": "KFC TABUAN JAYA",
    "address": "Shoplot 8912, Blk 11 MTLD, Tabuan Jaya, Kuching.",
    "city": "",
    "state": "Sarawak",
    "postcode": "",
    "country": "MY",
    "lat": "1.52750700",
    "lng": "110.37513400",
    "phone": "082505139",
    "dinein": "1",
    "drivethru": "0",
    "delivery_open": "09:00:00",
    "delivery_close": "22:00:00",
    "legacy_store_id": "1130514",
    "locationId": "240",
    "brand": "KFC"
  },
  {
    "name": "KFC TAMAN BUNGA RAYA SEPANG",
    "address": "No 45, Taman Bunga Raya, Sepang, Taman Bunga Raya, 43900 Sepang, Selangor Darul Ehsan",
    "city": "",
    "state": "Selangor",
    "postcode": "",
    "country": "MY",
    "lat": "2.80610100",
    "lng": "101.71598700",
    "phone": "0387053629",
    "dinein": "1",
    "drivethru": "0",
    "delivery_open": "11:00:00",
    "delivery_close": "22:00:00",
    "legacy_store_id": "1131023",
    "locationId": "241",
    "brand": "KFC"
  },
  {
    "name": "KFC SG BESAR",
    "address": "Lot PT 1588, Medan Sungai Besar, Off Jalan Sg Limau, Sungai Besar 45300 Selangor",
    "city": "",
    "state": "Selangor",
    "postcode": "",
    "country": "MY",
    "lat": "3.67225600",
    "lng": "100.98699800",
    "phone": "0332246219",
    "dinein": "1",
    "drivethru": "0",
    "delivery_open": "08:00:00",
    "delivery_close": "02:00:00",
    "legacy_store_id": "1130125",
    "locationId": "242",
    "brand": "KFC"
  },
  {
    "name": "KFC TG KARANG",
    "address": "No. 1 Jalan PB 1/1, Pusat Bandar Tg Karang, Tg Karang 45500 Selangor",
    "city": "",
    "state": "Selangor",
    "postcode": "",
    "country": "MY",
    "lat": "3.42508100",
    "lng": "101.17714500",
    "phone": "0332690967",
    "dinein": "1",
    "drivethru": "0",
    "delivery_open": "08:00:00",
    "delivery_close": "23:59:59",
    "legacy_store_id": "1130104",
    "locationId": "243",
    "brand": "KFC"
  },
  {
    "name": "KFC SUNGAI CHUA",
    "address": "No. 1, Jalan M/J3, Taman Majlis Jaya, Sg Chua, Kajang 43000 Selangor",
    "city": "",
    "state": "Selangor",
    "postcode": "",
    "country": "MY",
    "lat": "2.99015300",
    "lng": "101.77669600",
    "phone": "0387408914",
    "dinein": "1",
    "drivethru": "0",
    "delivery_open": "10:00:00",
    "delivery_close": "22:00:00",
    "legacy_store_id": "1130208",
    "locationId": "244",
    "brand": "KFC"
  },