[
  {
    "country":"MY",
    "parent_chain":"Nando’s",
    "chain":"Nando’s",
    "state":"Johor",
    "store_name":"Batu Pahat Mall",
    "address":"Lot No.G-05A Ground Floor, Batu Pahat Mall, Jalan Kluang, Batu Pahat, Johor",
    "phone":"07-4890313",
    "opening_hours":null,
    "opening_hours_raw":null,
    "source":"https:\/\/nandos.com.my\/restaurants\/batu-pahat-mall\/",
    "scraped_at":"2025-12-21T15:46:10.159329+00:00"
  },
  {
    "country":"MY",
    "parent_chain":"Nando’s",
    "chain":"Nando’s",
    "state":"Johor",
    "store_name":"IOI Mall Kulai",
    "address":"G-25, Ground Floor, IOI Mall Kulai, Lebuh Putra Utama, Bandar Putra, Kulai, Johor",
    "phone":null,
    "opening_hours":null,
    "opening_hours_raw":null,
    "source":"https:\/\/nandos.com.my\/restaurants\/ioi-mall-kulai\/",
    "scraped_at":"2025-12-21T15:46:11.031773+00:00"
  },
  {
    "country":"MY",
    "parent_chain":"Nando’s",
    "chain":"Nando’s",
    "state":"Johor",
    "store_name":"Mid Valley Southkey",
    "address":"LG-049, The Mall, Mid Valley Southkey, Persiaran Southkey 1, Southkey, Johor Bharu, Johor",
    "phone":"07-3360736",
    "opening_hours":null,
    "opening_hours_raw":null,
    "source":"https:\/\/nandos.com.my\/restaurants\/mid-valley-southkey\/",
    "scraped_at":"2025-12-21T15:46:12.278263+00:00"
  },
  {
    "country":"MY",
    "parent_chain":"Nando’s",
    "chain":"Nando’s",
    "state":"Johor",
    "store_name":"AEON Tebrau City",
    "address":"Lot S 51, 2nd Floor, AEON Tebrau City Shopping Centre, No.1, Jalan Desa Tebrau, Johor Bahru, Johor",
    "phone":"07-2134044",
    "opening_hours":null,
    "opening_hours_raw":null,
    "source":"https:\/\/nandos.com.my\/restaurants\/nandos-aeon-tebrau-city\/",
    "scraped_at":"2025-12-21T15:46:12.970868+00:00"
  },
  {
    "country":"MY",
    "parent_chain":"Nando’s",
    "chain":"Nando’s",
    "state":"Johor",
    "store_name":"AEON Bukit Indah",
    "address":"Lot G03, Ground Floor, AEON Bukit Indah Shopping Centre No.8, Jalan Indah 15\/2, Bukit Indah, Johor Bahru, Johor",
    "phone":"07-2134041",
    "opening_hours":null,
    "opening_hours_raw":null,
    "source":"https:\/\/nandos.com.my\/restaurants\/nandos-aeon-bukit-indah\/",
    "scraped_at":"2025-12-21T15:46:14.627348+00:00"
  },
  {
    "country":"MY",
    "parent_chain":"Nando’s",
    "chain":"Nando’s",
    "state":"Johor",
    "store_name":"Aman Sentral",
    "address":"4-28 & 29, Fourth Floor, Aman Central, No.1 Lebuhraya Darulaman",
    "phone":"03-47420346",
    "opening_hours":null,
    "opening_hours_raw":null,
    "source":"https:\/\/nandos.com.my\/restaurants\/nandos-aman-sentral\/",
    "scraped_at":"2025-12-21T15:46:15.773804+00:00"
  },
  {
    "country":"MY",
    "parent_chain":"Nando’s",
    "chain":"Nando’s",
    "state":"Johor",
    "store_name":"AEON Mall Kota Bharu",
    "address":"Lot G38, Ground Floor, AEON Mall Kota Bharu Lembah Sireh Kota Bharu Kelantan",
    "phone":"09-5220377",
    "opening_hours":null,
    "opening_hours_raw":null,
    "source":"https:\/\/nandos.com.my\/restaurants\/nandos-aeon-kota-bharu\/",
    "scraped_at":"2025-12-21T15:46:17.197328+00:00"
  },
  {
    "country":"MY",
    "parent_chain":"Nando’s",
    "chain":"Nando’s",
    "state":"Johor",
    "store_name":"The Exchange, TRX",
    "address":"C.95.0 Concourse level, Persiaran TRX, Tun Razak Exchange, 55188 Kuala Lumpur, Wilayah Persekutuan Kuala Lumpur",
    "phone":"03-89662586",
    "opening_hours":null,
    "opening_hours_raw":null,
    "source":"https:\/\/nandos.com.my\/restaurants\/trx\/",
    "scraped_at":"2025-12-21T15:46:18.758780+00:00"
  },
  {
    "country":"MY",
    "parent_chain":"Nando’s",
    "chain":"Nando’s",
    "state":"Johor",
    "store_name":"Sunway Velocity",
    "address":"Lingkaran SV, Sunway Velocity Mall, Unit no. B-28 & B-29, Basement one, Wilayah Persekutuan Kuala Lumpur",
    "phone":"03-89662596",
    "opening_hours":null,
    "opening_hours_raw":null,
    "source":"https:\/\/nandos.com.my\/restaurants\/nandos-sunway-velocity\/",
    "scraped_at":"2025-12-21T15:46:19.558007+00:00"
  },
  {
    "country":"MY",
    "parent_chain":"Nando’s",
    "chain":"Nando’s",
    "state":"Johor",
    "store_name":"Eko Cheras Mall",
    "address":"LG-08, No 693, Batu 5, Jln Cheras, Cheras, 56000 Kuala Lumpur, Wilayah Persekutuan Kuala Lumpur",
    "phone":"03-89662549",
    "opening_hours":null,
    "opening_hours_raw":null,
    "source":"https:\/\/nandos.com.my\/restaurants\/eko-cheras-mall\/",
    "scraped_at":"2025-12-21T15:46:20.558057+00:00"
  },
  {
    "country":"MY",
    "parent_chain":"Nando’s",
    "chain":"Nando’s",
    "state":"Johor",
    "store_name":"Pavilion Bukit Jalil",
    "address":"Lot 1.91.00, Level 1, Pavilion Bukit Jalil, No 2, Persiaran Jalil 8, Bandar Bukit Jalil, Kuala Lumpur",
    "phone":null,
    "opening_hours":null,
    "opening_hours_raw":null,
    "source":"https:\/\/nandos.com.my\/restaurants\/nandos-pavilion-bukit-jalil\/",
    "scraped_at":"2025-12-21T15:46:21.944589+00:00"
  },
  {
    "country":"MY",
    "parent_chain":"Nando’s",
    "chain":"Nando’s",
    "state":"Johor",
    "store_name":"Intermark Mall",
    "address":"Lot. G-22, G-22A & G-22B, Ground Floor, Intermark Mall, The Intermark, 348, Jalan Tun Razak, Kuala Lumpur",
    "phone":"03-89662532",
    "opening_hours":null,
    "opening_hours_raw":null,
    "source":"https:\/\/nandos.com.my\/restaurants\/intermark-mall\/",
    "scraped_at":"2025-12-21T15:46:23.416180+00:00"
  },
  {
    "country":"MY",
    "parent_chain":"Nando’s",
    "chain":"Nando’s",
    "state":"Johor",
    "store_name":"Desa Park City",
    "address":"Nandos Desa Park City  Lot Gf-12 Ground Floor, The Waterfront @ Parkcity No 5 Persiaran Residen Desa Parkcity Kuala Lumpur",
    "phone":"03-89662531",
    "opening_hours":null,
    "opening_hours_raw":null,
    "source":"https:\/\/nandos.com.my\/restaurants\/nandos-desa-parkcity\/",
    "scraped_at":"2025-12-21T15:46:24.572956+00:00"
  },
  {
    "country":"MY",
    "parent_chain":"Nando’s",
    "chain":"Nando’s",
    "state":"Johor",
    "store_name":"Sunway Putra",
    "address":"Lot LG-24, Lower Ground Floor, Sunway Putra Mall, Jalan Putra Mall, Kuala Lumpur",
    "phone":"03-40506570",
    "opening_hours":null,
    "opening_hours_raw":null,
    "source":"https:\/\/nandos.com.my\/restaurants\/nandos-sunway-putra\/",
    "scraped_at":"2025-12-21T15:46:25.708922+00:00"
  },
  {
    "country":"MY",
    "parent_chain":"Nando’s",
    "chain":"Nando’s",
    "state":"Johor",
    "store_name":"Sogo",
    "address":"L6-R8, R8A & L2-K2 & K3, Tingkat 6, Kompleks Pernas Sogo, 190 Jalan Tuanku Abdul Rahman, Kuala Lumpur",
    "phone":"03-89662579",
    "opening_hours":null,
    "opening_hours_raw":null,
    "source":"https:\/\/nandos.com.my\/restaurants\/nandos-sogo\/",
    "scraped_at":"2025-12-21T15:46:26.541978+00:00"
  },
  {
    "country":"MY",
    "parent_chain":"Nando’s",
    "chain":"Nando’s",
    "state":"Johor",
    "store_name":"NU Sentral",
    "address":"Unit L4-05, Level 4, Nu Sentral, Jalan Tun Sambathan, Kuala Lumpur",
    "phone":"03-89662594",
    "opening_hours":null,
    "opening_hours_raw":null,
    "source":"https:\/\/nandos.com.my\/restaurants\/nandos-nu-sentral\/",
    "scraped_at":"2025-12-21T15:46:27.333556+00:00"
  },
  {
    "country":"MY",
    "parent_chain":"Nando’s",
    "chain":"Nando’s",
    "state":"Johor",
    "store_name":"Berjaya Times Square",
    "address":"LG-25, 26, 27, 76 & 76A Lower Ground Floor, Berjaya Times Square, No 1, Jalan Imbi, Kuala Lumpur",
    "phone":"03-89662580",
    "opening_hours":null,
    "opening_hours_raw":null,
    "source":"https:\/\/nandos.com.my\/restaurants\/nandos-berjaya-times-square\/",
    "scraped_at":"2025-12-21T15:46:28.268952+00:00"
  },
  {
    "country":"MY",
    "parent_chain":"Nando’s",
    "chain":"Nando’s",
    "state":"Johor",
    "store_name":"Pearl Point",
    "address":"G.35 & G.33A, Ground Floor, Pearl Point Shopping Mall, Batu 5, Jalan Klang Lama, Kuala Lumpur",
    "phone":"03-89662537",
    "opening_hours":null,
    "opening_hours_raw":null,
    "source":"https:\/\/nandos.com.my\/restaurants\/nandos-pearl-point\/",
    "scraped_at":"2025-12-21T15:46:29.824795+00:00"
  },
  {
    "country":"MY",
    "parent_chain":"Nando’s",
    "chain":"Nando’s",
    "state":"Johor",
    "store_name":"AEON AU2",
    "address":"G57, Ground Floor, AEON AU2 Shoping Center, No 6, Jalan Taman Setiawangsa (Jalan 37\/56), Taman Keramat, Kuala Lumpur",
    "phone":"03-89662527",
    "opening_hours":null,
    "opening_hours_raw":null,
    "source":"https:\/\/nandos.com.my\/restaurants\/nandos-aeon-au2\/",
    "scraped_at":"2025-12-21T15:46:30.639429+00:00"
  },
  {
    "country":"MY",
    "parent_chain":"Nando’s",
    "chain":"Nando’s",
    "state":"Johor",
    "store_name":"Setapak Central",
    "address":"Lot G-14 AG-14, Ground Floor, Setapak Sentral Mall 67, Jalan Taman Ibu Kota, Taman Danau Kota, Setapak, Kuala Lumpur",
    "phone":"03-89662539",
    "opening_hours":null,
    "opening_hours_raw":null,
    "source":"https:\/\/nandos.com.my\/restaurants\/nandos-setapak-central\/",
    "scraped_at":"2025-12-21T15:46:31.800709+00:00"
  },
  {
    "country":"MY",
    "parent_chain":"Nando’s",
    "chain":"Nando’s",
    "state":"Johor",
    "store_name":"AEON Alpha Angle",
    "address":"Lot G12A, Ground Floor, AEON Alpha Angle Shopping Centre, Jalan R1, Seksyen 1, Bandar Baru Wangsa Maju, Kuala Lumpur",
    "phone":"03-89662528",
    "opening_hours":null,
    "opening_hours_raw":null,
    "source":"https:\/\/nandos.com.my\/restaurants\/nandos-aeon-alpha-angle\/",
    "scraped_at":"2025-12-21T15:46:33.683908+00:00"
  },
  {
    "country":"MY",
    "parent_chain":"Nando’s",
    "chain":"Nando’s",
    "state":"Johor",
    "store_name":"1 Mont Kiara",
    "address":"Unit G-13, Ground Floor, 1 Mon’t Kiara, No.1, Jalan Kiara, Mon’t Kiara, Kuala Lumpur",
    "phone":"03-89662526",
    "opening_hours":null,
    "opening_hours_raw":null,
    "source":"https:\/\/nandos.com.my\/restaurants\/nandos-1-mont-kiara\/",
    "scraped_at":"2025-12-21T15:46:34.709089+00:00"
  },
  {
    "country":"MY",
    "parent_chain":"Nando’s",
    "chain":"Nando’s",
    "state":"Johor",
    "store_name":"Publika",
    "address":"Unit UG-62, Level UG, Publika Shopping Gallery @ Dutamas, Jalan Dutamas 1, Kuala Lumpur",
    "phone":"03-89662538",
    "opening_hours":null,
    "opening_hours_raw":null,
    "source":"https:\/\/nandos.com.my\/restaurants\/nandos-publika\/",
    "scraped_at":"2025-12-21T15:46:35.843167+00:00"
  },
  {
    "country":"MY",
    "parent_chain":"Nando’s",
    "chain":"Nando’s",
    "state":"Johor",
    "store_name":"Bangsar Village",
    "address":"Lot G19, Ground Floor, Bangsar Village,  Bangsar Baru, Bangsar Baru Kuala Lumpur",
    "phone":"03-89662530",
    "opening_hours":null,
    "opening_hours_raw":null,
    "source":"https:\/\/nandos.com.my\/restaurants\/nandos-bangsar-village\/",
    "scraped_at":"2025-12-21T15:46:36.737661+00:00"
  },
  {
    "country":"MY",
    "parent_chain":"Nando’s",
    "chain":"Nando’s",
    "state":"Johor",
    "store_name":"Mid Valley",
    "address":"Lot LG-053, Lower Ground, Mid Valley Megamall, Mid Valley City, Kuala Lumpur",
    "phone":"03-28560758",
    "opening_hours":null,
    "opening_hours_raw":null,
    "source":"https:\/\/nandos.com.my\/restaurants\/nandos-mid-valley\/",
    "scraped_at":"2025-12-21T15:46:37.623127+00:00"
  },
  {
    "country":"MY",
    "parent_chain":"Nando’s",
    "chain":"Nando’s",
    "state":"Johor",
    "store_name":"Avenue K",
    "address":"G17 Ground Floor Avenue K, 156, Jalan Ampang, Kuala Lumpur",
    "phone":"03-89662529",
    "opening_hours":null,
    "opening_hours_raw":null,
    "source":"https:\/\/nandos.com.my\/restaurants\/nandos-avenue-k\/",
    "scraped_at":"2025-12-21T15:46:38.737562+00:00"
  },
  {
    "country":"MY",
    "parent_chain":"Nando’s",
    "chain":"Nando’s",
    "state":"Johor",
    "store_name":"Pavilion",
    "address":"Lot No 1.105.00,Pavilion Elite 166,Jalan Bukit Bintang Bukit Bintang, Kuala Lumpur",
    "phone":"03-21105635",
    "opening_hours":null,
    "opening_hours_raw":null,
    "source":"https:\/\/nandos.com.my\/restaurants\/nandos-pavilion\/",
    "scraped_at":"2025-12-21T15:46:40.351608+00:00"
  },
  {
    "country":"MY",
    "parent_chain":"Nando’s",
    "chain":"Nando’s",
    "state":"Johor",
    "store_name":"KLCC",
    "address":"Lot C07, Concourse Floor, Suria KLCC Kuala Lumpur City Centre, Kuala Lumpur",
    "phone":"03-89662533",
    "opening_hours":null,
    "opening_hours_raw":null,
    "source":"https:\/\/nandos.com.my\/restaurants\/nandos-klcc\/",
    "scraped_at":"2025-12-21T15:46:41.799763+00:00"
  },
  {
    "country":"MY",
    "parent_chain":"Nando’s",
    "chain":"Nando’s",
    "state":"Johor",
    "store_name":"MyTown",
    "address":"Lot B1-02, Basement 1 MyTOWN Shopping Centre No 6, jalan cochrane Seksyen 90, Kuala Lumpur",
    "phone":"03-89662535",
    "opening_hours":null,
    "opening_hours_raw":null,
    "source":"https:\/\/nandos.com.my\/restaurants\/nandos-mytown\/",
    "scraped_at":"2025-12-21T15:46:43.276667+00:00"
  },
  {
    "country":"MY",
    "parent_chain":"Nando’s",
    "chain":"Nando’s",
    "state":"Johor",
    "store_name":"AEON Taman Maluri",
    "address":"Lot S08, Second Floor,  Taman Maluri Shopping Centre Jalan Jejaka, Kuala Lumpur",
    "phone":"03-89662543",
    "opening_hours":null,
    "opening_hours_raw":null,
    "source":"https:\/\/nandos.com.my\/restaurants\/nandos-aeon-taman-maluri\/",
    "scraped_at":"2025-12-21T15:46:44.186694+00:00"
  },
  {
    "country":"MY",
    "parent_chain":"Nando’s",
    "chain":"Nando’s",
    "state":"Johor",
    "store_name":"AEON Bandaraya Melaka",
    "address":"G80, Ground Floor, AEON Bandaraya Melaka Shopping Centre, 2 Jalan Legenda, Taman 1 Legenda, Melaka",
    "phone":"06-2250644",
    "opening_hours":null,
    "opening_hours_raw":null,
    "source":"https:\/\/nandos.com.my\/restaurants\/aeon-bandaraya-melaka\/",
    "scraped_at":"2025-12-21T15:46:45.004196+00:00"
  },
  {
    "country":"MY",
    "parent_chain":"Nando’s",
    "chain":"Nando’s",
    "state":"Johor",
    "store_name":"Mahkota Parade",
    "address":"G89, Ground Floor,  Mahkota Parade, Melaka",
    "phone":"06-2250601",
    "opening_hours":null,
    "opening_hours_raw":null,
    "source":"https:\/\/nandos.com.my\/restaurants\/nandos-mahkota-parade\/",
    "scraped_at":"2025-12-21T15:46:46.461700+00:00"
  },
  {
    "country":"MY",
    "parent_chain":"Nando’s",
    "chain":"Nando’s",
    "state":"Johor",
    "store_name":"AEON Melaka (Ayer Keroh)",
    "address":"Lot G02A, Ground Floor, AEON Melaka Shopping Centre, Lebuh Ayer Keroh, Melaka",
    "phone":"06-2250645",
    "opening_hours":null,
    "opening_hours_raw":null,
    "source":"https:\/\/nandos.com.my\/restaurants\/nandos-aeon-melaka\/",
    "scraped_at":"2025-12-21T15:46:47.760899+00:00"
  },
  {
    "country":"MY",
    "parent_chain":"Nando’s",
    "chain":"Nando’s",
    "state":"Johor",
    "store_name":"Nilai 9 Avenue",
    "address":"Shop 28 & 29, Ground Floor, 9 Avenue, Taman Koporat, Putra Nilai, Nilai, Negeri Sembilan",
    "phone":"06-6020382",
    "opening_hours":null,
    "opening_hours_raw":null,
    "source":"https:\/\/nandos.com.my\/restaurants\/nandos-nilai-9-avenue\/",
    "scraped_at":"2025-12-21T15:46:48.831658+00:00"
  },
  {
    "country":"MY",
    "parent_chain":"Nando’s",
    "chain":"Nando’s",
    "state":"Johor",
    "store_name":"Palm Mall",
    "address":"UG-35, 36 & 37, UG Floor, Palm Mall, Jalan Sungai Ujong, Seremban, Negeri Sembilan",
    "phone":"06-6020383",
    "opening_hours":null,
    "opening_hours_raw":null,
    "source":"https:\/\/nandos.com.my\/restaurants\/nandos-palm-mall\/",
    "scraped_at":"2025-12-21T15:46:49.954172+00:00"
  },
  {
    "country":"MY",
    "parent_chain":"Nando’s",
    "chain":"Nando’s",
    "state":"Johor",
    "store_name":"East Coast Mall",
    "address":"GF-01A & GF-01B, Ground Floor, East Coast Mall, Jalan Putra Square 6, Putra Square, Kuantan, Pahang",
    "phone":"09-5220378",
    "opening_hours":null,
    "opening_hours_raw":null,
    "source":"https:\/\/nandos.com.my\/restaurants\/nandos-east-coast-mall\/",
    "scraped_at":"2025-12-21T15:46:50.923960+00:00"
  },
  {
    "country":"MY",
    "parent_chain":"Nando’s",
    "chain":"Nando’s",
    "state":"Johor",
    "store_name":"AEON Bukit Mertajam",
    "address":"Lot G-11,  AEON Bukit Mertajam Jalan Rozhan Alma, Seberang Perai Tengah, Bukit Mertajam, Pulau Pinang",
    "phone":"03-45230304",
    "opening_hours":null,
    "opening_hours_raw":null,
    "source":"https:\/\/nandos.com.my\/restaurants\/nandos-aeon-bukit-mertajam\/",
    "scraped_at":"2025-12-21T15:46:52.367542+00:00"
  },
  {
    "country":"MY",
    "parent_chain":"Nando’s",
    "chain":"Nando’s",
    "state":"Johor",
    "store_name":"Sunway Carnival Mall",
    "address":"LG-02 ,Lower Ground Floor, Sunway Carnival Mall, 3068, Jalan Todak, Pusat Bandar Seberang Jaya, Seberang Jaya, Pulau Pinang",
    "phone":"04-2023298",
    "opening_hours":null,
    "opening_hours_raw":null,
    "source":"https:\/\/nandos.com.my\/restaurants\/nandos-sunway-carnival\/",
    "scraped_at":"2025-12-21T15:46:53.374330+00:00"
  },
  {
    "country":"MY",
    "parent_chain":"Nando’s",
    "chain":"Nando’s",
    "state":"Johor",
    "store_name":"Gurney Plaza",
    "address":"Lot No.170-G-72, Plaza Gurney, Persiaran Gurney, Penang",
    "phone":"04-2023295",
    "opening_hours":null,
    "opening_hours_raw":null,
    "source":"https:\/\/nandos.com.my\/restaurants\/nandos-gurney-plaza\/",
    "scraped_at":"2025-12-21T15:46:54.373553+00:00"
  },
  {
    "country":"MY",
    "parent_chain":"Nando’s",
    "chain":"Nando’s",
    "state":"Johor",
    "store_name":"Juru Auto City",
    "address":"1822, Jalan Perusahaan Highway Auto City (Phase 3), North South Highway, Juru Interchange, Prai,  Penang",
    "phone":"04-2023296",
    "opening_hours":null,
    "opening_hours_raw":null,
    "source":"https:\/\/nandos.com.my\/restaurants\/nandos-juru-auto-city\/",
    "scraped_at":"2025-12-21T15:46:56.011567+00:00"
  },
  {
    "country":"MY",
    "parent_chain":"Nando’s",
    "chain":"Nando’s",
    "state":"Johor",
    "store_name":"Queensbay Mall",
    "address":"Lot No. LG-92, Concourse Queensbay Mall,  Persiaran Bayan Indah, Bayan Lepas, Penang",
    "phone":"04-2023297",
    "opening_hours":null,
    "opening_hours_raw":null,
    "source":"https:\/\/nandos.com.my\/restaurants\/nandos-queensbay-mall\/",
    "scraped_at":"2025-12-21T15:46:57.374348+00:00"
  },
  {
    "country":"MY",
    "parent_chain":"Nando’s",
    "chain":"Nando’s",
    "state":"Johor",
    "store_name":"AEON Mall Klebang",
    "address":"G13 & G15, Ground Floor, AEON Mall Klebang, Jalan Kuala Kangsar, Ipoh, Perak",
    "phone":"05-6000349",
    "opening_hours":null,
    "opening_hours_raw":null,
    "source":"https:\/\/nandos.com.my\/restaurants\/nandos-aeon-mall-klebang\/",
    "scraped_at":"2025-12-21T15:46:58.642853+00:00"
  },
  {
    "country":"MY",
    "parent_chain":"Nando’s",
    "chain":"Nando’s",
    "state":"Johor",
    "store_name":"AEON Ipoh St. 18",
    "address":"Lot G-57, Aeon Ipoh Station 18 No. 2, Susuran Stesen 18, Station, Ipoh,  Perak",
    "phone":"05-2380419",
    "opening_hours":null,
    "opening_hours_raw":null,
    "source":"https:\/\/nandos.com.my\/restaurants\/nandos-aeon-ipoh-st-18\/",
    "scraped_at":"2025-12-21T15:46:59.531099+00:00"
  },
  {
    "country":"MY",
    "parent_chain":"Nando’s",
    "chain":"Nando’s",
    "state":"Johor",
    "store_name":"AEON Taiping",
    "address":"AEON MALL TAIPING, Lot G-18, Ground Floor, Jalan Kamunting, Taiping, Perak",
    "phone":"05-8130348",
    "opening_hours":null,
    "opening_hours_raw":null,
    "source":"https:\/\/nandos.com.my\/restaurants\/nandos-taiping\/",
    "scraped_at":"2025-12-21T15:47:01.518504+00:00"
  },
  {
    "country":"MY",
    "parent_chain":"Nando’s",
    "chain":"Nando’s",
    "state":"Johor",
    "store_name":"DPULZE Cyberjaya",
    "address":"G25, Ground Floor @ DPULZE Shopping Centre, Persiaran Multimedia, Cyberjaya, Cyberjaya, Selangor",
    "phone":"03-89662548",
    "opening_hours":null,
    "opening_hours_raw":null,
    "source":"https:\/\/nandos.com.my\/restaurants\/nandos-dpulze-cyberjaya\/",
    "scraped_at":"2025-12-21T15:47:02.676080+00:00"
  },
  {
    "country":"MY",
    "parent_chain":"Nando’s",
    "chain":"Nando’s",
    "state":"Johor",
    "store_name":"IOI City Mall",
    "address":"IOI City Mall, LG53 & LG55, Lower Ground Floor, IOI Resort City, Putrajaya",
    "phone":"03-89662551",
    "opening_hours":null,
    "opening_hours_raw":null,
    "source":"https:\/\/nandos.com.my\/restaurants\/nandos-ioi-city-mall\/",
    "scraped_at":"2025-12-21T15:47:03.406283+00:00"
  },
  {
    "country":"MY",
    "parent_chain":"Nando’s",
    "chain":"Nando’s",
    "state":"Johor",
    "store_name":"Alamanda",
    "address":"Lot.P07, Plaza Level, Alamanda Shopping Centre,  Jalan Alamanda, Presint 1,Putrajaya",
    "phone":"03-89662544",
    "opening_hours":null,
    "opening_hours_raw":null,
    "source":"https:\/\/nandos.com.my\/restaurants\/nandos-alamanda\/",
    "scraped_at":"2025-12-21T15:47:04.675106+00:00"
  },
  {
    "country":"MY",
    "parent_chain":"Nando’s",
    "chain":"Nando’s",
    "state":"Johor",
    "store_name":"Suria Sabah",
    "address":"G-3, G-4 & G-70, Ground Floor, Suria Sabah Shopping Mall. 1, Jalan Fuad Stephens, Kota Kinabalu Sabah.",
    "phone":"088-335305",
    "opening_hours":null,
    "opening_hours_raw":null,
    "source":"https:\/\/nandos.com.my\/restaurants\/suria-sabah\/",
    "scraped_at":"2025-12-21T15:47:06.284636+00:00"
  },
  {
    "country":"MY",
    "parent_chain":"Nando’s",
    "chain":"Nando’s",
    "state":"Johor",
    "store_name":"Imago",
    "address":"G-97\/98, Ground Floor, Imago Shopping Mall, KK Times Square Phase 2, Off Coastal Highway, Kota Kinabalu, Sabah",
    "phone":"08-8274916",
    "opening_hours":null,
    "opening_hours_raw":null,
    "source":"https:\/\/nandos.com.my\/restaurants\/nandos-imago\/",
    "scraped_at":"2025-12-21T15:47:07.331793+00:00"
  },
  {
    "country":"MY",
    "parent_chain":"Nando’s",
    "chain":"Nando’s",
    "state":"Johor",
    "store_name":"Bintang Megamall, Miri",
    "address":"Lot G.45 & 46, Ground Floor. Bintang Megamall, Lot 1657, Block 9, MCLD Megamall, Miri-Pujut Road, Miri, Sarawak",
    "phone":"085-451331",
    "opening_hours":null,
    "opening_hours_raw":null,
    "source":"https:\/\/nandos.com.my\/restaurants\/bintang-megamall-miri\/",
    "scraped_at":"2025-12-21T15:47:08.386817+00:00"
  },
  {
    "country":"MY",
    "parent_chain":"Nando’s",
    "chain":"Nando’s",
    "state":"Johor",
    "store_name":"AEON Kuching",
    "address":"S-11 Second Floor, AEON Mall Kuching Central, Min Chu Garden, Kuching, Sarawak",
    "phone":"08-2268325",
    "opening_hours":null,
    "opening_hours_raw":null,
    "source":"https:\/\/nandos.com.my\/restaurants\/nandos-aeon-kuching\/",
    "scraped_at":"2025-12-21T15:47:09.258172+00:00"
  },
  {
    "country":"MY",
    "parent_chain":"Nando’s",
    "chain":"Nando’s",
    "state":"Johor",
    "store_name":"The Spring",
    "address":"Lot G11 & GES 11, Ground Floor, The Spring Shopping Mall, Persiaran Spring, Kuching, Sarawak.",
    "phone":"08-2268327",
    "opening_hours":null,
    "opening_hours_raw":null,
    "source":"https:\/\/nandos.com.my\/restaurants\/nandos-the-spring\/",
    "scraped_at":"2025-12-21T15:47:10.049571+00:00"
  },
  {
    "country":"MY",
    "parent_chain":"Nando’s",
    "chain":"Nando’s",
    "state":"Johor",
    "store_name":"Vivacity",
    "address":"G-051, G-051s & G-065B Ground Floor Vivacity Megamall Jalan Wan Alwi, Kuching",
    "phone":"08-2263665",
    "opening_hours":null,
    "opening_hours_raw":null,
    "source":"https:\/\/nandos.com.my\/restaurants\/nandos-vivacity\/",
    "scraped_at":"2025-12-21T15:47:11.421923+00:00"
  },
  {
    "country":"MY",
    "parent_chain":"Nando’s",
    "chain":"Nando’s",
    "state":"Johor",
    "store_name":"IOI Mall Damansara",
    "address":"CC-16, Concourse Floor, IOI Mall Damansara, No.2A, Persiaran Surian, Tropicana Indah, Kota Damansara, 47810, Petaling Jaya, Selangor Malaysia",
    "phone":null,
    "opening_hours":null,
    "opening_hours_raw":null,
    "source":"https:\/\/nandos.com.my\/restaurants\/ioi-mall-damansara\/",
    "scraped_at":"2025-12-21T15:47:12.509392+00:00"
  },
  {
    "country":"MY",
    "parent_chain":"Nando’s",
    "chain":"Nando’s",
    "state":"Johor",
    "store_name":"Elmina Lakeside Mall",
    "address":"LOT GF 72(Block B), Elmina Lakeside Mall, No.5 Persiaran Garcinia Elmina West.  Shah Alam, Selangor Darul Ehsan",
    "phone":null,
    "opening_hours":null,
    "opening_hours_raw":null,
    "source":"https:\/\/nandos.com.my\/restaurants\/elmina-lakeside-mall\/",
    "scraped_at":"2025-12-21T15:47:13.361418+00:00"
  },
  {
    "country":"MY",
    "parent_chain":"Nando’s",
    "chain":"Nando’s",
    "state":"Johor",
    "store_name":"Bangi Avenue",
    "address":"4B, Jalan Bangi Avenue 5, Taman Bangi Avenue, Kajang Selangor",
    "phone":"03-89662587",
    "opening_hours":null,
    "opening_hours_raw":null,
    "source":"https:\/\/nandos.com.my\/restaurants\/bangi-avenue\/",
    "scraped_at":"2025-12-21T15:47:14.365001+00:00"
  },
  {
    "country":"MY",
    "parent_chain":"Nando’s",
    "chain":"Nando’s",
    "state":"Johor",
    "store_name":"Eco Grandeur",
    "address":"Lot 30, Ruang Niaga Eco Grandeur, Persiaran Mokhtar Dahari, Bandar Puncak Alam. Selangor",
    "phone":null,
    "opening_hours":null,
    "opening_hours_raw":null,
    "source":"https:\/\/nandos.com.my\/restaurants\/eco-grandeur\/",
    "scraped_at":"2025-12-21T15:47:15.769540+00:00"
  },
  {
    "country":"MY",
    "parent_chain":"Nando’s",
    "chain":"Nando’s",
    "state":"Johor",
    "store_name":"The Starling",
    "address":"Lot. G-031, Ground Floor The Starling Mall No. 6, Jalan SS21\/37 Damansara Uptown Petaling Jaya Selangor",
    "phone":"03-89662559",
    "opening_hours":null,
    "opening_hours_raw":null,
    "source":"https:\/\/nandos.com.my\/restaurants\/the-starling\/",
    "scraped_at":"2025-12-21T15:47:16.795295+00:00"
  },
  {
    "country":"MY",
    "parent_chain":"Nando’s",
    "chain":"Nando’s",
    "state":"Johor",
    "store_name":"Central i-City",
    "address":"Lot L3-11, Central i-City, No. 1, i-City, Persiaran Multimedia, Seksyen 7, Shah Alam",
    "phone":"03-89662595",
    "opening_hours":null,
    "opening_hours_raw":null,
    "source":"https:\/\/nandos.com.my\/restaurants\/central-i-city\/",
    "scraped_at":"2025-12-21T15:47:17.984210+00:00"
  },
  {
    "country":"MY",
    "parent_chain":"Nando’s",
    "chain":"Nando’s",
    "state":"Johor",
    "store_name":"Citta Mall",
    "address":"G-13A, Ground Floor, Citta Mall, Ara Damansara, Petaling Jaya Selangor",
    "phone":"03-89662547",
    "opening_hours":null,
    "opening_hours_raw":null,
    "source":"https:\/\/nandos.com.my\/restaurants\/nandos-citta-mall\/",
    "scraped_at":"2025-12-21T15:47:18.817114+00:00"
  },
  {
    "country":"MY",
    "parent_chain":"Nando’s",
    "chain":"Nando’s",
    "state":"Johor",
    "store_name":"AEON Bukit Raja",
    "address":"Lot G31, Ground Floor, Bukit Raja Shopping Centre, Persiaran Bukit Raja, Bandar Baru Klang, Selangor",
    "phone":"03-89662546",
    "opening_hours":null,
    "opening_hours_raw":null,
    "source":"https:\/\/nandos.com.my\/restaurants\/nandos-aeon-bukit-raja\/",
    "scraped_at":"2025-12-21T15:47:19.601962+00:00"
  },
  {
    "country":"MY",
    "parent_chain":"Nando’s",
    "chain":"Nando’s",
    "state":"Johor",
    "store_name":"Setia City Mall (New Location, UG-32)",
    "address":"UG-32, Setia City Mall, No.7, Persiaran Setia Dagang, Bandar Setia Alam, Seksyen U13, Shah Alam,  Selangor",
    "phone":"03-89662582",
    "opening_hours":null,
    "opening_hours_raw":null,
    "source":"https:\/\/nandos.com.my\/restaurants\/nandos-setia-city-mall\/",
    "scraped_at":"2025-12-21T15:47:20.618777+00:00"
  },
  {
    "country":"MY",
    "parent_chain":"Nando’s",
    "chain":"Nando’s",
    "state":"Johor",
    "store_name":"AEON Shah Alam",
    "address":"Lot G01, Ground Floor, AEON Mall Shah Alam No. 1, Jalan Akuatik 13\/64,  Seksyen 13, Shah Alam, Selangor Darul Ehsan.",
    "phone":"03-89662584",
    "opening_hours":null,
    "opening_hours_raw":null,
    "source":"https:\/\/nandos.com.my\/restaurants\/nandos-aeon-shah-alam\/",
    "scraped_at":"2025-12-21T15:47:22.531016+00:00"
  },
  {
    "country":"MY",
    "parent_chain":"Nando’s",
    "chain":"Nando’s",
    "state":"Johor",
    "store_name":"AEON Bukit Tinggi",
    "address":"Lot G25, AEON Bukit Tinggi, 1 Persiaran Batu Nilam, 1\/KS6, Bandar Bukit Tinggi 2, Klang, Selangor",
    "phone":"03-89662581",
    "opening_hours":null,
    "opening_hours_raw":null,
    "source":"https:\/\/nandos.com.my\/restaurants\/nandos-aeon-bukit-tinggi\/",
    "scraped_at":"2025-12-21T15:47:23.757638+00:00"
  },
  {
    "country":"MY",
    "parent_chain":"Nando’s",
    "chain":"Nando’s",
    "state":"Johor",
    "store_name":"Paradigm Mall",
    "address":"Lot CC-32 Paradigm Mall, 1, Jalan SS7\/26A, Petaling Jaya, Selangor",
    "phone":"03-89662558",
    "opening_hours":null,
    "opening_hours_raw":null,
    "source":"https:\/\/nandos.com.my\/restaurants\/nandos-paradigm-mall\/",
    "scraped_at":"2025-12-21T15:47:24.730853+00:00"
  },
  {
    "country":"MY",
    "parent_chain":"Nando’s",
    "chain":"Nando’s",
    "state":"Johor",
    "store_name":"3 Damansara",
    "address":"Lot G-29 & 30, Ground Floor, 3 Damansara, No 3, Jalan SS20\/27, Petaling Jaya,  Selangor",
    "phone":"03-89662541",
    "opening_hours":null,
    "opening_hours_raw":null,
    "source":"https:\/\/nandos.com.my\/restaurants\/nandos-3-damansara\/",
    "scraped_at":"2025-12-21T15:47:25.637492+00:00"
  },
  {
    "country":"MY",
    "parent_chain":"Nando’s",
    "chain":"Nando’s",
    "state":"Johor",
    "store_name":"IPC Shopping Centre",
    "address":"G19 Ground Floor Ikano Power Centre, No.2, Jalan PJU 7\/2, Mutiara Damansara, Petaling Jaya,",
    "phone":"03-89662552",
    "opening_hours":null,
    "opening_hours_raw":null,
    "source":"https:\/\/nandos.com.my\/restaurants\/nandos-ikano-power-centre-ipc\/",
    "scraped_at":"2025-12-21T15:47:26.781424+00:00"
  },
  {
    "country":"MY",
    "parent_chain":"Nando’s",
    "chain":"Nando’s",
    "state":"Johor",
    "store_name":"1 Utama",
    "address":"Lot F351, First Floor, New Wing, 1 Utama Shopping Centre, Lebuh Bandar Utama, Petaling Jaya, Selangor",
    "phone":null,
    "opening_hours":null,
    "opening_hours_raw":null,
    "source":"https:\/\/nandos.com.my\/restaurants\/nandos-1-utama\/",
    "scraped_at":"2025-12-21T15:47:27.740324+00:00"
  },
  {
    "country":"MY",
    "parent_chain":"Nando’s",
    "chain":"Nando’s",
    "state":"Johor",
    "store_name":"KLIA2",
    "address":"Lot L3-51, Level 3, Gateway@KLIA2, Terminal KLIA2, KL International Airport, Jalan KLIA 2\/1, KLIA, Sepang, Selangor",
    "phone":"03-89662554",
    "opening_hours":null,
    "opening_hours_raw":null,
    "source":"https:\/\/nandos.com.my\/restaurants\/nandos-klia-2\/",
    "scraped_at":"2025-12-21T15:47:28.897261+00:00"
  },
  {
    "country":"MY",
    "parent_chain":"Nando’s",
    "chain":"Nando’s",
    "state":"Johor",
    "store_name":"Gamuda Walk",
    "address":"Ground floor Lot G-19 & G20, No.12 Persiaran Anggerik Vanilla, Kota Kemuning Seksyen 31, Selangor Darul Ehsan",
    "phone":"03-89662550",
    "opening_hours":null,
    "opening_hours_raw":null,
    "source":"https:\/\/nandos.com.my\/restaurants\/nandos-gamuda-walk\/",
    "scraped_at":"2025-12-21T15:47:30.292050+00:00"
  },
  {
    "country":"MY",
    "parent_chain":"Nando’s",
    "chain":"Nando’s",
    "state":"Johor",
    "store_name":"Main Place",
    "address":"Lot GF-23 & GF-26, Ground Floor, Main Place, Jalan USJ\/10, Persiaran Kewajipan, Subang Jaya Selangor",
    "phone":"03-89662557",
    "opening_hours":null,
    "opening_hours_raw":null,
    "source":"https:\/\/nandos.com.my\/restaurants\/nandos-main-place\/",
    "scraped_at":"2025-12-21T15:47:31.273670+00:00"
  },
  {
    "country":"MY",
    "parent_chain":"Nando’s",
    "chain":"Nando’s",
    "state":"Johor",
    "store_name":"IOI Mall Puchong",
    "address":"Lot G00A7, Ground Floor (near North Entrance), IOI Mall, Batu 9 Jalan Puchong, Bandar Puchong Jaya, Puchong, Selangor",
    "phone":null,
    "opening_hours":null,
    "opening_hours_raw":null,
    "source":"https:\/\/nandos.com.my\/restaurants\/nandos-ioi-mall-puchong\/",
    "scraped_at":"2025-12-21T15:47:32.400324+00:00"
  },
  {
    "country":"MY",
    "parent_chain":"Nando’s",
    "chain":"Nando’s",
    "state":"Johor",
    "store_name":"Sunway Pyramid",
    "address":"Lot L2.56, Lower Level 2, Sunway Pyramid, No.3, Jalan PJS11\/15, Bandar Sunway, Petaling Jaya, Selangor",
    "phone":"03-89662571",
    "opening_hours":null,
    "opening_hours_raw":null,
    "source":"https:\/\/nandos.com.my\/restaurants\/nandos-sunway-pyramid\/",
    "scraped_at":"2025-12-21T15:47:33.346050+00:00"
  },
  {
    "country":"MY",
    "parent_chain":"Nando’s",
    "chain":"Nando’s",
    "state":"Johor",
    "store_name":"Subang Parade",
    "address":"Lot LG 10B-C, Lower Ground Floor, Subang Parade, No.5, Jalan SS16\/1, Subang Jaya,  Selangor",
    "phone":"03-89662560",
    "opening_hours":null,
    "opening_hours_raw":null,
    "source":"https:\/\/nandos.com.my\/restaurants\/nandos-subang-parade\/",
    "scraped_at":"2025-12-21T15:47:34.203090+00:00"
  },
  {
    "country":"MY",
    "parent_chain":"Nando’s",
    "chain":"Nando’s",
    "state":"Johor",
    "store_name":"Mahkota Cheras",
    "address":"No. 9 & 11 Mahkota Square, Jalan Temenggung 23\/9, Bandar Mahkota Cheras, Cheras, Selangor",
    "phone":"03-89662555",
    "opening_hours":null,
    "opening_hours_raw":null,
    "source":"https:\/\/nandos.com.my\/restaurants\/nandos-mahkota-cheras\/",
    "scraped_at":"2025-12-21T15:47:35.039954+00:00"
  },
  {
    "country":"MY",
    "parent_chain":"Nando’s",
    "chain":"Nando’s",
    "state":"Johor",
    "store_name":"The Mines",
    "address":"L1-66 Level 1, Mines Shopping Mall, Jln Dulang, Mines Resorts City, Seri Kembangan Selangor",
    "phone":"03-89662572",
    "opening_hours":null,
    "opening_hours_raw":null,
    "source":"https:\/\/nandos.com.my\/restaurants\/nandos-the-mines\/",
    "scraped_at":"2025-12-21T15:47:36.313414+00:00"
  },
  {
    "country":"MY",
    "parent_chain":"Nando’s",
    "chain":"Nando’s",
    "state":"Johor",
    "store_name":"AEON Rawang",
    "address":"Lot G-60, Ground Floor, AEON Anggun Rawang Shopping Centre, No. 1, Persiaran Anggun, Taman Anggun, Rawang, Selangor",
    "phone":"03-89662542",
    "opening_hours":null,
    "opening_hours_raw":null,
    "source":"https:\/\/nandos.com.my\/restaurants\/nandos-aeon-rawang\/",
    "scraped_at":"2025-12-21T15:47:37.531939+00:00"
  },
  {
    "country":"MY",
    "parent_chain":"Nando’s",
    "chain":"Nando’s",
    "state":"Johor",
    "store_name":"The Spring Bintulu",
    "address":"Lot No.G41, Ground Floor, The Spring Shopping Mall, Jalan Tun Razak, Bintulu, Sarawak",
    "phone":"087-430377",
    "opening_hours":null,
    "opening_hours_raw":null,
    "source":"https:\/\/nandos.com.my\/restaurants\/the-spring-bintulu\/",
    "scraped_at":"2025-12-21T15:47:38.434507+00:00"
  },
  {
    "country":"MY",
    "parent_chain":"Nando’s",
    "chain":"Nando’s",
    "state":"Johor",
    "store_name":"Majestic Labs",
    "address":"Majestic Labs 1, Lot G-17, Jalan Eco Majestic 10\/2, Eco Majestic , Semenyih, Selangor",
    "phone":"0392124642",
    "opening_hours":null,
    "opening_hours_raw":null,
    "source":"https:\/\/nandos.com.my\/restaurants\/majestic-labs\/",
    "scraped_at":"2025-12-21T15:47:39.402562+00:00"
  }
]