[
  {
    "id":1,
    "name":"Starbucks Petron Sekinchan DT",
    "address":"17100C, Jalan Besar, Parit 4, Sungai Burong, 45400 Sekinchan, Selangor",
    "state":"Selangor",
    "lat":3.5119026,
    "lng":101.1363733,
    "phone":"TBA",
    "is_24_hours":false,
    "drive_thru":true,
    "mobile_order":false,
    "brand":"Starbucks"
  },
  {
    "id":2,
    "name":"Starbucks Kuchai Lama",
    "address":"No 1 & 1-1, Jalan 10\/116B, Kuchai Entrepreneur Park, 58200 Kuala Lumpur",
    "state":"W.P. Kuala Lumpur",
    "lat":3.0905,
    "lng":101.6888,
    "phone":"TBA",
    "is_24_hours":false,
    "drive_thru":false,
    "mobile_order":true,
    "brand":"Starbucks"
  },
  {
    "id":3,
    "name":"Starbucks Kota Kemuning DT",
    "address":"Part of Lot PT128300, Jalan Anggerik Vanila,Kota Kemuning, Seksyen 31,40460 Shah Alam, Selangor",
    "state":"Selangor",
    "lat":2.990733,
    "lng":101.547999,
    "phone":"603-55251459",
    "is_24_hours":false,
    "drive_thru":false,
    "mobile_order":false,
    "brand":"Starbucks"
  },
  {
    "id":4,
    "name":"Starbucks Club Nexu5",
    "address":"Lot F&B 01, Ground Floor, Club Nexu5, Bangsar South, 59200 Kuala Lumpur",
    "state":"W.P. Kuala Lumpur",
    "lat":3.127288,
    "lng":101.678122,
    "phone":"603-28569090",
    "is_24_hours":false,
    "drive_thru":false,
    "mobile_order":true,
    "brand":"Starbucks"
  },
  {
    "id":6,
    "name":"Starbucks Tanjong Tokong DT",
    "address":"4-G Jalan Pantai Molek, 10470 Tanjung Tokong, Penang.",
    "state":"Penang",
    "lat":5.44664,
    "lng":100.30548,
    "phone":"604-8906008",
    "is_24_hours":false,
    "drive_thru":false,
    "mobile_order":false,
    "brand":"Starbucks"
  },
  {
    "id":8,
    "name":"Starbucks Puchong Jaya",
    "address":"G-01, Kompleks Kenari, Jalan Kenari 19, Bandar Puchong Jaya, 47100 Puchong, Selangor.",
    "state":"Selangor",
    "lat":3.03662,
    "lng":101.625586,
    "phone":"603-58799190",
    "is_24_hours":false,
    "drive_thru":false,
    "mobile_order":false,
    "brand":"Starbucks"
  },
  {
    "id":9,
    "name":"Starbucks Menara Hap Seng",
    "address":"Suite G-09, Ground Floor, The Podium Menara Hap Seng, Letter Box 29, Jalan P.Ramlee 50250, Kuala Lumpur.",
    "state":"W.P. Kuala Lumpur",
    "lat":3.153336,
    "lng":101.707138,
    "phone":"603-20222656",
    "is_24_hours":false,
    "drive_thru":false,
    "mobile_order":false,
    "brand":"Starbucks"
  },
  {
    "id":10,
    "name":"Starbucks AEON Cheras Selatan",
    "address":"Lot G31,  AEON Cheras Selatan Shopping Centre, Lebuh Tun Hussien Onn, 43200 Balakong, Selangor.",
    "state":"Selangor",
    "lat":3.033441,
    "lng":101.764997,
    "phone":"603-90812476",
    "is_24_hours":false,
    "drive_thru":false,
    "mobile_order":true,
    "brand":"Starbucks"
  },
  {
    "id":11,
    "name":"Starbucks Lagenda Village Mall",
    "address":"Lot G-9, G-15, G-16 Ground Floor Village Mall Jalan Legenda 1,  Legenda Heights,08000 Sungai Petani. Kedah.",
    "state":"Kedah",
    "lat":5.660133,
    "lng":100.501653,
    "phone":"604-4461055",
    "is_24_hours":false,
    "drive_thru":false,
    "mobile_order":true,
    "brand":"Starbucks"
  },
  {
    "id":12,
    "name":"Starbucks Jetty Point Langkawi",
    "address":"Lots 15 & 16, Zone 2, Jetty Point Duty Free Complex, Jetty Kuah, Langkawi, 07000 Langkawi, Kedah Darul Aman",
    "state":"Kedah",
    "lat":6.306528,
    "lng":99.851873,
    "phone":"604-9610026",
    "is_24_hours":false,
    "drive_thru":false,
    "mobile_order":true,
    "brand":"Starbucks"
  },
  {
    "id":13,
    "name":"Starbucks Menara Maybank",
    "address":"Foyer Area, 1st Floor, Menara Maybank, 100, Jalan Tun Perak, 50050 Kuala Lumpur, Malaysia.",
    "state":"W.P. Kuala Lumpur",
    "lat":3.146056,
    "lng":101.697952,
    "phone":"603-27427345",
    "is_24_hours":false,
    "drive_thru":false,
    "mobile_order":true,
    "brand":"Starbucks"
  },
  {
    "id":15,
    "name":"Starbucks Johor Bahru City Square",
    "address":"Lot J1-06, Level 1,  Johor Bahru City Square, No. 106 & 108, Jalan Wong Ah Fook, 80000 Johor Bahru, Johor, Malaysia.",
    "state":"Johor",
    "lat":1.462624,
    "lng":103.763409,
    "phone":"607-2897211",
    "is_24_hours":false,
    "drive_thru":false,
    "mobile_order":true,
    "brand":"Starbucks"
  },
  {
    "id":16,
    "name":"Starbucks Jaya Shopping Centre",
    "address":"Lot G15A & G-16, Ground Floor, Jaya Shopping Centre, Section 14, 46100 Petaling Jaya, Selangor",
    "state":"Selangor",
    "lat":3.109565,
    "lng":101.637113,
    "phone":"603-74967302",
    "is_24_hours":false,
    "drive_thru":false,
    "mobile_order":false,
    "brand":"Starbucks"
  },
  {
    "id":17,
    "name":"Starbucks Petronas Equine Park DT",
    "address":"Petronas Station Equine Park 1, Mukim Petaling, 43300, Seri Kembangan, Selangor",
    "state":"Selangor",
    "lat":2.994503,
    "lng":101.675884,
    "phone":"603-89401191",
    "is_24_hours":false,
    "drive_thru":false,
    "mobile_order":true,
    "brand":"Starbucks"
  },
  {
    "id":18,
    "name":"Starbucks Kota Kinabalu International Airport",
    "address":"Lot L3A01, Level 3, Airside, Terminal 1, Kota Kinabalu International Airport, 88740, Sabah.",
    "state":"Sabah",
    "lat":5.930603,
    "lng":116.049614,
    "phone":"TBA",
    "is_24_hours":false,
    "drive_thru":false,
    "mobile_order":false,
    "brand":"Starbucks"
  },
  {
    "id":19,
    "name":"Starbucks Lebuh Ampang",
    "address":"Lot G1, Ground Floor, Lot 104, Seksyen 12, Lebuh Ampang, 50100 Kuala Lumpur",
    "state":"W.P. Kuala Lumpur",
    "lat":3.148119,
    "lng":101.696487,
    "phone":"603-20220267",
    "is_24_hours":false,
    "drive_thru":false,
    "mobile_order":false,
    "brand":"Starbucks"
  },
  {
    "id":20,
    "name":"Starbucks Petronas Sg Besi-Puchong DT",
    "address":"Petronas Station Sg Besi-Puchong Bypass, Lot PT 17732-17740, Sungai Besi-Puchong Bypass (Kinrara), Mukim Petaling, 47100 Puchong, Selangor",
    "state":"Selangor",
    "lat":3.0503994,
    "lng":101.6288575,
    "phone":"6012-2761665",
    "is_24_hours":false,
    "drive_thru":true,
    "mobile_order":false,
    "brand":"Starbucks"
  },
  {
    "id":22,
    "name":"Starbucks Alor Setar DT",
    "address":"Bangunan Starbucks Coffee, Lot 2487 – 2490, Jalan Alor Mengkudu, 05400 Alor Setar, Kedah Darul Aman  Jalan Alor Mengkudu, 05400 Alor Setar, Kedah",
    "state":"Kedah",
    "lat":6.085436,
    "lng":100.398583,
    "phone":"604-7338094",
    "is_24_hours":false,
    "drive_thru":false,
    "mobile_order":true,
    "brand":"Starbucks"
  },
  {
    "id":23,
    "name":"Starbucks Capital Square",
    "address":"Unit 01-01, Ground Floor, Cap Square Tower, No.10, Jalan Munshi Abdullah, 50100 Kuala Lumpur",
    "state":"W.P. Kuala Lumpur",
    "lat":3.154565,
    "lng":101.699853,
    "phone":"603-26040784",
    "is_24_hours":false,
    "drive_thru":false,
    "mobile_order":true,
    "brand":"Starbucks"
  },
  {
    "id":26,
    "name":"Starbucks Lotus's Melaka DT",
    "address":"Lot L45, Ground Floor, Lotus's Melaka, No. 1, Jalan Tun Abdul Razak, 75400 Peringgit, Melaka",
    "state":"Melaka",
    "lat":2.21826,
    "lng":102.24672,
    "phone":"606-2812146",
    "is_24_hours":false,
    "drive_thru":false,
    "mobile_order":true,
    "brand":"Starbucks"
  },
  {
    "id":27,
    "name":"Starbucks Plaza Mont' Kiara",
    "address":"Lot Suite B, OG-01-02, Plaza Mont Kiara, No.2, Jalan 1\/70C, Mont' Kiara, 50480 Kuala Lumpur",
    "state":"W.P. Kuala Lumpur",
    "lat":3.16567,
    "lng":101.65168,
    "phone":"603-6206 2194",
    "is_24_hours":false,
    "drive_thru":false,
    "mobile_order":true,
    "brand":"Starbucks"
  },
  {
    "id":28,
    "name":"Starbucks Taiping Sentral",
    "address":"Lot G-09 & G-10, Taiping Sentral No. 36, Jalan Istana Larut 34000 Taiping, Perak.",
    "state":"Perak",
    "lat":4.865745,
    "lng":100.731169,
    "phone":"6019-3298953",
    "is_24_hours":false,
    "drive_thru":false,
    "mobile_order":true,
    "brand":"Starbucks"
  },
  {
    "id":29,
    "name":"Starbucks T2 Apas Tawau",
    "address":"No.15-Lot 29, No.30-Lot 30, No.16-Lot 31 & No.29-Lot 32, T2@APAS, Jalan T2-A, Mile1, Jalan Apas, 91000 Tawau, Sabah",
    "state":"Sabah",
    "lat":4.2515406,
    "lng":117.8980022,
    "phone":"TBA",
    "is_24_hours":false,
    "drive_thru":false,
    "mobile_order":false,
    "brand":"Starbucks"
  },
  {
    "id":31,
    "name":"Starbucks Shell LDP Puchong DT",
    "address":"Shell NTI LDP Puchong, Lot 117230, Mukim Petaling, Daerah Petaling, Selangor",
    "state":"Selangor",
    "lat":2.9807452,
    "lng":101.6468945,
    "phone":"03-29382530",
    "is_24_hours":false,
    "drive_thru":false,
    "mobile_order":false,
    "brand":"Starbucks"
  },
  {
    "id":33,
    "name":"Starbucks Troika Kota Bahru",
    "address":"Lot 1-10 & 1-11, Troika Kota Bahru, Bandar Kota Bahru, 15200 Kota Bahru, Kelantan",
    "state":"Kelantan",
    "lat":6.1208986,
    "lng":102.2398675,
    "phone":"TBA",
    "is_24_hours":false,
    "drive_thru":false,
    "mobile_order":true,
    "brand":"Starbucks"
  },
  {
    "id":34,
    "name":"Starbucks Eco Grandeur DT",
    "address":"No. 31, Ruang Niaga Eco Grandeur, Persiaran Mokhtar Dahari, 42300 Bandar Puncak Alam, Selangor",
    "state":"Selangor",
    "lat":3.227398,
    "lng":101.458158,
    "phone":"603-60876670",
    "is_24_hours":false,
    "drive_thru":false,
    "mobile_order":true,
    "brand":"Starbucks"
  },
  {
    "id":35,
    "name":"Starbucks Reserve Eco Majestic DT",
    "address":"No 1-9, Jalan Eco Majestic 10\/1, Eco Majestic, 43500 Semenyih, Selangor",
    "state":"Selangor",
    "lat":2.898783,
    "lng":101.832859,
    "phone":"TBA",
    "is_24_hours":false,
    "drive_thru":false,
    "mobile_order":false,
    "brand":"Starbucks"
  },
  {
    "id":36,
    "name":"Starbucks Penang International Airport (Main Terminal)",
    "address":"Lot L2LFB05C, Level 2, Public Concourse, Penang International Airport, Bayan Lepas, 11900 Penang, Pulau Pinang",
    "state":"Penang",
    "lat":5.292797,
    "lng":100.266001,
    "phone":"6012-388 9167",
    "is_24_hours":false,
    "drive_thru":false,
    "mobile_order":false,
    "brand":"Starbucks"
  },
  {
    "id":37,
    "name":"Starbucks Jalan Lintas DT",
    "address":"No. 1, Jalan Iramanis, Iramanis, 88450 Kota Kinabalu, Sabah",
    "state":"Sabah",
    "lat":5.970072,
    "lng":116.110883,
    "phone":"6019-6950464",
    "is_24_hours":false,
    "drive_thru":true,
    "mobile_order":true,
    "brand":"Starbucks"
  },
  {
    "id":38,
    "name":"Starbucks Sandakan Airport",
    "address":"Lot No. GFL12, Ground Floor, Kerbside (Landside), Sandakan Airport, 90000 Sandakan, Sabah",
    "state":"Sabah",
    "lat":5.8969217,
    "lng":118.0621015,
    "phone":"TBA",
    "is_24_hours":false,
    "drive_thru":false,
    "mobile_order":false,
    "brand":"Starbucks"
  },
  {
    "id":39,
    "name":"Starbucks KLIA Food Garden",
    "address":"Lot No. FG 12, Food Garden, Level 2, Main Terminal Building (MTB) Kuala Lumpur International Airport",
    "state":"Selangor",
    "lat":2.7548841,
    "lng":101.705608,
    "phone":"TBA",
    "is_24_hours":true,
    "drive_thru":false,
    "mobile_order":true,
    "brand":"Starbucks"
  },
  {
    "id":40,
    "name":"Starbucks Ayer Keroh R&R",
    "address":"AKHNB CL4, Ayer Keroh RSA Northbound, North-South Expy, 78000 Alor Gajah, Melaka",
    "state":"Melaka",
    "lat":2.363554,
    "lng":102.246077,
    "phone":"6012-6802366",
    "is_24_hours":false,
    "drive_thru":false,
    "mobile_order":true,
    "brand":"Starbucks"
  },
  {
    "id":41,
    "name":"Starbucks SEAFEST Semporna Sabah",
    "address":"Lot 23, Lot 24 & Plaza A, Ground Floor, Seafest Commercial Complex, 91308 Semporna, Sabah",
    "state":"Sabah",
    "lat":4.479082,
    "lng":118.61789,
    "phone":"608 - 9788559",
    "is_24_hours":false,
    "drive_thru":false,
    "mobile_order":true,
    "brand":"Starbucks"
  },
  {
    "id":42,
    "name":"Starbucks Oasis Damansara",
    "address":"R11, Oasis Damansara, No.2, Jalan PJU 1A\/7A, Oasis Ara Damansara, Petaling Jaya, Selangor, Malaysia 47301    ",
    "state":"Selangor",
    "lat":3.113541,
    "lng":101.574582,
    "phone":"6019-2065949",
    "is_24_hours":false,
    "drive_thru":false,
    "mobile_order":true,
    "brand":"Starbucks"
  },
  {
    "id":43,
    "name":"Starbucks KL Eco City Mall",
    "address":"Lot UG-25 & UG-26, Level UG, KL Eco City Mall, Pantai Baru, Jalan Besar, 59200 Kuala Lumpur",
    "state":"W.P. Kuala Lumpur",
    "lat":3.120249,
    "lng":101.674459,
    "phone":"603-28568361",
    "is_24_hours":false,
    "drive_thru":false,
    "mobile_order":true,
    "brand":"Starbucks"
  },
  {
    "id":44,
    "name":"Starbucks Southlink Bangsar",
    "address":"Unit B1-06B, Basement 1 Floor, Residensi Sambungan Selatan (South link), No.2A, Jln Kerinchi Kiri 2, 59200 Kuala Lumpur",
    "state":"W.P. Kuala Lumpur",
    "lat":3.1131471,
    "lng":101.6650403,
    "phone":"TBA",
    "is_24_hours":false,
    "drive_thru":false,
    "mobile_order":false,
    "brand":"Starbucks"
  },
  {
    "id":46,
    "name":"Starbucks Juru R&R DT",
    "address":"No.2, Lorong Setia Sentral 2, Pusat Perniagaan Setia Sentral, 14000, Bukit Mertajam, Penang",
    "state":"Penang",
    "lat":5.3531,
    "lng":100.420531,
    "phone":"604-3719841",
    "is_24_hours":false,
    "drive_thru":false,
    "mobile_order":true,
    "brand":"Starbucks"
  },
  {
    "id":47,
    "name":"Starbucks ECO Boulevard",
    "address":"No. 84 & 84A Jalan Eko Botani 3\/2, Taman Eko Botani, 79100, Iskandar Puteri, Johor",
    "state":"Johor",
    "lat":1.447382,
    "lng":103.620138,
    "phone":"607-5095456",
    "is_24_hours":false,
    "drive_thru":false,
    "mobile_order":true,
    "brand":"Starbucks"
  },
  {
    "id":48,
    "name":"Starbucks Labuan Airport Lot",
    "address":"No. L1L06, Level 1, Labuan Airport, Jalan Tun Mustapha, Taman Sec Airport, 87015, Labuan",
    "state":"W.P. Labuan",
    "lat":5.294448,
    "lng":115.249261,
    "phone":"6087-413126",
    "is_24_hours":false,
    "drive_thru":false,
    "mobile_order":true,
    "brand":"Starbucks"
  },
  {
    "id":49,
    "name":"Starbucks Mitsui Outlet Park ",
    "address":"G65, Ground Floor, Mitsui Outlet Park KLIA Sepang, Persiaran Komersial, 64000 KLIA, Sepang, Selangor",
    "state":"Selangor",
    "lat":2.77927,
    "lng":101.676541,
    "phone":"603-86602258",
    "is_24_hours":false,
    "drive_thru":false,
    "mobile_order":false,
    "brand":"Starbucks"
  },
  {
    "id":50,
    "name":"Starbucks Batu Ferringhi",
    "address":"No. 69, Jalan Batu Ferringhi, 11000 Batu Ferringhi, Penang",
    "state":"Penang",
    "lat":5.473795,
    "lng":100.246721,
    "phone":"604-8812020",
    "is_24_hours":false,
    "drive_thru":false,
    "mobile_order":true,
    "brand":"Starbucks"
  },
  {
    "id":51,
    "name":"Starbucks Tin Village Kampar",
    "address":"Lot No. 5&6, Ground Floor, Tin Village Mall,31900 Kampar, Perak",
    "state":"Perak",
    "lat":4.326806,
    "lng":101.146766,
    "phone":"05-4650462",
    "is_24_hours":false,
    "drive_thru":false,
    "mobile_order":true,
    "brand":"Starbucks"
  },
  {
    "id":53,
    "name":"Starbucks Imperial City Mall",
    "address":"PICM-GF11, PICM-GF11a & PICM-GF11b, Ground Floor, Permaisuri Imperial City Mall, Jalan Merpati, 98000 Miri, Sarawak.",
    "state":"Sarawak",
    "lat":4.399706,
    "lng":113.992005,
    "phone":"6085-419171",
    "is_24_hours":false,
    "drive_thru":false,
    "mobile_order":true,
    "brand":"Starbucks"
  },
  {
    "id":54,
    "name":"Starbucks Melaka Raya",
    "address":"No. 161 Jalan Merdeka, Taman Melaka Raya, 75000 Melaka.",
    "state":"Melaka",
    "lat":2.186101,
    "lng":102.26048,
    "phone":"606-2400303",
    "is_24_hours":false,
    "drive_thru":false,
    "mobile_order":true,
    "brand":"Starbucks"
  },
  {
    "id":55,
    "name":"Starbucks Miri Airport",
    "address":"Lot No. GL 14, Public Concourse, Ground Level, Miri Airport, 98000 Miri, Sarawak",
    "state":"Sarawak",
    "lat":4.331214,
    "lng":113.985114,
    "phone":"TBA",
    "is_24_hours":false,
    "drive_thru":false,
    "mobile_order":false,
    "brand":"Starbucks"
  },
  {
    "id":56,
    "name":"Starbucks Bintang Plaza Miri",
    "address":"Lot G47 & G39A, Ground Floor, Bintang Plaza  Shopping Plaza, Jalan Bintang, 98000 Miri ,Sarawak.",
    "state":"Sarawak",
    "lat":4.39737,
    "lng":113.993457,
    "phone":"6085-435650",
    "is_24_hours":false,
    "drive_thru":false,
    "mobile_order":true,
    "brand":"Starbucks"
  },
  {
    "id":57,
    "name":"Starbucks KLIA Satellite",
    "address":"Lot No. SAT-M-20, Mezzanine Level, Satellite Building, Kuala Lumpur International Airport, 64000 Sepang, Selangor",
    "state":"W.P. Kuala Lumpur",
    "lat":2.7473857,
    "lng":101.712753,
    "phone":"TBA",
    "is_24_hours":true,
    "drive_thru":false,
    "mobile_order":true,
    "brand":"Starbucks"
  },
  {
    "id":59,
    "name":"Starbucks TTDI",
    "address":"No. 20G, A & B, Jalan Tun Mohd Fuad 1, Taman Tun Dr Ismail, 60000 Kuala Lumpur.",
    "state":"W.P. Kuala Lumpur",
    "lat":3.14177,
    "lng":101.629161,
    "phone":"603-28569103",
    "is_24_hours":false,
    "drive_thru":false,
    "mobile_order":true,
    "brand":"Starbucks"
  },
  {
    "id":63,
    "name":"Starbucks Wisma UOA",
    "address":"19-1-2, Ground Floor, UOA Centre, No.19, Jalan Pinang, 50450 Kuala Lumpur.",
    "state":"W.P. Kuala Lumpur",
    "lat":3.152758,
    "lng":101.711931,
    "phone":"603-21811237",
    "is_24_hours":false,
    "drive_thru":false,
    "mobile_order":true,
    "brand":"Starbucks"
  },
  {
    "id":64,
    "name":"Starbucks Ampang DT",
    "address":"Lot 4258 & 4259, Jalan Ampang, 50450 Kuala Lumpur ",
    "state":"W.P. Kuala Lumpur",
    "lat":3.159375,
    "lng":101.713419,
    "phone":"603-42653872",
    "is_24_hours":false,
    "drive_thru":false,
    "mobile_order":false,
    "brand":"Starbucks"
  },
  {
    "id":65,
    "name":"Starbucks Genting Permai DT",
    "address":"Lot 21078, Jalan Permai 2, Genting Permai Avenue, 69000 Genting Highlands,Pahang ",
    "state":"Pahang",
    "lat":3.388453,
    "lng":101.774104,
    "phone":"6012-7633897",
    "is_24_hours":false,
    "drive_thru":true,
    "mobile_order":false,
    "brand":"Starbucks"
  },
  {
    "id":66,
    "name":"Starbucks Petronas Lingkaran Karak  DT",
    "address":"Lot PT, 6075 H.S(M), Lebuhraya Kuala Lumpur - Karak, 68100, Mukim Setapak, Daerah Gombak, Selangor",
    "state":"W.P. Kuala Lumpur",
    "lat":3.24161,
    "lng":101.716503,
    "phone":"603-61850392",
    "is_24_hours":false,
    "drive_thru":false,
    "mobile_order":true,
    "brand":"Starbucks"
  },
  {
    "id":67,
    "name":"Starbucks Petronas PLUS DT",
    "address":"Stesen Minyak Petronas, KM305 PLUS Arah Selatan 43300 Serdang, Mukim Kajang, Daerah Hulu Langat, Selangor.",
    "state":"Selangor",
    "lat":3.0060142,
    "lng":101.7254258,
    "phone":"6012-3280057",
    "is_24_hours":false,
    "drive_thru":false,
    "mobile_order":true,
    "brand":"Starbucks"
  },
  {
    "id":69,
    "name":"Starbucks Pantai Hospital Ayer Keroh",
    "address":"Anchor Tenant 1 (AT1), Ground Floor, Block D, Pantai Hospital Ayer Keroh, No. 2418-a, KM 8, Lebuh Ayer Keroh, 75450 Melaka.",
    "state":"Melaka",
    "lat":2.2377544,
    "lng":102.2872635,
    "phone":"TBA",
    "is_24_hours":false,
    "drive_thru":false,
    "mobile_order":false,
    "brand":"Starbucks"
  },
  {
    "id":70,
    "name":"Starbucks Danau Kota DT",
    "address":"Unit Shop 17, The Palette Hab Komersial Danau Kota, No. 8, Jalan Langkawi, Taman Danau Kota, 53000 Setapak, Kuala Lumpur",
    "state":"W.P. Kuala Lumpur",
    "lat":3.205424,
    "lng":101.716344,
    "phone":"TBA",
    "is_24_hours":false,
    "drive_thru":false,
    "mobile_order":false,
    "brand":"Starbucks"
  },
  {
    "id":71,
    "name":"Starbucks Pavilion Bukit Jalil",
    "address":"Lot 3.114 & E3.114, Level 3, Pavilion Bukit Jalil, Persiaran Jalil Utama, Bukit Jalil, 57000, Kuala Lumpur",
    "state":"W.P. Kuala Lumpur",
    "lat":3.0523234,
    "lng":101.6708481,
    "phone":"603-97666409",
    "is_24_hours":false,
    "drive_thru":false,
    "mobile_order":false,
    "brand":"Starbucks"
  },
  {
    "id":72,
    "name":"Starbucks HUKM",
    "address":"Lot(s) 10 & 11, Visitors’ Lobby, Hospital Canselor Tunku Mukhriz HCTM (formerly known as Hospital Universiti Kebangsaan Malaysia), Cheras, 56000 Kuala Lumpur",
    "state":"W.P. Kuala Lumpur",
    "lat":3.0978742,
    "lng":101.7253785,
    "phone":"TBA",
    "is_24_hours":false,
    "drive_thru":false,
    "mobile_order":false,
    "brand":"Starbucks"
  },
  {
    "id":73,
    "name":"Starbucks Kangar Jaya DT",
    "address":"No. 1A Jalan Kangar Jaya 14, Kangar Jaya, Jalan Tuanku Syed Putra (Jalan Kangar - Alor Setar), 01000 Kangar, Perlis",
    "state":"Kuala Lumpur",
    "lat":6.40722,
    "lng":100.17954,
    "phone":"6012-7633897",
    "is_24_hours":false,
    "drive_thru":false,
    "mobile_order":true,
    "brand":"Starbucks"
  },
  {
    "id":77,
    "name":"Starbucks Caltex Melawati",
    "address":"Caltex Taman Melawati, Lot 14855, Jalan Bandar 4, Taman Melawati, 53100 Kuala Lumpur",
    "state":"W.P. Kuala Lumpur",
    "lat":3.211176,
    "lng":101.752259,
    "phone":"6012-3280217",
    "is_24_hours":false,
    "drive_thru":false,
    "mobile_order":true,
    "brand":"Starbucks"
  },
  {
    "id":78,
    "name":"Starbucks Tapah R&R (SB)",
    "address":"Lot TPHSB-C05, Tapah RSA Southbound, Lebuhraya Utara-Selatan, 35000 Tapah, Perak",
    "state":"Perak",
    "lat":4.180945,
    "lng":101.28973,
    "phone":"6019-6951366",
    "is_24_hours":false,
    "drive_thru":false,
    "mobile_order":true,
    "brand":"Starbucks"
  },
  {
    "id":81,
    "name":"Starbucks Penang International Airport (Domestic)",
    "address":"Lot L2AFB08, Domestic Airside Penang International Airport, Bayan Lepas, 11900 Penang, Pulau Pinang.",
    "state":"Penang",
    "lat":5.29284,
    "lng":100.26588,
    "phone":"6012-6808959",
    "is_24_hours":false,
    "drive_thru":false,
    "mobile_order":false,
    "brand":"Starbucks"
  },
  {
    "id":82,
    "name":"Starbucks Penang International Airport (International)",
    "address":"Lot L2AFB12B, Level 2, International Departure (Airside), Penang International Airport, Bayan Lepas, 11900 Penang.",
    "state":"Penang",
    "lat":5.2926755,
    "lng":100.2654955,
    "phone":" 016-727 6520",
    "is_24_hours":false,
    "drive_thru":false,
    "mobile_order":false,
    "brand":"Starbucks"
  },
  {
    "id":83,
    "name":"Starbucks Menara Etiqa",
    "address":"Lot 1.1, Menara Etiqa, No.3, Jalan Bangsar Utama 1, 59000 Kuala Lumpur",
    "state":"W.P. Kuala Lumpur",
    "lat":3.127165,
    "lng":101.678104,
    "phone":"6019-3463220",
    "is_24_hours":false,
    "drive_thru":false,
    "mobile_order":false,
    "brand":"Starbucks"
  },
  {
    "id":84,
    "name":"Starbucks Segamat Sri Utama",
    "address":"Lot 25, Jalan Utama 3\/2, Pusat Komersial Sri Utama, 85000 Segamat, Johor",
    "state":"Johor",
    "lat":2.514233,
    "lng":102.822435,
    "phone":"6012-5050389",
    "is_24_hours":false,
    "drive_thru":false,
    "mobile_order":true,
    "brand":"Starbucks"
  },
  {
    "id":85,
    "name":"Starbucks Reserve Berjaya Times Square",
    "address":"Lot No. G-09A, Ground Floor, Berjaya Times Square, No.1, Jalan Imbi, 55100 Kuala Lumpur, Malaysia.",
    "state":"W.P. Kuala Lumpur",
    "lat":3.142642,
    "lng":101.710399,
    "phone":"603-21102014",
    "is_24_hours":false,
    "drive_thru":false,
    "mobile_order":true,
    "brand":"Starbucks"
  },
  {
    "id":86,
    "name":"Starbucks KSL Resort",
    "address":"Lot G-H01 \/ H01A KSL Resort Lobby, Ground Floor, KSL City, No. 33, Jalan Seladang, Taman Abad, 80250 Johor Bahru",
    "state":"Johor",
    "lat":1.485978,
    "lng":103.762454,
    "phone":"607-3621108",
    "is_24_hours":false,
    "drive_thru":false,
    "mobile_order":true,
    "brand":"Starbucks"
  },
  {
    "id":88,
    "name":"Starbucks Danga Bay",
    "address":"Sales Gallery, Lot PTB 22056, Danga Bay, Jalan Skudai, 80200 Johor Bahru, Johor",
    "state":"Johor",
    "lat":1.467074,
    "lng":103.727484,
    "phone":"607-2890308",
    "is_24_hours":false,
    "drive_thru":false,
    "mobile_order":false,
    "brand":"Starbucks"
  },
  {
    "id":89,
    "name":"Starbucks NU Sentral",
    "address":"Level LG3, Menara Allianz Sentral, No. 203, Jalan Tun Sambanthan, Kuala Lumpur Sentral, 50470 Kuala Lumpur",
    "state":"W.P. Kuala Lumpur",
    "lat":3.132436,
    "lng":101.686795,
    "phone":"603-23039621",
    "is_24_hours":false,
    "drive_thru":false,
    "mobile_order":true,
    "brand":"Starbucks"
  },
  {
    "id":90,
    "name":"Starbucks TPM DT",
    "address":"Wisma Scope International,PT15084, Jalan Teknologi Malaysia,Taman Teknologi Malaysia,57000 Kuala Lumpur",
    "state":"W.P. Kuala Lumpur",
    "lat":3.046738,
    "lng":101.688516,
    "phone":"603-95439867",
    "is_24_hours":false,
    "drive_thru":false,
    "mobile_order":true,
    "brand":"Starbucks"
  },
  {
    "id":91,
    "name":"Starbucks Sunway Tambun DT",
    "address":"Part of Lot HS(D) KA 72917, PT146136 (Plot 10) of Mukim Hulu Kinta, Daerah Kinta, 31150 Ipoh, Perak ",
    "state":"Perak",
    "lat":4.62614,
    "lng":101.154792,
    "phone":"6019-6949526",
    "is_24_hours":false,
    "drive_thru":false,
    "mobile_order":true,
    "brand":"Starbucks"
  },
  {
    "id":92,
    "name":"Starbucks AEON Taiping",
    "address":"Lot G08, Ground Floor, AEON Mall Taiping, Jalan Kamunting, 34600 Taiping, Perak",
    "state":"Perak",
    "lat":4.8727,
    "lng":100.728476,
    "phone":"6019-695 1681",
    "is_24_hours":false,
    "drive_thru":false,
    "mobile_order":true,
    "brand":"Starbucks"
  },
  {
    "id":93,
    "name":"Starbucks Lotus's Tebrau DT",
    "address":"Lot No. G7 & G8, Ground Floor, Lotus's Desa Tebrau, No 1,Persiaran Desa Tebrau, Taman Desa Tebrau, 81100 Johor Bahru.",
    "state":"Johor",
    "lat":1.550397,
    "lng":103.796966,
    "phone":" 013- 746 3623",
    "is_24_hours":false,
    "drive_thru":false,
    "mobile_order":false,
    "brand":"Starbucks"
  },
  {
    "id":95,
    "name":"Starbucks Reserve Setia Alam DT",
    "address":"Lot No. 4, Persiaran Setia Impian, Bandar Setia Alam, Seksyen U 13, 40170 Shah Alam, Selangor.",
    "state":"Selangor",
    "lat":3.101757,
    "lng":101.444729,
    "phone":"603-58860933",
    "is_24_hours":false,
    "drive_thru":false,
    "mobile_order":true,
    "brand":"Starbucks"
  },
  {
    "id":96,
    "name":"Starbucks Cameron Highlands",
    "address":"Unit No. 22 & 23, Ground Floor & 1st Floor ,Tanah Rata Cameron Highlands, 39000 Pahang Darul Makmur",
    "state":"Pahang",
    "lat":4.470913,
    "lng":101.377987,
    "phone":"605-4851246",
    "is_24_hours":false,
    "drive_thru":false,
    "mobile_order":true,
    "brand":"Starbucks"
  },
  {
    "id":98,
    "name":"Starbucks Kuching International Airport",
    "address":"Lot L3L 07, 08 & 09, Level 3,  Departure Hall           (Public Concourse) Kuching International Airport, Jalan Lapangan Terbang, 93722 Kuching, Sarawak.",
    "state":"Sarawak",
    "lat":1.487677,
    "lng":110.341843,
    "phone":"6082-464 702",
    "is_24_hours":false,
    "drive_thru":false,
    "mobile_order":false,
    "brand":"Starbucks"
  },
  {
    "id":99,
    "name":"Starbucks Sunway Carnival",
    "address":"Lot No UG 27, Upper Ground Floor, Sunway Carnival Mall 3068, Jalan Todak Pusat Bandar Seberang Jaya 13700 Seberang Jaya, Penang",
    "state":"Penang",
    "lat":5.399049,
    "lng":100.397733,
    "phone":"604-2401199",
    "is_24_hours":false,
    "drive_thru":false,
    "mobile_order":true,
    "brand":"Starbucks"
  },
  {
    "id":101,
    "name":"Starbucks Reserve Gurney Plaza",
    "address":"Unit 170-G-39, Gurney Plaza, Persiaran Gurney, 10250 Penang, Malaysia.",
    "state":"Penang",
    "lat":5.438256,
    "lng":100.309817,
    "phone":" 04-2858604",
    "is_24_hours":false,
    "drive_thru":false,
    "mobile_order":true,
    "brand":"Starbucks"
  },
  {
    "id":102,
    "name":"Starbucks Mansion One",
    "address":"Part of Lot 57-G-01, Mansion One, Jalan Sultan Ahmad Shah, 10050 Penang",
    "state":"Penang",
    "lat":5.4274,
    "lng":100.32026,
    "phone":"604-2858578",
    "is_24_hours":false,
    "drive_thru":false,
    "mobile_order":true,
    "brand":"Starbucks"
  },
  {
    "id":103,
    "name":"Starbucks Bamboo Hill DT",
    "address":"P1-1, Taman Bukit Bambu, Off Lebuhraya Duta - Ulu Kelang, Taman Bamboo, 51200 Kuala Lumpur",
    "state":"W.P. Kuala Lumpur",
    "lat":3.1930526,
    "lng":101.6736843,
    "phone":"TBA",
    "is_24_hours":false,
    "drive_thru":false,
    "mobile_order":true,
    "brand":"Starbucks"
  },
  {
    "id":104,
    "name":"Starbucks SS2",
    "address":"3, SS2\/67, Taman Sea, 47300 Petaling Jaya, Selangor",
    "state":"Selangor",
    "lat":3.118818,
    "lng":101.623157,
    "phone":"TBA",
    "is_24_hours":false,
    "drive_thru":false,
    "mobile_order":true,
    "brand":"Starbucks"
  },
  {
    "id":105,
    "name":"Starbucks Berjaya Hills",
    "address":"La Grande, Berjaya Hills Resort, KM48 Persimpangan Bertingkat, Lebuhraya Karak, 28750 Bukit Tinggi, Pahang",
    "state":"Pahang",
    "lat":3.391542,
    "lng":101.833333,
    "phone":"012-8523387",
    "is_24_hours":false,
    "drive_thru":false,
    "mobile_order":true,
    "brand":"Starbucks"
  },
  {
    "id":106,
    "name":"Starbucks Tropika Bukit Jalil",
    "address":"Lot No G-05, Ground Floor, E-G-5 Tropika Bukit Jalik, Jalan Jalil Perkasa 3, Bukit Jalil, 57000 Kuala Lumpur",
    "state":"W.P. Kuala Lumpur",
    "lat":3.0532951,
    "lng":101.6782042,
    "phone":"TBA",
    "is_24_hours":false,
    "drive_thru":false,
    "mobile_order":false,
    "brand":"Starbucks"
  },
  {
    "id":107,
    "name":"Starbucks Eco Horizon DT",
    "address":"No 1, Jalan Borealis 4, Pusat Komersial Borealis, 14110 Bandar Cassia, Penang",
    "state":"Penang",
    "lat":5.236552,
    "lng":100.444103,
    "phone":"604-2858895",
    "is_24_hours":false,
    "drive_thru":false,
    "mobile_order":true,
    "brand":"Starbucks"
  },
  {
    "id":109,
    "name":"Starbucks Port Dickson DT",
    "address":"Port of HS(D) 8376 PT 74, Persiaran Waterfront, PD Waterfront, 71000 Port Dickson,             Negeri Sembilan",
    "state":"Negeri Sembilan",
    "lat":2.522469,
    "lng":101.791601,
    "phone":"606-6480105",
    "is_24_hours":false,
    "drive_thru":false,
    "mobile_order":true,
    "brand":"Starbucks"
  },
  {
    "id":110,
    "name":"Starbucks Gleneagles",
    "address":"Ground Floor (Garden Area), Gleneagles Hospital Kuala LumpurNo.286, Jalan Ampang, 50450 Kuala Lumpur.",
    "state":"W.P. Kuala Lumpur",
    "lat":3.161114,
    "lng":101.725994,
    "phone":"603-42656853",
    "is_24_hours":false,
    "drive_thru":false,
    "mobile_order":false,
    "brand":"Starbucks"
  },
  {
    "id":112,
    "name":"Starbucks AEON Seremban 2",
    "address":"Lot G49 &  50, Jusco Seremban 2 Shopping Centre, No.112, Persiaran S2 B1, Seremban 2, 70300 Seremban, Negeri Sembilan.",
    "state":"Negeri Sembilan",
    "lat":2.700086,
    "lng":101.912217,
    "phone":"606-6013525",
    "is_24_hours":false,
    "drive_thru":false,
    "mobile_order":true,
    "brand":"Starbucks"
  },
  {
    "id":113,
    "name":"Starbucks AEON Kepong",
    "address":"Lot G36, Ground Floor, AEON Metro Prima Shopping Centre, Jalan Kepong, 52100 Kuala Lumpur, ",
    "state":"W.P. Kuala Lumpur",
    "lat":3.213748,
    "lng":101.639902,
    "phone":"603-61794750",
    "is_24_hours":false,
    "drive_thru":false,
    "mobile_order":true,
    "brand":"Starbucks"
  },
  {
    "id":115,
    "name":"Starbucks Banting Business Centre",
    "address":"No. 1-G, Jalan Cemerlang, 1A, Pusat Perdagangan Banting, Banting 42700, Selangor",
    "state":"Selangor",
    "lat":2.813003,
    "lng":101.508546,
    "phone":"6012-6802686",
    "is_24_hours":false,
    "drive_thru":false,
    "mobile_order":true,
    "brand":"Starbucks"
  },
  {
    "id":116,
    "name":"Starbucks Rimbayu DT",
    "address":"Part of Lot 36309, Mukim Tanjong Duabelas, Kuala Langat,Selangor, Malaysia",
    "state":"Selangor",
    "lat":2.940397,
    "lng":101.544503,
    "phone":"6012-3281892",
    "is_24_hours":false,
    "drive_thru":false,
    "mobile_order":true,
    "brand":"Starbucks"
  },
  {
    "id":118,
    "name":"Starbucks Seremban 2 DT",
    "address":"Lot 50800, Persiaran Utama S2-3, Pusat Dagangan Section B Seremban 2, Seremban, Negeri Sembilan         ",
    "state":"Negeri Sembilan",
    "lat":2.691839,
    "lng":101.907098,
    "phone":"6012-6161389",
    "is_24_hours":false,
    "drive_thru":false,
    "mobile_order":true,
    "brand":"Starbucks"
  },
  {
    "id":120,
    "name":"Starbucks Petron Cheras DT",
    "address":"No. 1A, Starbucks Kafeteria, Lot  27680A, Jalan Cheras, Taman Segar, 56100 Kuala Lumpur",
    "state":"W.P. Kuala Lumpur",
    "lat":3.086443,
    "lng":101.742122,
    "phone":"6012-2300469 ",
    "is_24_hours":false,
    "drive_thru":false,
    "mobile_order":false,
    "brand":"Starbucks"
  },
  {
    "id":121,
    "name":"Starbucks Berjaya Central Park",
    "address":"Lot 1-1-1A, Menara Bangkok Bank, Laman Sentral Berjaya, No.1, Jalan Ampang, 50450 Kuala Lumpur",
    "state":"W.P. Kuala Lumpur",
    "lat":3.156686,
    "lng":101.705793,
    "phone":"603-50332539",
    "is_24_hours":false,
    "drive_thru":false,
    "mobile_order":false,
    "brand":"Starbucks"
  },
  {
    "id":122,
    "name":"Starbucks Batu Pahat DT",
    "address":"PTD 48032, Persiaran Flora Utama, Taman Flora Utama, 83000 Batu Pahat, Johor",
    "state":"Johor",
    "lat":1.862699,
    "lng":102.951148,
    "phone":"6012-5238935",
    "is_24_hours":false,
    "drive_thru":false,
    "mobile_order":true,
    "brand":"Starbucks"
  },
  {
    "id":123,
    "name":"Starbucks Marina Park City DT",
    "address":"Lot 2255, Jalan Marina 3, Marina ParkCity, 98000 Miri, Sarawak",
    "state":"Sarawak",
    "lat":4.389627,
    "lng":113.980561,
    "phone":"608-5326352",
    "is_24_hours":false,
    "drive_thru":false,
    "mobile_order":true,
    "brand":"Starbucks"
  },
  {
    "id":125,
    "name":"Starbucks Mines City DT",
    "address":"L3-19AP, Level 3, The Mines Jalan Dulang, MINES City Resort, Seri Kembangan 43300, Selangor",
    "state":"Selangor",
    "lat":3.029631,
    "lng":101.717245,
    "phone":"603-95480290",
    "is_24_hours":false,
    "drive_thru":false,
    "mobile_order":true,
    "brand":"Starbucks"
  },
  {
    "id":126,
    "name":"Starbucks Kota Kinabalu International Airport Landside",
    "address":"L1L10, Level 1 Landside), Terminal 1, 88740 Kota Kinabalu, Sabah      ",
    "state":"Sabah",
    "lat":5.924994,
    "lng":116.050918,
    "phone":"608- 8532174",
    "is_24_hours":false,
    "drive_thru":false,
    "mobile_order":false,
    "brand":"Starbucks"
  },
  {
    "id":127,
    "name":"Starbucks Kota Laksamana DT",
    "address":"Bangunan Starbucks,Taman Limbongan Indah, 75200 Melaka ",
    "state":"Melaka",
    "lat":2.202598,
    "lng":102.223099,
    "phone":"606–2813367",
    "is_24_hours":false,
    "drive_thru":false,
    "mobile_order":true,
    "brand":"Starbucks"
  },
  {
    "id":128,
    "name":"Starbucks Icon City DT",
    "address":"Ground & Mezzanine Floor, No. 1, Jalan Icon City, Icon City, 14000 Bukit Mertajam, Penang",
    "state":"Penang",
    "lat":5.343581,
    "lng":100.433718,
    "phone":"604-5041707",
    "is_24_hours":false,
    "drive_thru":false,
    "mobile_order":true,
    "brand":"Starbucks"
  },
  {
    "id":129,
    "name":"Starbucks Sunway Pinnacle",
    "address":"Ground Floor, The Pinnacle, Persiaran Lagoon, Bandar Sunway, 46150 Petaling Jaya, Selangor",
    "state":"Selangor",
    "lat":3.070206,
    "lng":101.610115,
    "phone":"6019-6950599",
    "is_24_hours":false,
    "drive_thru":false,
    "mobile_order":true,
    "brand":"Starbucks"
  },
  {
    "id":130,
    "name":"Starbucks Suria Sabah",
    "address":"G-2 & G-69 Ground Floor, Suria Sabah Shopping Mall, 88000 Kota Kinabalu, Sabah.",
    "state":"Sabah",
    "lat":5.987382,
    "lng":116.077036,
    "phone":"6088-486260",
    "is_24_hours":false,
    "drive_thru":false,
    "mobile_order":true,
    "brand":"Starbucks"
  },
  {
    "id":131,
    "name":"Starbucks 3 Two Square",
    "address":"C-17-01, Dataran 32, No.2, Jalan 19\/1 , 46300 Petaling Jaya, Selangor, Malaysia ",
    "state":"Selangor",
    "lat":3.106097,
    "lng":101.644084,
    "phone":"603-74966051",
    "is_24_hours":false,
    "drive_thru":false,
    "mobile_order":true,
    "brand":"Starbucks"
  },
  {
    "id":132,
    "name":"Starbucks Metro Point, Kajang",
    "address":"Lot G19 & G30, Ground Floor,Metro Point Complex,Seksyen 7, Bandar Kajang,Daerah Ulu Langat,43000 Selangor.",
    "state":"Selangor",
    "lat":2.991867,
    "lng":101.794626,
    "phone":"603-82101612",
    "is_24_hours":false,
    "drive_thru":false,
    "mobile_order":true,
    "brand":"Starbucks"
  },
  {
    "id":133,
    "name":"Starbucks Warisan Square, KK",
    "address":"Lot No.8 Ground & 1st Floor Block C Warisan Square, Jalan Fuad Stephen 88000 Kota Kinabalu,Sabah",
    "state":"Sabah",
    "lat":5.979136,
    "lng":116.070784,
    "phone":"6088-447062",
    "is_24_hours":false,
    "drive_thru":false,
    "mobile_order":true,
    "brand":"Starbucks"
  },
  {
    "id":134,
    "name":"Starbucks Juru Auto−City",
    "address":"1821-G1, Jalan Perusahaan, Highway Auto-City Prai Industrial Estate, 13600 Perai, Penang.",
    "state":"Penang",
    "lat":5.338058,
    "lng":100.428507,
    "phone":"604-5021879",
    "is_24_hours":false,
    "drive_thru":false,
    "mobile_order":true,
    "brand":"Starbucks"
  },
  {
    "id":135,
    "name":"Starbucks Great Eastern Mall",
    "address":"Lot 13 & 14, Ground Floor, Great Eastern Mall, No.303, Jalan Ampang, 50450 Kuala Lumpur, Malaysia.",
    "state":"W.P. Kuala Lumpur",
    "lat":3.160322,
    "lng":101.736692,
    "phone":"603-42651305",
    "is_24_hours":false,
    "drive_thru":false,
    "mobile_order":true,
    "brand":"Starbucks"
  },
  {
    "id":138,
    "name":"Starbucks Lotus's Kepong DT",
    "address":"G1&G2, Lotus's Kepong, No.3 Jalan 7A\/62A,Bandar Manjalara,52200, Kuala Lumpur, Malaysia",
    "state":"W.P. Kuala Lumpur",
    "lat":3.193125,
    "lng":101.633331,
    "phone":"603-50332514",
    "is_24_hours":false,
    "drive_thru":false,
    "mobile_order":true,
    "brand":"Starbucks"
  },
  {
    "id":139,
    "name":"Starbucks Petronas Skudai R&R DT (NB)",
    "address":"Petronas Station R&R Skudai Arah Utara, Plot 10, Kawasan R&R Plus Skudai Arah Utara, Skudai, 81300 Johor",
    "state":"Johor",
    "lat":1.57951,
    "lng":103.650402,
    "phone":"6012-6805215",
    "is_24_hours":false,
    "drive_thru":false,
    "mobile_order":true,
    "brand":"Starbucks"
  },
  {
    "id":141,
    "name":"Starbucks Conezion Putrajaya DT",
    "address":"Blok A1, CONEZION, IOI Resort City, 62502 Putrajaya",
    "state":"W.P. Putrajaya",
    "lat":2.96421,
    "lng":101.721178,
    "phone":"603-86836086",
    "is_24_hours":false,
    "drive_thru":false,
    "mobile_order":true,
    "brand":"Starbucks"
  },
  {
    "id":145,
    "name":"Starbucks Simpang Ampat DT",
    "address":"2A, Jalan Iconic Point, Iconic Point, 14100 Simpang Ampat, Penang.",
    "state":"Penang",
    "lat":5.298212,
    "lng":100.4887702,
    "phone":"TBA",
    "is_24_hours":false,
    "drive_thru":false,
    "mobile_order":true,
    "brand":"Starbucks"
  },
  {
    "id":147,
    "name":"Starbucks Sibu Airport",
    "address":"Lot No. GFL07 & GFL09, Ground Floor, Public Concourse (Landside), Sibu Airport, 96000 Sarawak",
    "state":"Sarawak",
    "lat":2.2582794,
    "lng":111.9875889,
    "phone":"TBA",
    "is_24_hours":false,
    "drive_thru":false,
    "mobile_order":false,
    "brand":"Starbucks"
  },
  {
    "id":148,
    "name":"Starbucks Sibu Pedada",
    "address":"Lot 3047, Block 3, Jalan Pedada, 96000 Sibu, Sarawak",
    "state":"Sarawak",
    "lat":2.3085961,
    "lng":111.8456315,
    "phone":"6019 - 695 5473",
    "is_24_hours":false,
    "drive_thru":false,
    "mobile_order":true,
    "brand":"Starbucks"
  },
  {
    "id":149,
    "name":"Starbucks Centrepoint Bandar Utama",
    "address":"Lot G109 & G110, Ground Floor, Lebuh Bandar Utama, Bandar Utama, 47800 Petaling Jaya, Selangor",
    "state":"Selangor",
    "lat":3.137839,
    "lng":101.610273,
    "phone":"603-74991161",
    "is_24_hours":false,
    "drive_thru":false,
    "mobile_order":true,
    "brand":"Starbucks"
  },
  {
    "id":152,
    "name":"Starbucks Sandakan DT",
    "address":"Lot 1, Phase 2, Utama Place 3, Mile 6, Bandar Utama, Off Jalan Utara, 90000 Sandakan, Sabah   ",
    "state":"Sabah",
    "lat":5.865679,
    "lng":118.057407,
    "phone":"6012-5388591",
    "is_24_hours":false,
    "drive_thru":false,
    "mobile_order":true,
    "brand":"Starbucks"
  },
  {
    "id":153,
    "name":"Starbucks AEON Rawang",
    "address":"Lot G62, Ground Floor, Komplex Beli Belah Aeon Anggun Rawang, No. 1, Persiaran Anggun, Taman Anggun, 48000 Rawang, Selangor Darul Ehsan.",
    "state":"Selangor",
    "lat":3.3167501,
    "lng":101.5365864,
    "phone":"603-67333135",
    "is_24_hours":false,
    "drive_thru":false,
    "mobile_order":true,
    "brand":"Starbucks"
  },
  {
    "id":154,
    "name":"Starbucks AEON Maluri",
    "address":"Lot G33, Ground Floor, Taman Maluri Shopping Centre, Jalan Jejaka, Cheras 55100 Kuala Lumpur, Malaysia.",
    "state":"W.P. Kuala Lumpur",
    "lat":3.125629,
    "lng":101.728415,
    "phone":"603 - 28569014",
    "is_24_hours":false,
    "drive_thru":false,
    "mobile_order":false,
    "brand":"Starbucks"
  },
  {
    "id":155,
    "name":"Starbucks IOI Mall Puchong",
    "address":"Lot G00, Front Entrance, Ground Floor, IOI Mall, Batu 9,  Bandar Puchong Jaya, 47100 Puchong, Selangor, Malaysia.",
    "state":"Selangor",
    "lat":3.046359,
    "lng":101.618292,
    "phone":"603-58799219",
    "is_24_hours":false,
    "drive_thru":false,
    "mobile_order":false,
    "brand":"Starbucks"
  },
  {
    "id":156,
    "name":"Starbucks Reserve Mid Valley",
    "address":"G-076-079, Ground Floor, Mid Valley Megamall, 59200 Kuala Lumpur",
    "state":"W.P. Kuala Lumpur",
    "lat":3.1178337,
    "lng":101.6769006,
    "phone":"TBA",
    "is_24_hours":false,
    "drive_thru":false,
    "mobile_order":true,
    "brand":"Starbucks"
  },
  {
    "id":157,
    "name":"Starbucks Bandar Puteri DT",
    "address":"Lot TC-05, IOI Galleria @ The Cube, No. G-2, Jalan Puteri 7\/13A Bandar Puteri, 47100 Puchong, Selangor.",
    "state":"Selangor",
    "lat":3.0203626,
    "lng":101.6249557,
    "phone":"012-753 7806",
    "is_24_hours":false,
    "drive_thru":false,
    "mobile_order":true,
    "brand":"Starbucks"
  },
  {
    "id":159,
    "name":"Starbucks Jesselton Point KK",
    "address":"LB-02, Ground Floor, Jesselton Duty Free Mall, 88000 Kota Kinabalu, Sabah",
    "state":"Sabah",
    "lat":5.989728,
    "lng":116.079183,
    "phone":"6012-2993676",
    "is_24_hours":false,
    "drive_thru":false,
    "mobile_order":true,
    "brand":"Starbucks"
  },
  {
    "id":160,
    "name":"Starbucks Petronas Kota Damansara",
    "address":"PETRONAS Station Kota Damansara No 30, Jalan Teknologi, Seksyen 2, PJU5 Kota Damansara, 47810 Petaling Jaya, Selangor",
    "state":"Selangor",
    "lat":3.14967,
    "lng":101.57998,
    "phone":"TBA",
    "is_24_hours":false,
    "drive_thru":false,
    "mobile_order":true,
    "brand":"Starbucks"
  },
  {
    "id":162,
    "name":"Starbucks Bangsar Village 1",
    "address":"No. G7, Ground Floor, Bangsar Village Shopping Centre, Jalan Telawi 1, Bangsar Baru, 59100 Kuala Lumpur, Malaysia.",
    "state":"W.P. Kuala Lumpur",
    "lat":3.130703,
    "lng":101.67135,
    "phone":"603-22010674",
    "is_24_hours":false,
    "drive_thru":false,
    "mobile_order":true,
    "brand":"Starbucks"
  },
  {
    "id":163,
    "name":"Starbucks The Curve",
    "address":"G88, Ground Floor, The Curve, Mutiara Damansara, 47800 Petaling Jaya, Selangor.",
    "state":"Selangor",
    "lat":3.158048,
    "lng":101.610752,
    "phone":"603-77326730",
    "is_24_hours":false,
    "drive_thru":false,
    "mobile_order":true,
    "brand":"Starbucks"
  },
  {
    "id":164,
    "name":"Starbucks Imago Times Square",
    "address":"Lot G33B & G33C, Ground Floor, Imago, KK Times Square, Off Coastal Highway, 88100 Kota Kinabalu, Sabah",
    "state":"Sabah",
    "lat":5.970106,
    "lng":116.066003,
    "phone":"6088-532610",
    "is_24_hours":false,
    "drive_thru":false,
    "mobile_order":true,
    "brand":"Starbucks"
  },
  {
    "id":166,
    "name":"Starbucks Reserve Bandar Utama ",
    "address":"Lot G139A, Ground Floor, 1Utama Shopping Centre, Bandar Utama, 47800 Petaling Jaya",
    "state":"Selangor",
    "lat":3.149679,
    "lng":101.615877,
    "phone":"603-77100434",
    "is_24_hours":false,
    "drive_thru":false,
    "mobile_order":true,
    "brand":"Starbucks"
  },
  {
    "id":167,
    "name":"Starbucks Genting 1",
    "address":"T1, Lot F\/L 1.4, First World Hotel, Genting Highlands Resort, 69000 Pahang",
    "state":"Pahang",
    "lat":3.42159,
    "lng":101.793696,
    "phone":"603-61011489",
    "is_24_hours":true,
    "drive_thru":false,
    "mobile_order":false,
    "brand":"Starbucks"
  },
  {
    "id":169,
    "name":"Starbucks KL Sentral",
    "address":"Unit 5, Arrival Hall, KL Sentral, 50470 Kuala Lumpur., Malaysia.",
    "state":"W.P. Kuala Lumpur",
    "lat":3.134749,
    "lng":101.686267,
    "phone":"603-22601332",
    "is_24_hours":false,
    "drive_thru":false,
    "mobile_order":true,
    "brand":"Starbucks"
  },
  {
    "id":171,
    "name":"Starbucks Nusa Bestari",
    "address":"36, Jalan Bestari 2\/2, Taman Nusa Bestari, 81300 Skudai, Johor",
    "state":"Johor",
    "lat":1.4814284,
    "lng":103.6650616,
    "phone":"TBA",
    "is_24_hours":false,
    "drive_thru":false,
    "mobile_order":true,
    "brand":"Starbucks"
  },
  {
    "id":173,
    "name":"Starbucks Kuala Terengganu Airport (International Landside)  ",
    "address":"Lot No. L1L12, Level 1 (Landside), Sultan Mahmud Airport, 21300 Kuala Terengganu",
    "state":"Terengganu",
    "lat":5.378982,
    "lng":103.105676,
    "phone":"6012-6809652",
    "is_24_hours":false,
    "drive_thru":false,
    "mobile_order":true,
    "brand":"Starbucks"
  },
  {
    "id":174,
    "name":"Starbucks Mesa Mall DT",
    "address":"G-02, Pusat Membeli-Belah Mesa, Pusat Perniagaan & Residensi Mesa, Persiaran Ilmu, Putra Nilai, 71800 Nilai, Negeri Sembilan",
    "state":"Negeri Sembilan",
    "lat":2.825025,
    "lng":101.777289,
    "phone":"606-7362124",
    "is_24_hours":false,
    "drive_thru":false,
    "mobile_order":true,
    "brand":"Starbucks"
  },
  {
    "id":175,
    "name":"Starbucks Senai Airport",
    "address":"Lot S11, AeroMall, Senai International Airport, 81250 Johor Bahru, Johor",
    "state":"Johor",
    "lat":1.635855,
    "lng":103.666837,
    "phone":"607-05908940",
    "is_24_hours":false,
    "drive_thru":false,
    "mobile_order":false,
    "brand":"Starbucks"
  },
  {
    "id":179,
    "name":"Starbucks Menara Binjai",
    "address":"Unit No. G-02, Ground Floor, Menara Binjai, No.2, Jalan Binjai, 50450 Kuala Lumpur",
    "state":"W.P. Kuala Lumpur",
    "lat":3.159701,
    "lng":101.718729,
    "phone":"603-21811867",
    "is_24_hours":false,
    "drive_thru":false,
    "mobile_order":true,
    "brand":"Starbucks"
  },
  {
    "id":180,
    "name":"Starbucks AEON Kulaijaya",
    "address":"Lot G68, Ground Floor, AEON Mall Kulaijaya, PTD 106273, Persiaran Indahpura Utama, Bandar Indahpura, 81000 Kulaijaya, Johor ",
    "state":"Johor",
    "lat":1.640394,
    "lng":103.617125,
    "phone":"607-2670154",
    "is_24_hours":false,
    "drive_thru":false,
    "mobile_order":true,
    "brand":"Starbucks"
  },
  {
    "id":183,
    "name":"Starbucks AEON Bukit Indah",
    "address":"Lot G08, Ground Floor, AEON Bukit Indah Shopping Centre ,No.8 Jalan Indah 15\/2, Bukit Indah, 81200 Johor Bharu, Johor",
    "state":"Johor",
    "lat":1.481182,
    "lng":103.655745,
    "phone":"607- 2370413",
    "is_24_hours":false,
    "drive_thru":false,
    "mobile_order":true,
    "brand":"Starbucks"
  },
  {
    "id":184,
    "name":"Starbucks Subang Skypark",
    "address":"Lot G12,& G13, and Lot G12S & G13S, Terminal 3, Sultan Abdul Aziz Salahuddin Airport, Jalan Lapangan Terbang SAAS, 47200 Subang, Selangor,Malaysia",
    "state":"Selangor",
    "lat":3.13316,
    "lng":101.55378,
    "phone":"603-77341473",
    "is_24_hours":false,
    "drive_thru":false,
    "mobile_order":true,
    "brand":"Starbucks"
  },
  {
    "id":186,
    "name":"Starbucks Sunway Iskandar DT",
    "address":"Medini Zone F, PTD 200670, Jalan Medini Selatan 1, Sunway Iskandar, Bandar Medini Iskandar, 79250 Iskandar Puteri, Johor.",
    "state":"Johor",
    "lat":1.3974349,
    "lng":103.6317543,
    "phone":"TBA",
    "is_24_hours":false,
    "drive_thru":false,
    "mobile_order":true,
    "brand":"Starbucks"
  },
  {
    "id":187,
    "name":"Starbucks Petronas Ulu Bernam DT (SB)",
    "address":"Petronas Station Ulu Bernam, KM 124, Kawasan Rehat & Rawat,  Lebuhraya Utara Selatan (PLUS), Arah Selatan, 35800 Ulu Bernam, Selangor",
    "state":"Selangor",
    "lat":3.663143,
    "lng":101.520504,
    "phone":"6012-3280230",
    "is_24_hours":false,
    "drive_thru":false,
    "mobile_order":false,
    "brand":"Starbucks"
  },
  {
    "id":189,
    "name":"Starbucks Sri Pinang DT",
    "address":"Lot L1-1, L1-2, L1-3 & L2-1, Maritime, No.29C, Lebuh Sungai Pinang5, Jelutong 11600 Georgetown, Penang, Malaysia",
    "state":"Penang",
    "lat":5.39763,
    "lng":100.32934,
    "phone":"604-29552446",
    "is_24_hours":false,
    "drive_thru":false,
    "mobile_order":true,
    "brand":"Starbucks"
  },
  {
    "id":190,
    "name":"Starbucks Petronas Bayu Senibong DT",
    "address":"Lot PTD 173047, Taman Bayu Senibong,Mukim Plentong, Masai, Johor Bahru,81750 Johor.",
    "state":"Johor",
    "lat":1.494418,
    "lng":103.800197,
    "phone":"6019-2063094",
    "is_24_hours":false,
    "drive_thru":false,
    "mobile_order":true,
    "brand":"Starbucks"
  },
  {
    "id":191,
    "name":"Starbucks KLIA 2 Landside",
    "address":"Lot No. S2-3-LO1, Departure Level, Public Concourse, Terminal Landside, Kuala Lumpur International Airport 2, 64000 Sepang, Selangor",
    "state":"W.P. Kuala Lumpur",
    "lat":2.728154,
    "lng":101.696404,
    "phone":"603-87878335",
    "is_24_hours":true,
    "drive_thru":false,
    "mobile_order":false,
    "brand":"Starbucks"
  },
  {
    "id":192,
    "name":"Starbucks Genting 3",
    "address":"Lot H\/LG 6.00, Level Lower Ground, Highlands Hotel, 69000 Genting Highlands, Pahang, Malaysia.",
    "state":"Pahang",
    "lat":3.424192,
    "lng":101.794655,
    "phone":"603-61012013",
    "is_24_hours":false,
    "drive_thru":false,
    "mobile_order":false,
    "brand":"Starbucks"
  },
  {
    "id":193,
    "name":"Starbucks Petronas Federal Highway DT",
    "address":"KM 18.5, Federal Highway - KL Bound, 41050 Kuala Lumpur.",
    "state":"W.P. Kuala Lumpur",
    "lat":3.080906,
    "lng":101.572298,
    "phone":"6010-3643078",
    "is_24_hours":false,
    "drive_thru":false,
    "mobile_order":false,
    "brand":"Starbucks"
  },
  {
    "id":194,
    "name":"Starbucks Teluk Intan",
    "address":"No.1, 1A & 1B, Jalan Intan 2, Bandar Baru Teluk Intan, 36000 Teluk Intan, Perak.",
    "state":"Perak",
    "lat":4.0203046,
    "lng":101.0232472,
    "phone":"TBA",
    "is_24_hours":false,
    "drive_thru":false,
    "mobile_order":true,
    "brand":"Starbucks"
  },
  {
    "id":196,
    "name":"Starbucks Platinum Park",
    "address":"Unit 1.2, Menara Felda, Platinum Park, No.11, Persiaran KLCC, 58200, Kuala Lumpur",
    "state":"W.P. Kuala Lumpur",
    "lat":3.154953,
    "lng":101.718559,
    "phone":"603-21813549",
    "is_24_hours":false,
    "drive_thru":false,
    "mobile_order":true,
    "brand":"Starbucks"
  },
  {
    "id":198,
    "name":"Starbucks KLIA 2 Airside",
    "address":"Lot No. S1-1-a-A02, Domestic Departure and Arrival Level, Kuala Lumpur international Airport 2, 64000 Sepang, Selangor",
    "state":"W.P. Kuala Lumpur",
    "lat":2.725148,
    "lng":101.696453,
    "phone":"603-87878442",
    "is_24_hours":true,
    "drive_thru":false,
    "mobile_order":false,
    "brand":"Starbucks"
  },
  {
    "id":200,
    "name":"Starbucks Prima 5 DT",
    "address":"Prima 5C, Prima Avenue, Block 3505, JalanTeknokrat 5, 63000 Cyberjaya, Selangor.",
    "state":"Selangor",
    "lat":2.921542,
    "lng":101.655583,
    "phone":"603-83224920",
    "is_24_hours":false,
    "drive_thru":false,
    "mobile_order":true,
    "brand":"Starbucks"
  },
  {
    "id":201,
    "name":"Starbucks Setia Tropika  DT",
    "address":"No.8B Jalan Setia Tropika 1\/21, Taman Setia Tropika, 81200 Johor Bahru,Johor.",
    "state":"Johor",
    "lat":1.548819,
    "lng":103.71767,
    "phone":"607-2893897",
    "is_24_hours":false,
    "drive_thru":false,
    "mobile_order":true,
    "brand":"Starbucks"
  },
  {
    "id":202,
    "name":"Starbucks Avenue K",
    "address":"G-7, Ground Floor, Avenue K, 156 Jalan Ampang, 50450 Kuala Lumpur.",
    "state":"W.P. Kuala Lumpur",
    "lat":3.159318,
    "lng":101.713709,
    "phone":"603-21812147",
    "is_24_hours":false,
    "drive_thru":false,
    "mobile_order":true,
    "brand":"Starbucks"
  },
  {
    "id":203,
    "name":"Starbucks Amanjaya DT",
    "address":"No.3, Jalan Cempaka 2\/3, Amanjaya Square, 08000 Sungai Petani, Kedah Darul Aman",
    "state":"Kedah",
    "lat":5.669625,
    "lng":100.50777,
    "phone":"6019-3809663",
    "is_24_hours":false,
    "drive_thru":false,
    "mobile_order":true,
    "brand":"Starbucks"
  },
  {
    "id":204,
    "name":"Starbucks Reserve The Gardens Mid Valley",
    "address":"Lot S-226B Second Floor , Mid Valley City Gardens, No.1 Medan Syed Putra Utara, 59200 Kuala Lumpur.",
    "state":"W.P. Kuala Lumpur",
    "lat":3.117235,
    "lng":101.677953,
    "phone":"603-22833744",
    "is_24_hours":false,
    "drive_thru":false,
    "mobile_order":true,
    "brand":"Starbucks"
  },
  {
    "id":205,
    "name":"Starbucks Intermark",
    "address":"Lot G-02 & G-03B, Ground Floor, Intermark Mall, The Intermark, 348, Jalan Tun Razak, 50400 Kuala Lumpur",
    "state":"W.P. Kuala Lumpur",
    "lat":3.161673,
    "lng":101.7202,
    "phone":"603-50332536",
    "is_24_hours":false,
    "drive_thru":false,
    "mobile_order":true,
    "brand":"Starbucks"
  },
  {
    "id":207,
    "name":"Starbucks Reserve Southkey Megamall",
    "address":"G-002, Ground Floor, Southkey Megamall, Kem Majidee, Johor Bahru,",
    "state":"Johor",
    "lat":1.501001,
    "lng":103.777989,
    "phone":"607-3364533",
    "is_24_hours":false,
    "drive_thru":false,
    "mobile_order":false,
    "brand":"Starbucks"
  },
  {
    "id":208,
    "name":"Starbucks  Kiara Bay DT  ",
    "address":"R-23, Ground Floor, Kiara Bay, MRR2 Kepong Metropolitan Park, 52100 Kuala Lumpur",
    "state":"W.P. Kuala Lumpur",
    "lat":3.22603,
    "lng":101.65086,
    "phone":"TBA",
    "is_24_hours":false,
    "drive_thru":false,
    "mobile_order":true,
    "brand":"Starbucks"
  },
  {
    "id":209,
    "name":"Starbucks Kuantan Indera Mahkota DT",
    "address":"Starbucks Coffee Drive-Thru, Jalan IM 7\/14, Bandar Indera Mahkota, 25200 Kuantan, Pahang",
    "state":"Pahang",
    "lat":3.836348,
    "lng":103.299696,
    "phone":"6012-3389593",
    "is_24_hours":false,
    "drive_thru":false,
    "mobile_order":true,
    "brand":"Starbucks"
  },
  {
    "id":214,
    "name":"Starbucks Teluk Cempedak",
    "address":"Lot No. 1&2, Pusat Rekreasi, Teluk Cempedak, Jalan Tengku Abu Bakar, 25050 Kuantan, Pahang",
    "state":"Pahang",
    "lat":3.812387,
    "lng":103.371761,
    "phone":"6012-7378105",
    "is_24_hours":false,
    "drive_thru":false,
    "mobile_order":false,
    "brand":"Starbucks"
  },
  {
    "id":217,
    "name":"Starbucks Pavilion 2",
    "address":"Lot No.6.02.00 Level 6, Pavilion Kuala Lumpur, 168 Jalan Bukit Bintang, 55100 Kuala Lumpur",
    "state":"W.P. Kuala Lumpur",
    "lat":3.0523234,
    "lng":101.6708481,
    "phone":"603-28569111",
    "is_24_hours":false,
    "drive_thru":false,
    "mobile_order":false,
    "brand":"Starbucks"
  },
  {
    "id":218,
    "name":"Starbucks Pavilion 1",
    "address":"Lot C 3.08.00 & C3.09.00, Level 3 Pavilion Kuala Lumpur,  168  Jalan Bukit Bintang, 55100 Kuala Lumpur.",
    "state":"W.P. Kuala Lumpur",
    "lat":3.148261,
    "lng":101.713293,
    "phone":"603-28569112",
    "is_24_hours":false,
    "drive_thru":false,
    "mobile_order":false,
    "brand":"Starbucks"
  },
  {
    "id":219,
    "name":"Starbucks Burma Road",
    "address":"No. 403-A, Jalan Burmah, 10350 Penang, Malaysia",
    "state":"Penang",
    "lat":5.43184,
    "lng":100.31101,
    "phone":"604-2406133",
    "is_24_hours":false,
    "drive_thru":false,
    "mobile_order":false,
    "brand":"Starbucks"
  },
  {
    "id":220,
    "name":"Starbucks Quill City Mall ",
    "address":"G-13, Ground Floor, Q-City Mall, Jalan Sultan Ismail Kuala Lumpur 50250, Wilayah Persekutuan Kuala Lumpur",
    "state":"W.P. Kuala Lumpur",
    "lat":3.159685,
    "lng":101.700323,
    "phone":"603-26021036",
    "is_24_hours":false,
    "drive_thru":false,
    "mobile_order":true,
    "brand":"Starbucks"
  },
  {
    "id":221,
    "name":"Starbucks AEON Bukit Mertajam",
    "address":"Lot G08 & G08A, AEON Bukit Mertajam, Jalan Rozhan, Alma, 14000 Bikit Mertajam, Pulau Pinang, Malaysia",
    "state":"Penang",
    "lat":5.320435,
    "lng":100.478301,
    "phone":"604-5485395",
    "is_24_hours":false,
    "drive_thru":false,
    "mobile_order":true,
    "brand":"Starbucks"
  },
  {
    "id":222,
    "name":"Starbucks Taman Molek",
    "address":"Lot No. 21 (G) & 21-1, Jalan Molek 3\/20, Taman Molek, 81100 Johor Bahru",
    "state":"Johor",
    "lat":1.519443,
    "lng":103.790182,
    "phone":"607-3644651",
    "is_24_hours":false,
    "drive_thru":false,
    "mobile_order":true,
    "brand":"Starbucks"
  },
  {
    "id":223,
    "name":"Starbucks The Shore",
    "address":"GF-10, The Shore Shopping Gallery, Jalan Persiaran Bunga Raya, 75300 Melaka Tengah, Melaka",
    "state":"Melaka",
    "lat":2.202919,
    "lng":102.249943,
    "phone":"606-2815130",
    "is_24_hours":false,
    "drive_thru":false,
    "mobile_order":true,
    "brand":"Starbucks"
  },
  {
    "id":224,
    "name":"Starbucks One City",
    "address":"Lot No. A-GF-03,A-GF-03A & A-GF-03B, Ground Floor, One City, Jalan USJ 25\/1, 47650 Subang Jaya, Selangor",
    "state":"Selangor",
    "lat":3.020825,
    "lng":101.580544,
    "phone":"603-86015818",
    "is_24_hours":false,
    "drive_thru":false,
    "mobile_order":true,
    "brand":"Starbucks"
  },
  {
    "id":226,
    "name":"Starbucks Encorp Strand",
    "address":"Lot G-08 & G-09, Ground Floor, Encorp Strand Mall, No.1 Jalan PJU 5\/23, Encorp Strand, Pusat Perdagangan Kota Damansara PJU5, 47810 Petaling Jaya, Selangor",
    "state":"Selangor",
    "lat":3.155831,
    "lng":101.593549,
    "phone":"603-61431467",
    "is_24_hours":false,
    "drive_thru":false,
    "mobile_order":true,
    "brand":"Starbucks"
  },
  {
    "id":227,
    "name":"Starbucks Medan Gopeng",
    "address":"Lot 200A, Burger Houz, Jalan Raja Dr. Nazrin Shah, 31350 Ipoh, Perak",
    "state":"Perak",
    "lat":4.573467,
    "lng":101.111072,
    "phone":"605-2107022",
    "is_24_hours":false,
    "drive_thru":false,
    "mobile_order":true,
    "brand":"Starbucks"
  },
  {
    "id":228,
    "name":"Starbucks SDMC Subang Jaya",
    "address":"Lot G7, Ground Floor, Mediplex, Sime Darby Medical Centre, No. 1, Jalan SS 12\/1a, SS12, Subang Jaya, 47500 Selangor",
    "state":"Selangor",
    "lat":3.078279,
    "lng":101.593633,
    "phone":"603-56118283",
    "is_24_hours":false,
    "drive_thru":false,
    "mobile_order":true,
    "brand":"Starbucks"
  },
  {
    "id":229,
    "name":"Starbucks Main Place",
    "address":"The Main Place, Lot No. GF-01, Ground Floor, Jalan USJ 21\/10,Persiaran Kewajipan,47630 Subang Jaya, Selangor",
    "state":"Selangor",
    "lat":3.026776,
    "lng":101.581628,
    "phone":"603-80216107",
    "is_24_hours":false,
    "drive_thru":false,
    "mobile_order":false,
    "brand":"Starbucks"
  },
  {
    "id":231,
    "name":"Starbucks Komtar JBCC",
    "address":"Lot No. 239, Level 2, Komtar, Johor Bahru City Centre, 80000 Johor Bahru, Johor",
    "state":"Johor",
    "lat":1.462949,
    "lng":103.763402,
    "phone":"607-2774971",
    "is_24_hours":false,
    "drive_thru":false,
    "mobile_order":false,
    "brand":"Starbucks"
  },
  {
    "id":233,
    "name":"Starbucks KLIA Contact Pier",
    "address":"Lot No. CP 20, Contact Pier International, KL International Airport, 64000 KLIA, Selangor",
    "state":"Selangor",
    "lat":2.756199,
    "lng":101.705528,
    "phone":"6?019-6953276",
    "is_24_hours":true,
    "drive_thru":false,
    "mobile_order":true,
    "brand":"Starbucks"
  },
  {
    "id":238,
    "name":"Starbucks Vivacity Megamall",
    "address":"Unit G-073B & G-073BS, Ground Floor, Vivacity Megamall, Jalan Wan Alwi, 93350 Kuching, Sarawak",
    "state":"Sarawak",
    "lat":1.527101,
    "lng":110.369124,
    "phone":"6082-263673",
    "is_24_hours":false,
    "drive_thru":false,
    "mobile_order":true,
    "brand":"Starbucks"
  },
  {
    "id":239,
    "name":"Starbucks Seri Austin DT ",
    "address":"Jalan Seri Austin 1, Taman Seri Austin, 81100 Johor Bahru, Johor",
    "state":"Johor",
    "lat":1.579324,
    "lng":103.748163,
    "phone":"6012-3886620",
    "is_24_hours":false,
    "drive_thru":false,
    "mobile_order":true,
    "brand":"Starbucks"
  },
  {
    "id":240,
    "name":"Starbucks Gurney Paragon",
    "address":"Lot G30, Gurney Paragon Mall, Persiaran Gurney, 10250 Penang.",
    "state":"Penang",
    "lat":5.43633,
    "lng":100.31185,
    "phone":"604-2189109",
    "is_24_hours":false,
    "drive_thru":false,
    "mobile_order":true,
    "brand":"Starbucks"
  },
  {
    "id":243,
    "name":"Starbucks SOHO KL",
    "address":"Unit J-0G-01, SOHO KL, Solaris Mont Kiara, No.2, Jalan Solaris Mont Kiara,50480 Kuala Lumpur",
    "state":"W.P. Kuala Lumpur",
    "lat":3.175291,
    "lng":101.660102,
    "phone":"603-62061859 ",
    "is_24_hours":false,
    "drive_thru":false,
    "mobile_order":true,
    "brand":"Starbucks"
  },
  {
    "id":244,
    "name":"Starbucks AEON Seri Manjung",
    "address":"Lot G65, AEON Seri Manjung Shopping Centre, Pusat Perniagaan Manjung Point 3, 32040 Seri Manjung, Perak",
    "state":"Perak",
    "lat":4.220769,
    "lng":100.671866,
    "phone":"605-6120129",
    "is_24_hours":false,
    "drive_thru":false,
    "mobile_order":true,
    "brand":"Starbucks"
  },
  {
    "id":245,
    "name":"Starbucks Menara TA One",
    "address":"Ground Floor, Menara TA One, 22, Jalan P. Ramlee, 50250 Kuala Lumpur",
    "state":"W.P. Kuala Lumpur",
    "lat":3.156867,
    "lng":101.709604,
    "phone":"603-23866161",
    "is_24_hours":false,
    "drive_thru":false,
    "mobile_order":true,
    "brand":"Starbucks"
  },
  {
    "id":247,
    "name":"Starbucks Sunway Pyramid 3",
    "address":"SP3G001, Ground Floor, Sunway Pyramid 3, No. 3, Jalan PJS 11\/15, Bandar Sunway, 47500 Petaling Jaya, Selangor",
    "state":"Selangor",
    "lat":3.07314,
    "lng":101.60456,
    "phone":"603-56505133",
    "is_24_hours":false,
    "drive_thru":false,
    "mobile_order":true,
    "brand":"Starbucks"
  },
  {
    "id":248,
    "name":"Starbucks Raja Uda DT",
    "address":"No. 7, Butterworth Business City Centre, Jalan Raja Uda, 12000 Butterworth, Penang",
    "state":"Penang",
    "lat":5.416243,
    "lng":100.382069,
    "phone":"604-3134734",
    "is_24_hours":false,
    "drive_thru":false,
    "mobile_order":false,
    "brand":"Starbucks"
  },
  {
    "id":250,
    "name":"Starbucks Cenang Mall",
    "address":"Lot GF1a, GF1b & GF1c Cenang Mall Langkawi, Lot 2605 Jalan Pantai Cenang, Mukim Kedawang, 07000 Langkawi, Kedah.",
    "state":"Kedah",
    "lat":6.29495,
    "lng":99.725172,
    "phone":"04-7292264",
    "is_24_hours":false,
    "drive_thru":false,
    "mobile_order":false,
    "brand":"Starbucks"
  },
  {
    "id":251,
    "name":"Starbucks Wisma HB",
    "address":"A-0-1, (Front Portion) Ground Floor, Block A,Wisma HB, Megan Avenue II,12, Jalan Yap Kwan Seng, 50450 Kuala Lumpur.",
    "state":"W.P. Kuala Lumpur",
    "lat":3.162221,
    "lng":101.713292,
    "phone":"603-21812615",
    "is_24_hours":false,
    "drive_thru":false,
    "mobile_order":true,
    "brand":"Starbucks"
  },
  {
    "id":256,
    "name":"Starbucks Johor Premium Outlets",
    "address":"Suite\/Lot 500, Johor Premium Outlets, Jalan Premium Outlets, Indahpura, 81000 Kulaijaya, Johor Darul Takzim.",
    "state":"Johor",
    "lat":1.609066,
    "lng":103.621431,
    "phone":"607-6651020",
    "is_24_hours":false,
    "drive_thru":false,
    "mobile_order":false,
    "brand":"Starbucks"
  },
  {
    "id":257,
    "name":"Starbucks Lotus's Bdr Bkt Puchong DT ",
    "address":"Lot G1, Ground Floor, Lotus's Bandar Bukit Puchong, Jalan BP 17\/1, Bandar Bukit Puchong, 47120 Selangor",
    "state":"Selangor",
    "lat":2.982403,
    "lng":101.617447,
    "phone":"603-80601619",
    "is_24_hours":false,
    "drive_thru":false,
    "mobile_order":true,
    "brand":"Starbucks"
  },
  {
    "id":258,
    "name":"Starbucks IOI Kulai DT",
    "address":"Lot No. G-OSE3\/5\/6, Ground Floor, IOI Mall, Lebuh Putra Utama, Bandar Putra, 81000 Kulai, Johor",
    "state":"Johor",
    "lat":1.647162,
    "lng":103.626383,
    "phone":"607-6651060",
    "is_24_hours":false,
    "drive_thru":false,
    "mobile_order":true,
    "brand":"Starbucks"
  },
  {
    "id":259,
    "name":"Starbucks Nu Tower",
    "address":"Level LG3, Menara Allianz Sentral, No. 203, Jalan Tun Sambanthan, Kuala Lumpur Sentral, 50470 Kuala Lumpur",
    "state":"W.P. Kuala Lumpur",
    "lat":3.13285,
    "lng":101.685837,
    "phone":"6012-2907665",
    "is_24_hours":false,
    "drive_thru":false,
    "mobile_order":true,
    "brand":"Starbucks"
  },
  {
    "id":261,
    "name":"Starbucks Amcorp Tower",
    "address":" G-01, Ground Floor, Amcorp Tower, 18 Persiaran Barat, 46050 Petaling Jaya, Selangor",
    "state":"Selangor",
    "lat":3.105185,
    "lng":101.647204,
    "phone":"603-79314019",
    "is_24_hours":false,
    "drive_thru":false,
    "mobile_order":true,
    "brand":"Starbucks"
  },
  {
    "id":263,
    "name":"Starbucks Reserve Sky Avenue",
    "address":"Lot T2B-31, Sky Avenue, 48000 Genting Highlands, Pahang",
    "state":"Pahang",
    "lat":3.423734,
    "lng":101.793844,
    "phone":"603-61011986",
    "is_24_hours":false,
    "drive_thru":false,
    "mobile_order":false,
    "brand":"Starbucks"
  },
  {
    "id":264,
    "name":"Starbucks Sunway Velocity",
    "address":"Lot G-27, Ground Floor, Sunway Velocity Mall, Jalan Peel, Maluri, 55100 Kuala Lumpur",
    "state":"W.P. Kuala Lumpur",
    "lat":3.128206,
    "lng":101.72343,
    "phone":"603-28569565",
    "is_24_hours":false,
    "drive_thru":false,
    "mobile_order":false,
    "brand":"Starbucks"
  },
  {
    "id":266,
    "name":"Starbucks Reserve Publika Shopping Gallery",
    "address":"Lot 42, Level G2, Publika Shopping Gallery, Solaris Dutamas, Jalan Dutamas 1, 50480 Kuala Lumpur",
    "state":"W.P. Kuala Lumpur",
    "lat":3.171098,
    "lng":101.665558,
    "phone":"603-50332522",
    "is_24_hours":false,
    "drive_thru":false,
    "mobile_order":true,
    "brand":"Starbucks"
  },
  {
    "id":268,
    "name":"Starbucks PJ8",
    "address":"No. 21, Jalan Barat, 46200 Petaling Jaya, Selangor",
    "state":"Selangor",
    "lat":3.101893,
    "lng":101.639037,
    "phone":"603-50332523",
    "is_24_hours":false,
    "drive_thru":false,
    "mobile_order":true,
    "brand":"Starbucks"
  },
  {
    "id":270,
    "name":"Starbucks RHB Centre",
    "address":"Lot 1, Ground Floor, Tower 1, RHB Centre, Jalan Tun Razak, 50400 Kuala Lumpur",
    "state":"W.P. Kuala Lumpur",
    "lat":3.144046,
    "lng":101.722489,
    "phone":"603-23863788",
    "is_24_hours":false,
    "drive_thru":false,
    "mobile_order":false,
    "brand":"Starbucks"
  },
  {
    "id":271,
    "name":"Starbucks 1st Avenue",
    "address":"Lot G-09 & G-10, Ground Floor,1st Avenue, 182 Jalan Magazine, 10300 Penang.",
    "state":"Penang",
    "lat":5.413028,
    "lng":100.331745,
    "phone":"604-2858606",
    "is_24_hours":false,
    "drive_thru":false,
    "mobile_order":true,
    "brand":"Starbucks"
  },
  {
    "id":272,
    "name":"Starbucks Green Hall",
    "address":"Lot No. 1, Green Hall, Ground Floor, 10200 Penang",
    "state":"Penang",
    "lat":5.421196,
    "lng":100.339377,
    "phone":"6012-5388175",
    "is_24_hours":false,
    "drive_thru":false,
    "mobile_order":true,
    "brand":"Starbucks"
  },
  {
    "id":273,
    "name":"Starbucks MyTown",
    "address":"G-026 & G-E-026, Ground Floor, MyTOWN Shopping Centre, No.6, Jalan Cochrane, Seksyen 90, 55100 Kuala Lumpur ",
    "state":"W.P. Kuala Lumpur",
    "lat":3.134032,
    "lng":101.722791,
    "phone":"603-23035976",
    "is_24_hours":false,
    "drive_thru":false,
    "mobile_order":false,
    "brand":"Starbucks"
  },
  {
    "id":275,
    "name":"Starbucks Genting Premium Outlet Suite",
    "address":"No. 422, Genting Highlands Premium Outlets, Genting Highlands, 69000 Pahang",
    "state":"Pahang",
    "lat":3.402621,
    "lng":101.783795,
    "phone":"603-64368190",
    "is_24_hours":false,
    "drive_thru":false,
    "mobile_order":false,
    "brand":"Starbucks"
  },
  {
    "id":276,
    "name":"Starbucks Jelapang Square DT",
    "address":"Lot Besar 392323, Pusat Komersial Jelapang, Jelapang, Ipoh, Mukim Hulu Kinta, Daerah Kinta, Perak",
    "state":"Perak",
    "lat":4.644027,
    "lng":101.061682,
    "phone":"6012-6479633",
    "is_24_hours":false,
    "drive_thru":false,
    "mobile_order":true,
    "brand":"Starbucks"
  },
  {
    "id":279,
    "name":"Starbucks Taylor's Lakeside",
    "address":"No.1, Jalan Taylor's, Subang Jaya, 47500, Selangor.",
    "state":"Selangor",
    "lat":3.06499,
    "lng":101.61699,
    "phone":"6012-2300463",
    "is_24_hours":false,
    "drive_thru":false,
    "mobile_order":false,
    "brand":"Starbucks"
  },
  {
    "id":281,
    "name":"Starbucks Bintulu Airport",
    "address":"Lot No. GL 19, Ground Floor, Public Concourse (Landside), Bintulu Airport, Sarawak",
    "state":"Sarawak",
    "lat":3.12381,
    "lng":113.02403,
    "phone":"6019-3294964",
    "is_24_hours":false,
    "drive_thru":false,
    "mobile_order":false,
    "brand":"Starbucks"
  },
  {
    "id":283,
    "name":"Starbucks Reserve Paradigm JB",
    "address":"Lot GF-37A, Ground Floor, Paradigm Mall, Jalan Skudai, 81200 Johor Bahru",
    "state":"Johor",
    "lat":1.514468,
    "lng":103.686361,
    "phone":"607-2327538",
    "is_24_hours":false,
    "drive_thru":false,
    "mobile_order":true,
    "brand":"Starbucks"
  },
  {
    "id":284,
    "name":"Starbucks Arcoris Mont Kiara",
    "address":"Lot G-1, Ground Level @ Arcoris, No. 10, Jalan Kiara, Mont Kiara, 50480 Kuala Lumpur",
    "state":"W.P. Kuala Lumpur",
    "lat":3.167418,
    "lng":101.652587,
    "phone":"603-64134380",
    "is_24_hours":false,
    "drive_thru":false,
    "mobile_order":false,
    "brand":"Starbucks"
  },
  {
    "id":285,
    "name":"Starbucks 3 Damansara",
    "address":"Lot G-01, Ground Floor, Tropicana City Mall, No. 3, Jalan SS20\/27, 47400 Petaling Jaya Selangor Darul Ehsan ",
    "state":"Selangor",
    "lat":3.130951,
    "lng":101.626772,
    "phone":"603-50332531",
    "is_24_hours":false,
    "drive_thru":false,
    "mobile_order":false,
    "brand":"Starbucks"
  },
  {
    "id":287,
    "name":"Starbucks Solaria Square DT",
    "address":"2-G-23-03, Medan Rajawali, Solaria Square, 11900, Bayan Lepas, 11900 Penang",
    "state":"Penang",
    "lat":5.300711,
    "lng":100.265456,
    "phone":"604-6383586",
    "is_24_hours":false,
    "drive_thru":false,
    "mobile_order":true,
    "brand":"Starbucks"
  },
  {
    "id":289,
    "name":"Starbucks Reserve Four Season",
    "address":"Lot 1, Ground Floor at Shoppers at Four Seasons Place, No. 145, Jalan Ampang, 50450 Kuala Lumpur",
    "state":"W.P. Kuala Lumpur",
    "lat":3.158262,
    "lng":101.713696,
    "phone":"603-23034451",
    "is_24_hours":false,
    "drive_thru":false,
    "mobile_order":true,
    "brand":"Starbucks"
  },
  {
    "id":291,
    "name":"Starbucks KPJ Sabah",
    "address":"KPJ Sabah Specialist Hospital, Lobby A, Lot No. 2 & 3, Off Jalan Damai, Luyang, 88300 Kota Kinabalu, Sabah",
    "state":"Sabah",
    "lat":5.967586,
    "lng":116.093166,
    "phone":"6088-533184",
    "is_24_hours":false,
    "drive_thru":false,
    "mobile_order":true,
    "brand":"Starbucks"
  },
  {
    "id":292,
    "name":"Starbucks Alam Damai",
    "address":"No. 21, Ground Floor, Jalan Alam Damai Niaga 1, Alam Damai Cheras, 56100 Kuala Lumpur",
    "state":"W.P. Kuala Lumpur",
    "lat":3.074576,
    "lng":101.737091,
    "phone":"TBA",
    "is_24_hours":false,
    "drive_thru":false,
    "mobile_order":true,
    "brand":"Starbucks"
  },
  {
    "id":293,
    "name":"Starbucks EKO Cheras",
    "address":"LG-11, Lower Ground Floor, Eko Cheras Mall, Taman Mutiara Barat, 56000 Cheras, Kuala Lumpur",
    "state":"W.P. Kuala Lumpur",
    "lat":3.093089,
    "lng":101.738964,
    "phone":"TBA",
    "is_24_hours":false,
    "drive_thru":false,
    "mobile_order":false,
    "brand":"Starbucks"
  },
  {
    "id":294,
    "name":"Starbucks Kulim Central",
    "address":"Lot GF-08, Ground Floor, Kulim Central, Jalan KLC Satu (1), 09000 Kulim, Kedah",
    "state":"Kedah",
    "lat":5.385625,
    "lng":100.546433,
    "phone":"604-4101333",
    "is_24_hours":false,
    "drive_thru":false,
    "mobile_order":true,
    "brand":"Starbucks"
  },
  {
    "id":295,
    "name":"Starbucks All Seasons Place",
    "address":"6G-1-17, Level 1, All Season Place, Air Itam, George Town, 97000, Penang",
    "state":"Penang",
    "lat":5.396529,
    "lng":100.29032,
    "phone":"604-2858563",
    "is_24_hours":false,
    "drive_thru":false,
    "mobile_order":true,
    "brand":"Starbucks"
  },
  {
    "id":296,
    "name":"Starbucks Malim Jaya DT",
    "address":"Lot 2610, Mukim Buchang, Taman Malim Jaya, 75400 Melaka",
    "state":"Melaka",
    "lat":2.23855,
    "lng":102.233975,
    "phone":"TBA",
    "is_24_hours":false,
    "drive_thru":false,
    "mobile_order":true,
    "brand":"Starbucks"
  },
  {
    "id":302,
    "name":"Starbucks Jaya One",
    "address":"Lot No. G.013, Ground Floor, The Square, Jaya One, 72A, Jalan Universiti, Seksyen 13, 46200 Petaling Jaya, Selangor.",
    "state":"Selangor",
    "lat":3.117951,
    "lng":101.635792,
    "phone":"6012-3280367",
    "is_24_hours":false,
    "drive_thru":false,
    "mobile_order":true,
    "brand":"Starbucks"
  },
  {
    "id":303,
    "name":"Starbucks The Spring",
    "address":"Lot G10, First Floor, The Spring Shopping Centre,Lot 7196, Section 64, Kuching Town Land District, Jalan Simpang Tiga, 93350 Kuching, Sarawak",
    "state":"Sarawak",
    "lat":1.535968,
    "lng":110.357076,
    "phone":"6082-247687",
    "is_24_hours":false,
    "drive_thru":false,
    "mobile_order":true,
    "brand":"Starbucks"
  },
  {
    "id":305,
    "name":"Starbucks Central I-City",
    "address":"LG-12, Lower Ground Floor, Central I-City Shopping Centre, 40000 Shah Alam, Selangor",
    "state":"Selangor",
    "lat":3.062271,
    "lng":101.48184,
    "phone":"6012-2503665",
    "is_24_hours":false,
    "drive_thru":false,
    "mobile_order":false,
    "brand":"Starbucks"
  },
  {
    "id":306,
    "name":"Starbucks Mid Valley Kiosk",
    "address":"G-076-079, Ground Floor, Mid Valley Megamall, 59200 Kuala Lumpur",
    "state":"W.P. Kuala Lumpur",
    "lat":3.117592,
    "lng":101.67722,
    "phone":"TBA",
    "is_24_hours":false,
    "drive_thru":false,
    "mobile_order":false,
    "brand":"Starbucks"
  },
  {
    "id":307,
    "name":"Starbucks AEON Bukit Tinggi",
    "address":"Lot G22 AEON Bukit Tinggi Shopping Centre, No.1 Persiaran Batu Nilam 1\/KS6, Bandar Bukit Tinggi 2, 41200 Klang,Selangor.",
    "state":"Selangor",
    "lat":2.994947,
    "lng":101.444243,
    "phone":"603-33181264",
    "is_24_hours":false,
    "drive_thru":false,
    "mobile_order":false,
    "brand":"Starbucks"
  },
  {
    "id":308,
    "name":"Starbucks Caltex Juru R&R DT",
    "address":"Retail Area 2, Juru Caltex Layby Northbound, Lot 4291, Mukim 6, Daerah Seberang Perai Tengah, Penang",
    "state":"Penang",
    "lat":5.354376,
    "lng":100.417146,
    "phone":"6012-2798665",
    "is_24_hours":false,
    "drive_thru":false,
    "mobile_order":false,
    "brand":"Starbucks"
  },
  {
    "id":309,
    "name":"Starbucks Sunsuria Forum",
    "address":"Lot C01, Ground Floor, No.1, Jalan Setia Dagang AL U13\/AL, Setia Alam, 40170 Shah Alam, Selangor",
    "state":"Selangor",
    "lat":3.105719,
    "lng":101.46884,
    "phone":"6012-2987535",
    "is_24_hours":false,
    "drive_thru":false,
    "mobile_order":true,
    "brand":"Starbucks"
  },
  {
    "id":312,
    "name":"Starbucks Sunway University",
    "address":"Mezzanine Floor, No. 5 Jalan Universiti, Bandar Sunway, 47500 Selangor",
    "state":"Selangor",
    "lat":3.066976,
    "lng":101.603622,
    "phone":"6012-3019665",
    "is_24_hours":false,
    "drive_thru":false,
    "mobile_order":false,
    "brand":"Starbucks"
  },
  {
    "id":314,
    "name":"Starbucks City Mall, KK",
    "address":"Lot No.4, Ground Floor City Mall, Jalan Lintas Luyang, 88300, Kota Kinabalu ,  Sabah.",
    "state":"Sabah",
    "lat":5.961259,
    "lng":116.097327,
    "phone":"6088-484267",
    "is_24_hours":false,
    "drive_thru":false,
    "mobile_order":true,
    "brand":"Starbucks"
  },
  {
    "id":315,
    "name":"Starbucks Mall of Medini",
    "address":"Lot Outdoor Cafe, Ground Floor, Mall of Medini, Lebuh Medini Utara, 79200 Nusajaya, Johor",
    "state":"Johor",
    "lat":1.428642,
    "lng":103.633822,
    "phone":"TBA",
    "is_24_hours":false,
    "drive_thru":false,
    "mobile_order":true,
    "brand":"Starbucks"
  },
  {
    "id":316,
    "name":"Starbucks Centro Klang",
    "address":"Lot G135,  Ground Floor, No.8, Jalan Batu 3, 41300 Klang, Selangor. ",
    "state":"Selangor",
    "lat":3.053152,
    "lng":101.463017,
    "phone":"603-50332504",
    "is_24_hours":false,
    "drive_thru":false,
    "mobile_order":true,
    "brand":"Starbucks"
  },
  {
    "id":317,
    "name":"Starbucks Pearl Point",
    "address":"Lot No. 1.0.26, Ground Floor,Pearl Point Shopping Mall,Batu 5, Jalan Kelang Lama,58000 Kuala Lumpur",
    "state":"W.P. Kuala Lumpur",
    "lat":3.085401,
    "lng":101.673507,
    "phone":"603-28587214",
    "is_24_hours":false,
    "drive_thru":false,
    "mobile_order":true,
    "brand":"Starbucks"
  },
  {
    "id":318,
    "name":"Starbucks The Starling",
    "address":"G-039, Ground Floor, The Starling, 6, Jalan SS21\/37, Damansara Uptown, 47400 Petaling Jaya, Selangor. ",
    "state":"Selangor",
    "lat":3.13465,
    "lng":101.623265,
    "phone":"603-76625922",
    "is_24_hours":false,
    "drive_thru":false,
    "mobile_order":false,
    "brand":"Starbucks"
  },
  {
    "id":319,
    "name":"Starbucks Bangsar Village 2",
    "address":"Lot No.2F-22 & K1, 2nd Floor,  Bangsar Village II, No.2, Jalan Telawi Satu, Bangsar Baru, 59100 Kuala Lumpur",
    "state":"W.P. Kuala Lumpur",
    "lat":3.130438,
    "lng":101.671387,
    "phone":"603-22010040",
    "is_24_hours":false,
    "drive_thru":false,
    "mobile_order":false,
    "brand":"Starbucks"
  },
  {
    "id":320,
    "name":"Starbucks Dataran Pahlawan",
    "address":"BX-001A & G-003A, Dataran Pahlawan Melaka Megamall, Jalan Merdeka, Bandar Hilir, 75000 Melaka",
    "state":"Melaka",
    "lat":2.190516,
    "lng":102.250367,
    "phone":"606-2818636",
    "is_24_hours":false,
    "drive_thru":false,
    "mobile_order":true,
    "brand":"Starbucks"
  },
  {
    "id":321,
    "name":"Starbucks Queensbay Mall 2",
    "address":"Unit No: 1F-K1\/P2 [Postal No.: 1F-108\/109], First Floor, Queensbay Mall, 100 Persiaran Bayan Indah, 11900 Bayan Lepas, Penang.",
    "state":"Penang",
    "lat":5.3317,
    "lng":100.30728,
    "phone":"604-6180239",
    "is_24_hours":false,
    "drive_thru":false,
    "mobile_order":false,
    "brand":"Starbucks"
  },
  {
    "id":322,
    "name":"Starbucks Queensbay Mall",
    "address":"GF-36, Ground Floor, Queensbay Mall, 100, Persiaran Bayan Indah, 11900, Bayan Lepas, Penang.",
    "state":"Penang",
    "lat":5.33455,
    "lng":100.30663,
    "phone":"604-6115475",
    "is_24_hours":false,
    "drive_thru":false,
    "mobile_order":true,
    "brand":"Starbucks"
  },
  {
    "id":323,
    "name":"Starbucks Pantai Medical Centre",
    "address":"Retail Lot 6, Ground Floor, Block A, Pantai Medical Centre, 8, Jalan Bukit Pantai, 59100 Kuala Lumpur",
    "state":"W.P. Kuala Lumpur",
    "lat":3.120446,
    "lng":101.666172,
    "phone":"603-22800235",
    "is_24_hours":false,
    "drive_thru":false,
    "mobile_order":false,
    "brand":"Starbucks"
  },
  {
    "id":324,
    "name":"Starbucks Ipoh Parade",
    "address":"Lot G25, Ground Floor, Ipoh Parade, 105, Jalan Sultan Abdul Jalil, 30450 Greentown, Ipoh,  Perak Darul Ridzuan. ",
    "state":"Perak",
    "lat":4.597673,
    "lng":101.090101,
    "phone":"605-2412180",
    "is_24_hours":false,
    "drive_thru":false,
    "mobile_order":true,
    "brand":"Starbucks"
  },
  {
    "id":325,
    "name":"Starbucks AEON Tebrau",
    "address":"Lot G110, Ground Floor, AEON Tebrau City Shopping Centre, No. 1, Jalan Desa Tebrau, Taman Desa Tebrau, 81100 Johor Bahru, Johor",
    "state":"Johor",
    "lat":1.550013,
    "lng":103.79678,
    "phone":"607-2774955",
    "is_24_hours":false,
    "drive_thru":false,
    "mobile_order":true,
    "brand":"Starbucks"
  },
  {
    "id":326,
    "name":"Starbucks SS15, Subang Jaya",
    "address":"Ground Floor, No.79, Jalan SS15\/8A, 47500 Subang Jaya, Selangor.",
    "state":"Selangor",
    "lat":3.074394,
    "lng":101.590547,
    "phone":"603-56116819",
    "is_24_hours":false,
    "drive_thru":false,
    "mobile_order":true,
    "brand":"Starbucks"
  },
  {
    "id":327,
    "name":"Starbucks Borders, The Curve",
    "address":"Lot G16, Ground Floor, The Walk, Jalan PJU 7\/3, Mutiara Damansara, 47800 Petaling Jaya, Selangor.",
    "state":"Selangor",
    "lat":3.157245,
    "lng":101.611771,
    "phone":"603-74968627",
    "is_24_hours":false,
    "drive_thru":false,
    "mobile_order":false,
    "brand":"Starbucks"
  },
  {
    "id":328,
    "name":"Starbucks Reserve IOI Mall Damansara",
    "address":"Lot G-22, Ground Floor, IOI Mall Damansara, Jalan PJU 3\/21, Tropicana indah, 47410 Petaling Jaya, Selangor",
    "state":"Selangor",
    "lat":3.1491644,
    "lng":101.5954202,
    "phone":"TBA",
    "is_24_hours":false,
    "drive_thru":false,
    "mobile_order":true,
    "brand":"Starbucks"
  },
  {
    "id":330,
    "name":"Starbucks Bayan Baru",
    "address":"Lot 73-1-3, Ground Floor, Ideal @ The One, Jalan Mahsuri, Bayan Lepas, 11950 Penang",
    "state":"Penang",
    "lat":5.327333,
    "lng":100.284267,
    "phone":"6019-3309612",
    "is_24_hours":false,
    "drive_thru":false,
    "mobile_order":true,
    "brand":"Starbucks"
  },
  {
    "id":333,
    "name":"Starbucks E−Gate Penang",
    "address":"Lot  1-01-17,  Lebuh Tengku Kudin 2, 11700 Gelugor, Penang",
    "state":"Penang",
    "lat":5.37658,
    "lng":100.31571,
    "phone":"604-2409555",
    "is_24_hours":false,
    "drive_thru":false,
    "mobile_order":true,
    "brand":"Starbucks"
  },
  {
    "id":334,
    "name":"Starbucks Kuala Lumpur Convention Centre",
    "address":"Lot C09, Concourse Floor, Kuala Lumpur Convention Centre, 50088 Kuala Lumpur",
    "state":"W.P. Kuala Lumpur",
    "lat":3.15409,
    "lng":101.713261,
    "phone":"603-21811420",
    "is_24_hours":false,
    "drive_thru":false,
    "mobile_order":false,
    "brand":"Starbucks"
  },
  {
    "id":335,
    "name":"Starbucks BBCC Lalaport",
    "address":"Lot G-72, Mitsui Shopping Park Lalaport, Bukit Bintang City Centre, 55100, Kuala Lumpur",
    "state":"W.P. Kuala Lumpur",
    "lat":3.13993,
    "lng":101.70772,
    "phone":"TBA",
    "is_24_hours":false,
    "drive_thru":false,
    "mobile_order":false,
    "brand":"Starbucks"
  },
  {
    "id":337,
    "name":"Starbucks Plaza Damas",
    "address":"Lot P7-A, Plaza Ground Floor, Hartamas Shopping Centre, Jalan Sri Hartamas 1, Sri Hartamas, 50480 Kuala Lumpur.",
    "state":"W.P. Kuala Lumpur",
    "lat":3.16382,
    "lng":101.656715,
    "phone":"603-28569024",
    "is_24_hours":false,
    "drive_thru":false,
    "mobile_order":true,
    "brand":"Starbucks"
  },
  {
    "id":340,
    "name":"Starbucks Bagan Ajam DT",
    "address":"1, Lorong Oren, Pusat Perniagaan Oren, 12200 Butterworth, Pulau Pinang.",
    "state":"Penang",
    "lat":5.440235,
    "lng":100.381922,
    "phone":"604-3134879",
    "is_24_hours":false,
    "drive_thru":false,
    "mobile_order":true,
    "brand":"Starbucks"
  },
  {
    "id":344,
    "name":"Starbucks Caltex USJ 16",
    "address":"Lot 48730 (PT569), Caltex USJ 16, 46000 Subang Jaya, Selangor",
    "state":"Selangor",
    "lat":3.033707,
    "lng":101.578078,
    "phone":"603-58889709",
    "is_24_hours":false,
    "drive_thru":false,
    "mobile_order":true,
    "brand":"Starbucks"
  },
  {
    "id":347,
    "name":"Starbucks Tasek Central",
    "address":"Lot 2-34 & 2-35, Level 2, Plaza Tasek, No.2, Jalan Pendekar 16, 81300 Skudai, Johor ",
    "state":"Johor",
    "lat":1.514311,
    "lng":103.655941,
    "phone":"6012-2510665",
    "is_24_hours":false,
    "drive_thru":false,
    "mobile_order":false,
    "brand":"Starbucks"
  },
  {
    "id":349,
    "name":"Starbucks Alor Setar Airport ",
    "address":"Lot No. MTD01\/C, Level 1, Departure Level, Sultan Abdul Halim Airport, Alor Setar, Kedah",
    "state":"Kedah",
    "lat":6.1918176,
    "lng":100.3946067,
    "phone":"6012-5378763",
    "is_24_hours":false,
    "drive_thru":false,
    "mobile_order":true,
    "brand":"Starbucks"
  },
  {
    "id":351,
    "name":"Starbucks United Point",
    "address":"Unit G-25, Ground Floor, Pusat Perdagangan Berpadu (United Point), No. 10, Jalan Lang Emas, 51200 Kuala Lumpur",
    "state":"W.P. Kuala Lumpur",
    "lat":3.190871,
    "lng":101.654329,
    "phone":"6019-3298953",
    "is_24_hours":false,
    "drive_thru":false,
    "mobile_order":true,
    "brand":"Starbucks"
  },
  {
    "id":352,
    "name":"Starbucks Damansara Avenue DT",
    "address":"B-G-1, Ground Floor, Lot 2005 & Lot 2006, Persiaran Perdana, Bandar Sri Damansara PJU 9, 52200 Kuala Lumpur",
    "state":"W.P. Kuala Lumpur",
    "lat":3.191692,
    "lng":101.617429,
    "phone":"6012-6808959",
    "is_24_hours":false,
    "drive_thru":false,
    "mobile_order":true,
    "brand":"Starbucks"
  },
  {
    "id":355,
    "name":"Starbucks Bandar Utama 2",
    "address":"Lot F352, 1st Floor Rainforest , 1 Utama Shopping Centre, No 1, Lebuh Bandar Utama, Bandar Utama Damansara, 47800 Petaling Jaya, Selangor.",
    "state":"Selangor",
    "lat":3.149861,
    "lng":101.615909,
    "phone":"603-74968637",
    "is_24_hours":false,
    "drive_thru":false,
    "mobile_order":true,
    "brand":"Starbucks"
  },
  {
    "id":360,
    "name":"Starbucks Hillside DT",
    "address":"No 93, Jalan Loh Poh Heng, 11200, Bungah, Pulau Pinang",
    "state":"Penang",
    "lat":5.459938,
    "lng":100.284563,
    "phone":"TBA",
    "is_24_hours":false,
    "drive_thru":false,
    "mobile_order":true,
    "brand":"Starbucks"
  },
  {
    "id":361,
    "name":"Starbucks Sri Petaling",
    "address":"No 2, Jalan Radin Bagus 7, Sri Petaling, 57000, Kuala Lumpur",
    "state":"W.P. Kuala Lumpur",
    "lat":3.07091,
    "lng":101.69229,
    "phone":"6012-6245821",
    "is_24_hours":false,
    "drive_thru":false,
    "mobile_order":true,
    "brand":"Starbucks"
  },
  {
    "id":363,
    "name":"Starbucks Taipan",
    "address":"No.41, Ground Floor, Jalan USJ 10\/1D, 47620 UEP Subang Jaya, Selangor, Malaysia.",
    "state":"Selangor",
    "lat":3.049763,
    "lng":101.583637,
    "phone":"603-58797008",
    "is_24_hours":false,
    "drive_thru":false,
    "mobile_order":true,
    "brand":"Starbucks"
  },
  {
    "id":365,
    "name":"Starbucks Petronas Rawang R&R DT",
    "address":"Kawasan Rehat & Rawat Rawang, Lebuhraya Utara - Selatan(Arah Utara) Rawang, 48000 Selangor.",
    "state":"Selangor",
    "lat":3.330214,
    "lng":101.558086,
    "phone":"6011-72380833",
    "is_24_hours":true,
    "drive_thru":false,
    "mobile_order":false,
    "brand":"Starbucks"
  },
  {
    "id":367,
    "name":"Starbucks Cheras Sentral",
    "address":"Lot No. 700-LG-16, 17, 18 & 18A, Lower Ground Floor, Cheras Sentral, 56000 Kuala Lumpur.",
    "state":"W.P. Kuala Lumpur",
    "lat":3.078334,
    "lng":101.745098,
    "phone":"603-50332510",
    "is_24_hours":false,
    "drive_thru":false,
    "mobile_order":false,
    "brand":"Starbucks"
  },
  {
    "id":368,
    "name":"Starbucks KLIA 2 Satellite",
    "address":"Lot No. S6-2-A41, Departure Level, Kuala Lumpur International Airport 2, Jalan KLIA 2\/1, 64000 Sepang, Selangor",
    "state":"W.P. Kuala Lumpur",
    "lat":2.725662,
    "lng":101.696972,
    "phone":"6012-2300472",
    "is_24_hours":false,
    "drive_thru":false,
    "mobile_order":false,
    "brand":"Starbucks"
  },
  {
    "id":370,
    "name":"Beribi DT ",
    "address":"Unit 1,2 & 3, Ground Floor, EDR No. BD 27921, Lot No. 29976, Kampung Beribi, Mukim Gadong, Brunei Muara District, BE1118, Brunei Darussalam.",
    "state":"",
    "lat":4.88744,
    "lng":114.89785,
    "phone":"",
    "is_24_hours":false,
    "drive_thru":false,
    "mobile_order":false,
    "brand":"Starbucks"
  },
  {
    "id":371,
    "name":"Brunei Airport",
    "address":"Brunei Airport, Mezzanine Level, Transit Hall Brunei International Airport, Jalan Berakas, BB2513, Negara Brunei",
    "state":"",
    "lat":4.9447396,
    "lng":114.932179,
    "phone":"",
    "is_24_hours":false,
    "drive_thru":false,
    "mobile_order":false,
    "brand":"Starbucks"
  },
  {
    "id":374,
    "name":"Exchange 106",
    "address":"G25 & G23.B, Ground Floor, Menara Exchange 106, Lingkaran TRX, Tun Razak Exchange, 55188 Kuala Lumpur",
    "state":"Kuala Lumpur",
    "lat":3.1414,
    "lng":101.7186,
    "phone":"TBA",
    "is_24_hours":false,
    "drive_thru":false,
    "mobile_order":true,
    "brand":"Starbucks"
  },
  {
    "id":379,
    "name":"Bell Avenue",
    "address":"R-G-20, Bell Avenue, Jalan Sunsuria, Bandar Sunsuria, 43900, Sepang, Selangor",
    "state":"Selangor",
    "lat":2.8289,
    "lng":101.7057,
    "phone":"016-434 1058",
    "is_24_hours":false,
    "drive_thru":false,
    "mobile_order":false,
    "brand":"Starbucks"
  },
  {
    "id":380,
    "name":"KPJ Damansara 2",
    "address":"Lot C1-SH-05, Level 1, Hospital Pakar Damansara 2, No. 1, Jalan Bukit Lanjan 3, Bukit Lanjan, 60000 Kuala Lumpur",
    "state":"Kuala Lumpur",
    "lat":3.17104,
    "lng":101.61851,
    "phone":"016-327 3058",
    "is_24_hours":false,
    "drive_thru":false,
    "mobile_order":false,
    "brand":"Starbucks"
  },
  {
    "id":384,
    "name":"Nibong Tebal",
    "address":"1874, Jalan Air Lintas, 14300 Nibong Tebal, Pulau Pinang",
    "state":"Pulau Pinang",
    "lat":5.181,
    "lng":100.4848,
    "phone":"014-949 8289",
    "is_24_hours":false,
    "drive_thru":false,
    "mobile_order":true,
    "brand":"Starbucks"
  },
  {
    "id":388,
    "name":"Komune Living Wellness",
    "address":"Unit G-05 & G-06, Ground Floor, Bangunan Ru Emas (Komune Living & Wellness), No. 21, Jalan Tasik Permaisuri 2, Bandar Tun Razak, 56000 Kuala Lumpur",
    "state":"Kuala Lumpur",
    "lat":3.10042,
    "lng":101.71825,
    "phone":"TBA",
    "is_24_hours":false,
    "drive_thru":false,
    "mobile_order":true,
    "brand":"Starbucks"
  },
  {
    "id":389,
    "name":"Reserve Hyatt Place Bukit Jalil",
    "address":"M-1, Ground Floor, Hyatt Place Bukit Jalil, Pusat Perdagangan Bandar Bukit Jalil, Persiaran Jalil 1, 57000 Kuala Lumpur",
    "state":"Kuala Lumpur",
    "lat":3.058675,
    "lng":101.691707,
    "phone":"TBA",
    "is_24_hours":false,
    "drive_thru":false,
    "mobile_order":true,
    "brand":"Starbucks"
  },
  {
    "id":390,
    "name":"Denai Alam",
    "address":"No. 10-1, Ground Floor, Jalan Elektron G U16\/G, Denai Alam, 40160 Shah Alam",
    "state":"Shah Alam",
    "lat":3.1612,
    "lng":101.5105,
    "phone":"TBA",
    "is_24_hours":false,
    "drive_thru":false,
    "mobile_order":false,
    "brand":"Starbucks"
  },
  {
    "id":391,
    "name":"PETRONAS Heights Drive DT",
    "address":"PETRONAS Station Heights Drive, 667-A, Jalan Stutong, Heights Drive, 93350 Kuching, Sarawak",
    "state":"Sarawak",
    "lat":1.5057335,
    "lng":110.3775429,
    "phone":"014-952 0238",
    "is_24_hours":false,
    "drive_thru":true,
    "mobile_order":false,
    "brand":"Starbucks"
  },
  {
    "id":393,
    "name":"Glades Plaza",
    "address":"Shop 10 & 11, The Glades Plaza, Off Persiaran Putra Perdana, Section 3, Putra Heights, 47650 Subang Jaya, Selangor Darul Ehsan",
    "state":" Selangor Darul Ehsan",
    "lat":3.0088,
    "lng":101.5778,
    "phone":"TBA",
    "is_24_hours":false,
    "drive_thru":false,
    "mobile_order":true,
    "brand":"Starbucks"
  },
  {
    "id":394,
    "name":"KCC City Business Park",
    "address":"No. 18 & 19, Ground Floor, Jalan Gemilang Bakri 1, Pusat Komersial Gemilang Bakri, Bakri 84200 Muar, Johor",
    "state":"Johor",
    "lat":2.0478,
    "lng":102.6008,
    "phone":"019-676 9511",
    "is_24_hours":false,
    "drive_thru":false,
    "mobile_order":false,
    "brand":"Starbucks"
  },
  {
    "id":396,
    "name":"Batu Pahat Mall",
    "address":"G63A, G65 & G65A, Batu Pahat Mall, No. 325, Jalan Kluang, 83000 Batu Pahat, Johor Darul Takzim",
    "state":"Johor Darul Takzim",
    "lat":1.8639,
    "lng":102.9621,
    "phone":"TBA",
    "is_24_hours":false,
    "drive_thru":false,
    "mobile_order":false,
    "brand":"Starbucks"
  },
  {
    "id":397,
    "name":"Maha Tower",
    "address":"Lot L1A,- 08, 09, 10, Maha Tower, Persiaran Mahawangsa, Mukim Kuah, 07000 Langkawi, Kedah",
    "state":"Kedah",
    "lat":6.3201,
    "lng":99.8458,
    "phone":"04-744 1321",
    "is_24_hours":false,
    "drive_thru":false,
    "mobile_order":true,
    "brand":"Starbucks"
  },
  {
    "id":398,
    "name":"PALO 101",
    "address":"Lot 187-A, PALO 101, Jalan Sultan Iskandar, Taman Jubilee 30000, Ipoh, Perak",
    "state":"Perak",
    "lat":4.5927,
    "lng":101.086,
    "phone":"TBA",
    "is_24_hours":false,
    "drive_thru":false,
    "mobile_order":true,
    "brand":"Starbucks"
  },
  {
    "id":399,
    "name":"KPKT, Putrajaya",
    "address":"Lobi, Aras GF, Kementerian Pembangunan Kerajaan Tempatan, No. 51 Persiaran Perdana, Presint 4, 62100 Wilayah Persekutuan Putrajaya",
    "state":"Wilayah Persekutuan Putrajaya",
    "lat":2.9029,
    "lng":101.6816,
    "phone":"TBA",
    "is_24_hours":false,
    "drive_thru":false,
    "mobile_order":true,
    "brand":"Starbucks"
  },
  {
    "id":402,
    "name":"Hospital KL",
    "address":"Dataran Facelift, Hospital Kuala Lumpur, Persiaran Hospital, 50586 Kuala Lumpur",
    "state":"Kuala Lumpur",
    "lat":3.1715,
    "lng":101.7025,
    "phone":"TBA",
    "is_24_hours":false,
    "drive_thru":false,
    "mobile_order":true,
    "brand":"Starbucks"
  },
  {
    "id":403,
    "name":"Sunway Medical Centre 2",
    "address":"Level 1, Tower D, Sunway Medical Centre, No. 5, Jalan Lagoon Selatan, 47500 Bandar Sunway ",
    "state":"Selangor",
    "lat":3.0661,
    "lng":101.6086,
    "phone":"TBA",
    "is_24_hours":false,
    "drive_thru":false,
    "mobile_order":false,
    "brand":"Starbucks"
  },
  {
    "id":405,
    "name":"Starbucks Sunsuria Avenue DT",
    "address":"No. 17, Lakeside Wing, Sunsuria Avenue, Persiaran Mahogani, Kota Damansara PJU 5, 47810 Petaling Jaya",
    "state":"Selangor Darul Ehsan",
    "lat":3.1541219,
    "lng":101.5905177,
    "phone":"",
    "is_24_hours":false,
    "drive_thru":true,
    "mobile_order":true,
    "brand":"Starbucks"
  },
  {
    "id":406,
    "name":"Starbucks Reserve Island Glades DT",
    "address":"Drive Thru on Lot No(s) 1715-1720, part of 1738, 1741, 4642, 4774, 4781 & PT 25, Jalan Masjid Negeri, Seksyen 5, Bandar Georgetown, Daerah Timur Laut",
    "state":"Pulau Pinang",
    "lat":5.3870664,
    "lng":100.3041974,
    "phone":"",
    "is_24_hours":false,
    "drive_thru":true,
    "mobile_order":true,
    "brand":"Starbucks"
  },
  {
    "id":407,
    "name":"Starbucks Sultan Ibrahim Stadium",
    "address":"Zone GF-C-01 & GF-C-1A, Sultan Ibrahim Stadium 79200, Iskandar Puteri",
    "state":"Johor",
    "lat":1.4818729,
    "lng":103.6192281,
    "phone":"",
    "is_24_hours":false,
    "drive_thru":false,
    "mobile_order":false,
    "brand":"Starbucks"
  },
  {
    "id":408,
    "name":"Starbucks Permas City",
    "address":"No. 01-19, Blok A, Permas City, Jalan Permas Utara, Kawasan Perdagangan Permas Utara, Bandar Baru Permas Jaya, 81750 Masai",
    "state":"Johor",
    "lat":1.5126461,
    "lng":103.8176784,
    "phone":"",
    "is_24_hours":false,
    "drive_thru":false,
    "mobile_order":false,
    "brand":"Starbucks"
  },
  {
    "id":409,
    "name":"Starbucks University of Cyberjaya",
    "address":"Lot 1A, Upper Ground Floor, University of Cyberjaya, Persiaran Bestari, Cyber 11, 63000 Cyberjaya",
    "state":"Selangor",
    "lat":2.9310954,
    "lng":101.6374359,
    "phone":"",
    "is_24_hours":false,
    "drive_thru":false,
    "mobile_order":false,
    "brand":"Starbucks"
  },
  {
    "id":412,
    "name":"Starbucks AEON Ayer Keroh",
    "address":"Lot G33, AEON Melaka Shopping Centre, Jalan Tun Abdul Razak, 75450 Melaka",
    "state":"",
    "lat":2.2343457,
    "lng":102.2823576,
    "phone":"",
    "is_24_hours":false,
    "drive_thru":false,
    "mobile_order":false,
    "brand":"Starbucks"
  },
  {
    "id":413,
    "name":"Starbucks Reserve TRX Exchange Mall",
    "address":"L2.75.0 & L2.76.0, Level 2, Plaza The Exchange TRX, Persiaran TRX, 55188, Tun Razak Exchange, Kuala Lumpur",
    "state":"Kuala Lumpur",
    "lat":3.1429808,
    "lng":101.7167203,
    "phone":"",
    "is_24_hours":false,
    "drive_thru":false,
    "mobile_order":true,
    "brand":"Starbucks"
  },
  {
    "id":414,
    "name":"Starbucks Pavilion Damansara Heights",
    "address":"Pavilion Damansara Heights, Lot 2.5500 & E2.5500, Level 2, No 3 Jalan Damanlela, 50490 Kuala Lumpur",
    "state":"Kuala Lumpur",
    "lat":3.1466621,
    "lng":101.6628881,
    "phone":"",
    "is_24_hours":false,
    "drive_thru":false,
    "mobile_order":true,
    "brand":"Starbucks"
  },
  {
    "id":415,
    "name":"Starbucks TD Central DT",
    "address":"No. 6B, Jalan Sagu 18, Taman Daya, 81100 Johor Bahru, Johor",
    "state":"Johor",
    "lat":1.5460163,
    "lng":103.7654889,
    "phone":"",
    "is_24_hours":false,
    "drive_thru":true,
    "mobile_order":false,
    "brand":"Starbucks"
  },
  {
    "id":416,
    "name":"Starbucks Gamuda Cove DT",
    "address":"SB-01, SB-01-EXT & SB-01-E, Discovery Park, Bandar Gamuda Cove, 42700 Dengkil, Selangor",
    "state":"Selangor",
    "lat":2.8857812,
    "lng":101.6173061,
    "phone":"",
    "is_24_hours":false,
    "drive_thru":true,
    "mobile_order":false,
    "brand":"Starbucks"
  },
  {
    "id":421,
    "name":"Starbucks Shell Bangi R&R DT",
    "address":"Lot PT 1, Lebuhraya Utara Selatan KL-Seremban (KM 298.0) Arah Utara, Sungai Merab, Dengkil, Sepang, Selangor",
    "state":"Selangor",
    "lat":2.94594,
    "lng":101.75182,
    "phone":"TBA",
    "is_24_hours":false,
    "drive_thru":true,
    "mobile_order":false,
    "brand":"Starbucks"
  }
]