[
  {
    "name":"TEXAS CHICKEN SRI GOMBAK",
    "address":"Search your location now and find your nearest\u00a0 Texas Chicken\u2122 in Malaysia.",
    "hours":"Opening Daily: 24 Hours",
    "features":"Delivery, Breakfast, Mall, Delivery, Mall, Delivery, Delivery, Mall, Dessert, Delivery, Delivery, Mall, Mall, Delivery, Breakfast, Mall, Delivery, Dessert, Delivery, Mall, Mall, Delivery, Mall, Delivery, Delivery, Mall, Dessert, Mall, Delivery, Dessert, Delivery, Delivery, Mall, Mall, Delivery, Mall, Delivery, Breakfast, Delivery, Mall, Delivery, Delivery, Mall, Mall, Breakfast, Delivery, Mall, Delivery, Breakfast, Delivery, Breakfast, Delivery, Breakfast, 24 Hours, Delivery, Mall, Delivery, Mall, Dessert, Delivery, Drive-Thru, Kids Area, Breakfast, Delivery, Delivery, Breakfast, Delivery, Mall, Drive-Thru, Delivery, Mall, Dessert, Delivery, Mall, Dessert, Delivery, Mall, Delivery, Drive-Thru, 24 Hours, Breakfast, Delivery, Mall, Delivery, Delivery, Mall, Dessert, Delivery, Mall, Dessert, Delivery, Breakfast, Delivery, Drive-Thru, 24 Hours, Breakfast, Delivery, Drive-Thru, 24 Hours, Breakfast, Mall, Breakfast, Dessert, Delivery, Mall, Dessert, Delivery, Drive-Thru, Breakfast, Drive-Thru, Delivery, 24 Hours, Kids Area, Breakfast, Delivery, Mall, Breakfast, Dessert, Delivery, Drive-Thru, Delivery, Breakfast, Kids Area, Drive-Thru, Delivery, Kids Area, Delivery, Mall, Dessert, Delivery, Mall, Dessert, Delivery, Mall, Dessert, Delivery, Mall, Breakfast, Delivery, Mall, Dessert, Delivery, Breakfast, Delivery, Mall, Dessert, Delivery, Mall, Breakfast, 24 Hours, Delivery, Mall, Delivery, Mall, Breakfast, Delivery, 24 Hours, Drive-Thru, Delivery, Breakfast, Delivery, Mall, Dessert, Delivery, Mall, 24 Hours, Drive-Thru, Delivery, Breakfast, Delivery, Mall, Delivery, Breakfast, Delivery, Mall, Dessert, Delivery, Mall, Dessert, Drive-Thru, Delivery, 24 Hours, Breakfast, Delivery, Mall, Dessert, Breakfast, Delivery, Delivery, Mall, Dessert, Delivery, Mall, Dessert, Delivery, Drive-Thru, Breakfast, 24 Hours, Delivery, Mall, Delivery, Drive-Thru, Breakfast, Delivery, Mall, Delivery, Mall, Dessert, Delivery, Mall, Delivery, Drive-Thru, Breakfast, Delivery, Mall, Breakfast, Delivery, Breakfast, Mall, Delivery, Dessert, Delivery, Drive-Thru, Breakfast, Delivery, Drive-Thru, Breakfast, 24 Hours, Delivery, Breakfast, Delivery, Mall, Delivery, Drive-Thru, Breakfast, Drive-Thru, Delivery, Drive-Thru, Breakfast, Drive-Thru, Drive-Thru, Mall, Delivery, Drive-Thru, Breakfast, Delivery, Breakfast, Drive-Thru, Breakfast, Delivery, Mall, Delivery, Delivery, Drive-Thru, 24 Hours, Delivery, Drive-Thru, 24 Hours, Delivery, Drive-Thru",
    "maps_url":"https:\/\/goo.gl\/maps\/JN5q7vdJNWNz4yd58",
    "pickup_url":"https:\/\/texaschickenmalaysia.placeorder.my\/#?outletid=0d88da9124f04739aa6758402418acf7"
  },
  {
    "name":"TEXAS CHICKEN SRI GOMBAK",
    "address":"JALAN SG 1\/3   68100 SELANGOR",
    "hours":"Opening Daily: 24 Hours",
    "features":"Delivery, Breakfast",
    "maps_url":"https:\/\/goo.gl\/maps\/JN5q7vdJNWNz4yd58",
    "pickup_url":"https:\/\/texaschickenmalaysia.placeorder.my\/#?outletid=0d88da9124f04739aa6758402418acf7"
  },
  {
    "name":"TEXAS CHICKEN AEON BUKIT TINGGI",
    "address":"G29, AEON MALL BUKIT TINGGI 1, PERSIARAN BATU NILAM 1\/KS6  41200 SELANGOR",
    "hours":"Opening Daily: 10.00am - 10.00pm",
    "features":"Mall, Delivery",
    "maps_url":"https:\/\/goo.gl\/maps\/EXDb9qoVFufKsSfC8",
    "pickup_url":"https:\/\/texaschickenmalaysia.placeorder.my\/#?outletid=3211be35371e402aa4ef7dcfedf8b75f"
  },
  {
    "name":"TEXAS CHICKEN SUNWAY PYRAMID",
    "address":"Two and Oasis Boulevard, Sunway Pyramid Mall Unit No. LG2.127A & OB3.LG2.1D, Lower Ground, Bandar Sunway, 47500 Petaling Jaya, Selangor",
    "hours":"Opening Daily: 10.00am - 10.00pm",
    "features":"Mall, Delivery",
    "maps_url":"https:\/\/g.co\/kgs\/A5d68U4",
    "pickup_url":"https:\/\/texaschickenmalaysia.placeorder.my\/#?outletid=92133f81fbd0425a8980df5cb367a983"
  },
  {
    "name":"TEXAS CHICKEN THE MINES",
    "address":"THE MINES L2-85 (P), JALAN DULANG  43300 SELANGOR",
    "hours":"Opening Daily: 10.00am - 10.00pm",
    "features":"Delivery, Mall, Dessert",
    "maps_url":"https:\/\/maps.app.goo.gl\/Wp73p8hWG3h4otEL8",
    "pickup_url":null
  },
  {
    "name":"TEXAS CHICKEN KAJANG",
    "address":"30, JALAN TUN ABDUL AZIZ   43000 SELANGOR",
    "hours":"Opening Daily: 24 HOURS",
    "features":"Delivery",
    "maps_url":"https:\/\/goo.gl\/maps\/Uor6BknZgVjQFwS48",
    "pickup_url":null
  },
  {
    "name":"TEXAS CHICKEN KLANG PARADE",
    "address":"KLANG PARADE, 2112, JALAN MERU   41050 SELANGOR",
    "hours":"Opening Daily: 10.00am - 10.00pm",
    "features":"Delivery, Mall",
    "maps_url":"https:\/\/goo.gl\/maps\/AxvAfiTQnsGwjqYR6",
    "pickup_url":null
  },
  {
    "name":"TEXAS CHICKEN KLIA2 (TEMPORARILY CLOSED)",
    "address":"2M-24, LEVEL 2M, GATEWAY@KLIA2, TERMINAL KLIA2 JALAN KLIA2\/1,  64000 SELANGOR",
    "hours":null,
    "features":"Mall, Delivery, Breakfast",
    "maps_url":"https:\/\/goo.gl\/maps\/veXa797FGvcQ8ggN6",
    "pickup_url":null
  },
  {
    "name":"TEXAS CHICKEN THE MAIN PLACE, SUBANG JAYA",
    "address":"LOT NO. LG-09 & LG-10, JALAN USJ 21\/10, PERSIARAN KEWAJIPAN,   47630 SELANGOR",
    "hours":"Opening Daily: 10.00am - 10.00pm",
    "features":"Mall, Delivery, Dessert",
    "maps_url":"https:\/\/maps.app.goo.gl\/fVjy6tMWeBK8z123A",
    "pickup_url":"https:\/\/texaschickenmalaysia.placeorder.my\/#?outletid=995f454372b748f5badbf0bebf913a79"
  },
  {
    "name":"TEXAS CHICKEN JAYA SHOPPING CENTRE",
    "address":"LG-25, JAYA SHOPPING CENTRE, JALAN 14\/17  46100 SELANGOR",
    "hours":"Opening Daily: 10.00am - 10.00pm",
    "features":"Delivery, Mall",
    "maps_url":"https:\/\/goo.gl\/maps\/Qx4KimWuyBaFTGw66",
    "pickup_url":null
  },
  {
    "name":"TEXAS CHICKEN TESCO EXTRA CHERAS",
    "address":"2, JALAN MIDAH 2   56000 WILAYAH PERSEKUTUAN KUALA LUMPUR",
    "hours":"Opening Daily: 10.00am - 10.00pm",
    "features":"Mall, Delivery",
    "maps_url":"https:\/\/goo.gl\/maps\/qs3sggmkGSKCTstT8",
    "pickup_url":"https:\/\/texaschickenmalaysia.placeorder.my\/#?outletid=bec44de0d9bb40a89b977d7e00e82827"
  },
  {
    "name":"TEXAS CHICKEN IOI CITY MALL, PUTRAJAYA",
    "address":"LOT NO. L212-2, 2ND. FLOOR, IOI CITY MALL LEBUH IRC, IOI RESORT CITY  62502 WILAYAH PERSEKUTUAN PUTRAJAYA",
    "hours":"Opening Daily: 10.00am - 10.00pm",
    "features":"Mall, Delivery",
    "maps_url":"https:\/\/maps.app.goo.gl\/7CWSi3sHMJ8hcSvK9",
    "pickup_url":"https:\/\/texaschickenmalaysia.placeorder.my\/#?outletid=e6010440f2574fe39dbb41acc2e322fa"
  },
  {
    "name":"TEXAS CHICKEN WANGSA WALK MALL",
    "address":"LOT NO. G-13A, WANGSA WALK MALL WANGSA AVENUE,  53300 FEDERAL TERRITORY OF KUALA LUMPUR",
    "hours":"Opening Daily: 10.00am - 10.00pm",
    "features":"Delivery, Mall, Dessert",
    "maps_url":"https:\/\/goo.gl\/maps\/N34XHUjbxGeAh4LH7",
    "pickup_url":"https:\/\/texaschickenmalaysia.placeorder.my\/#?outletid=f79667a4d92a4aa4b1f762934e55f87f"
  },
  {
    "name":"TEXAS CHICKEN SETAPAK CENTRAL (TEMPORARILY CLOSED)",
    "address":"LOT G-65, GROUND FLOOR, SETAPAK CENTRAL JALAN TAMAN IBU KOTA,  53300 KUALA LUMPUR",
    "hours":null,
    "features":"Mall, Delivery, Dessert",
    "maps_url":"https:\/\/goo.gl\/maps\/ZMwVcmxhh9EeJu7v7",
    "pickup_url":null
  },
  {
    "name":"TEXAS CHICKEN PJ NEW TOWN",
    "address":"20, JALAN TENGAH   46200 SELANGOR",
    "hours":"Opening Daily: 24 Hours",
    "features":"Delivery",
    "maps_url":"https:\/\/goo.gl\/maps\/D5jHwZRiXSUJAgFC9",
    "pickup_url":"https:\/\/texaschickenmalaysia.placeorder.my\/#?outletid=34067b9ca8004cf2a18a32f740f92940"
  },
  {
    "name":"TEXAS CHICKEN TESCO EXTRA JENJAROM",
    "address":"LOT NO. G5, NO. 1, JALAN 1\/1, TAMAN SERI JAROMAS,   42600 SELANGOR",
    "hours":"Opening Daily: 10.00am - 10.00pm",
    "features":"Delivery, Mall",
    "maps_url":"https:\/\/maps.app.goo.gl\/XKZ8U8pMqPP7a8Bx9",
    "pickup_url":"https:\/\/texaschickenmalaysia.placeorder.my\/#?outletid=e5075a75e430468b88b20e9970969952"
  },
  {
    "name":"TEXAS CHICKEN M3 RESIDENCY MALL",
    "address":"LOT 07 & 08, GROUND FLOOR, MEDAN MEGA MELATI (M3 MALL),   53100 KUALA LUMPUR",
    "hours":"Opening Daily: 10.00am - 10.00pm",
    "features":"Mall, Delivery",
    "maps_url":"https:\/\/goo.gl\/maps\/UPA2E4sCW4C7vfqj8",
    "pickup_url":null
  },
  {
    "name":"TEXAS CHICKEN MIDPOINT SHOPPING CENTRE",
    "address":"TEXAS CHICKEN MIDPOINT SHOPPING CENTRE",
    "hours":"Opening Daily: 10.00am - 10.00pm",
    "features":"Mall, Delivery, Breakfast",
    "maps_url":"https:\/\/goo.gl\/maps\/hjuWMYgTyKegwSgh9",
    "pickup_url":"https:\/\/texaschickenmalaysia.placeorder.my\/#?outletid=f5258f6bea7e4d1f834816661a345d3d"
  },
  {
    "name":"TEXAS CHICKEN TAMAN SRI SERDANG",
    "address":"33A, JALAN 2\/2   43000 SELANGOR",
    "hours":"Opening Daily: 24 Hours",
    "features":"Delivery",
    "maps_url":"https:\/\/goo.gl\/maps\/sRv1KfZRRc8sXBjJ6",
    "pickup_url":null
  },
  {
    "name":"TEXAS CHICKEN TESCO LUKUT",
    "address":"LOT 05, TESCO SHOPPING MALL, NO.35, JALAN PRIMA 1, LUKUT PRIMA,   71010 NEGERI SEMBILAN",
    "hours":"Opening Daily: 10.00am - 9.00pm",
    "features":"Mall, Delivery",
    "maps_url":"https:\/\/goo.gl\/maps\/KDg4nnBfx84QF9NY6",
    "pickup_url":"https:\/\/texaschickenmalaysia.placeorder.my\/#?outletid=5bab5e84b0914309a9134046b45179c5"
  },
  {
    "name":"TEXAS CHICKEN UTROPOLIS MARKETPLACE",
    "address":"LOT G-B3 & G-B4, UTROPOLIS MARKETPLACE, JALAN KONTRAKTOR U1\/14,   40150 SELANGOR",
    "hours":"Opening Daily: 8.00am - 2.00am",
    "features":"Delivery, Mall",
    "maps_url":"https:\/\/goo.gl\/maps\/sWJCScpAnJUzodXv7",
    "pickup_url":null
  },
  {
    "name":"TEXAS CHICKEN BANDAR PUCHONG JAYA",
    "address":"NO. 6G, JALAN KENARI 1   47100 SELANGOR",
    "hours":"Opening Daily: 10am \u2013 10pm",
    "features":"Mall, Breakfast",
    "maps_url":"https:\/\/goo.gl\/maps\/5LgQHr682WvrVd4BA",
    "pickup_url":"https:\/\/texaschickenmalaysia.placeorder.my\/#?outletid=bb4228f3f4cb44e58d9444ea187f8c25"
  },
  {
    "name":"TEXAS CHICKEN SS15 COURTYARD, SUBANG JAYA",
    "address":"LOT LG-10, LOWER GROUND FLOOR, SS15 COURTYARD, JALAN SS15\/4G, SS15   47500 SELANGOR",
    "hours":"Opening Daily: 10.00am - 10.00pm",
    "features":"Delivery, Mall",
    "maps_url":"https:\/\/goo.gl\/maps\/zXTUU6mR65JimufW9",
    "pickup_url":"https:\/\/texaschickenmalaysia.placeorder.my\/#?outletid=27fab955b1644515ba33f28d2e0a7209"
  },
  {
    "name":"TEXAS CHICKEN KEPONG",
    "address":"128 & 130, JALAN RIMBUNAN RAYA LAMAN RIMBUNAN  52100 KUALA LUMPUR",
    "hours":"Opening Daily: 24 Hours",
    "features":"Delivery, Breakfast",
    "maps_url":"https:\/\/goo.gl\/maps\/BQqV7Xynu4iUpv3YA",
    "pickup_url":"https:\/\/texaschickenmalaysia.placeorder.my\/#?outletid=f10b6bbcf45646ddaa13c107c91bb386"
  },
  {
    "name":"TEXAS CHICKEN NILAI",
    "address":"LOT 1 & 2, JALAN BBN 1\/3L OFF JALAN PERSIARAN PUSAT BANDAR  71800 NEGERI SEMBILAN",
    "hours":"Opening Daily: 24 Hours",
    "features":"Delivery, Breakfast",
    "maps_url":"https:\/\/goo.gl\/maps\/Fkwvc58atKUyrcS7A",
    "pickup_url":"https:\/\/texaschickenmalaysia.placeorder.my\/#?outletid=1f1497ee0ed947cbaf42ddb1dd8bff16"
  },
  {
    "name":"TEXAS CHICKEN SEREMBAN GATEWAY",
    "address":"NO. 13-G, GERBANG SEREMBAN, OFF JALAN SUNGAI UJONG,   70200 NEGERI SEMBILAN",
    "hours":"Opening Daily: 24 Hours",
    "features":"Delivery, Breakfast, 24 Hours",
    "maps_url":"https:\/\/maps.app.goo.gl\/GCDukgcNFoVMS4A98",
    "pickup_url":"https:\/\/texaschickenmalaysia.placeorder.my\/#?outletid=2f58f6a3cf7f412fbf91a6676721c98c"
  },
  {
    "name":"TEXAS CHICKEN SOGO",
    "address":"L6-R1 & L6-R1A, SOGO (KL) DEPARTMENT STORE, 190, JALAN TUANKU ABDUL RAHMAN,   55100 KUALA LUMPUR",
    "hours":"Opening Daily: Mon-Thu 10.00am - 9.30pm\nFri-Sun 10.00am - 10.00pm",
    "features":"Delivery, Mall",
    "maps_url":"https:\/\/goo.gl\/maps\/kMztVpkoYJVbpSkG8",
    "pickup_url":"https:\/\/texaschickenmalaysia.placeorder.my\/#?outletid=28be62130f7e422da3c5219243f9f520"
  },
  {
    "name":"TEXAS CHICKEN 1ST AVENUE MALL",
    "address":"LG-15, 16 &17, LOWER GROUND FLOOR, 1ST AVENUE MALL, 182, JALAN MAGAZINE,   10300 PULAU PINANG",
    "hours":"Opening Daily: 10.00am - 10.00pm",
    "features":"Delivery, Mall, Dessert",
    "maps_url":"https:\/\/goo.gl\/maps\/iZyLTckWPiidvLa47",
    "pickup_url":"https:\/\/texaschickenmalaysia.placeorder.my\/#?outletid=41da0a223bac4681a25c853ab1b40a05"
  },
  {
    "name":"TEXAS CHICKEN PETRONAS ALOR SETAR DT",
    "address":"PETRONAS SULTAN ABDUL HALIM HIGHWAY, 05300 ALOR SETAR, KEDAH",
    "hours":"Opening Daily: 24 hours",
    "features":"Delivery, Drive-Thru, Kids Area, Breakfast",
    "maps_url":"https:\/\/goo.gl\/maps\/BunaELK5quEbsvUX8",
    "pickup_url":null
  },
  {
    "name":"TEXAS CHICKEN RAJA UDA",
    "address":"1&3, JALAN CEMPAKA   12300 PULAU PINANG",
    "hours":"Opening Daily: 24 hours",
    "features":"Delivery",
    "maps_url":"https:\/\/goo.gl\/maps\/dp4pdoDLLy8CrDHH8",
    "pickup_url":null
  },
  {
    "name":"TEXAS CHICKEN SUNGAI BULOH",
    "address":"LOT 7398, GROUND FLOOR, JALAN 1A\/3   47000 SELANGOR",
    "hours":"Opening Daily: 24 HOURS",
    "features":"Delivery, Breakfast",
    "maps_url":"https:\/\/goo.gl\/maps\/F565SPQwDmFATETJ6",
    "pickup_url":"https:\/\/texaschickenmalaysia.placeorder.my\/#?outletid=a7a290a7514046e7886ba3118f0c88c3"
  },
  {
    "name":"TEXAS CHICKEN AEONBIG BANDAR TUN HUSSEIN ONN",
    "address":"Lot G.01 & G.02, AEON Big Tun Hussein Onn Bandar, Persiaran Suarasa 2, Tun Hussein Onn, 43200 Cheras, Selangor",
    "hours":"Opening Daily: 10.00am - 10.00pm",
    "features":"Delivery, Mall",
    "maps_url":"https:\/\/maps.app.goo.gl\/wmXwDh8VexTxcfJp6",
    "pickup_url":null
  },
  {
    "name":"TEXAS CHICKEN BHP R&R SKUDAI DT, JOHOR BHARU",
    "address":"LOT 16A  , JALAN R&R SKUDAI , KAWASAN R&R SKUDAI , LEBUHRAYA UTARA SELATAN KM 16.5  ( ARAH SELATAN ) 81400 SENAI, JOHOR.",
    "hours":"Opening Daily: 10am \u2013 10pm",
    "features":"Drive-Thru, Delivery",
    "maps_url":"https:\/\/goo.gl\/maps\/8Tm7Cm1Sp1HQa1vv6",
    "pickup_url":null
  },
  {
    "name":"TEXAS CHICKEN SETIA ECOHILL MALL, SEMENYIH",
    "address":"LOT L1-L2, LEVEL 1, KOMPLEKS MEMBELI BELAH DATARAN ECOHILL, JALAN ECOHILL 1.2, SETIA ECOHILL, 43500 SEMENYIH, SELANGOR",
    "hours":"Opening Daily: 10.00am - 10.00pm",
    "features":"Mall, Dessert",
    "maps_url":"https:\/\/maps.app.goo.gl\/1NJSsqY1WAgy5sHQA",
    "pickup_url":null
  },
  {
    "name":"TEXAS CHICKEN KB MALL, KOTA BHARU, KELANTAN",
    "address":"LOT NO. G53, GROUND FLOOR, KOTA BAHRU MALL, PT101 & 102, NO. 1, JALAN HAMZAH, SEKSYEN 16, 15050, KOTA BHARU, KELANTAN.",
    "hours":"Opening Daily: 10.00am - 10.00pm",
    "features":"Delivery, Mall, Dessert",
    "maps_url":"https:\/\/goo.gl\/maps\/52yow1UEr68EsLKd8",
    "pickup_url":null
  },
  {
    "name":"TEXAS CHICKEN TAIPING SENTRAL MALL",
    "address":"G04, 05 & 06, GROUND FLOOR, TAIPING SENTRAL, NO.36, JALAN ISTANA LARUT,   34000 PERAK",
    "hours":"Opening Daily: 10.00am - 10.00pm",
    "features":"Delivery, Mall",
    "maps_url":"https:\/\/goo.gl\/maps\/849yrsUcirJDeKCD9",
    "pickup_url":null
  },
  {
    "name":"TEXAS CHICKEN SHELL TELOK PANGLIMA GARANG DT",
    "address":"PT 1293 , JALAN HELIUM , 42500 TELOK PANGLIMA GARANG , KUALA LANGAT, SELANGOR DARUL EHSAN.",
    "hours":"Opening Daily: 24Hours",
    "features":"Delivery, Drive-Thru, 24 Hours, Breakfast",
    "maps_url":"https:\/\/goo.gl\/maps\/Vrbg5TDCaPKTmtex8",
    "pickup_url":"https:\/\/texaschickenmalaysia.placeorder.my\/#?outletid=1578dc3360f14f0394f21a10224615c2"
  },
  {
    "name":"TEXAS CHICKEN KULIM CENTRAL",
    "address":"LOT GF - 05 & 06, GROUND FLOOR, KULIM CENTRAL SHOPPING CENTRE, NO.1, JALAN KLC SATU (1)  09000 KEDAH",
    "hours":"Opening Daily:  24 Hours",
    "features":"Delivery, Mall",
    "maps_url":"https:\/\/goo.gl\/maps\/qL668MpQ59g9xVie8",
    "pickup_url":null
  },
  {
    "name":"TEXAS CHICKEN BANDAR BARU AMPANG",
    "address":"NO.20-G, JALAN WAWASAN 2\/8   68000 SELANGOR",
    "hours":"Opening Daily: 24 hours",
    "features":"Delivery",
    "maps_url":"https:\/\/goo.gl\/maps\/wfcnViVSTYpZURw29",
    "pickup_url":"https:\/\/texaschickenmalaysia.placeorder.my\/#?outletid=98b858a6ff8e4b0e8b4655c48d3700f3"
  },
  {
    "name":"TEXAS CHICKEN SUNWAY CARNIVAL MALL, PENANG",
    "address":"LG-63A, LOWER GROUND FLOOR, SUNWAY CARNIVAL MALL, 3068, JALAN TODAK, PUSAT BANDAR SEBERANG JAYA, SEBERANG JAYA, 13700 PERAI, PULAU PINANG",
    "hours":"Opening Daily: 10.00am - 10.00pm",
    "features":"Delivery, Mall, Dessert",
    "maps_url":"https:\/\/goo.gl\/maps\/CaovHYYHXLxbkffK6",
    "pickup_url":null
  },
  {
    "name":"TEXAS CHICKEN SETIA CITY MALL, SHAH ALAM",
    "address":"LG-157, 158, 164A, LOWER GROUND FLOOR, SETIA CITY MALL, NO.7, PERSIARAN SETIA DAGANG, BANDAR SETIA ALAM, SEKSYEN U13, 40170 SHAH ALAM, SELANGOR",
    "hours":"Opening Daily: 10.00am - 10.00pm",
    "features":"Delivery, Mall, Dessert",
    "maps_url":"https:\/\/goo.gl\/maps\/wm8eSiHXr21xuUYv9",
    "pickup_url":"https:\/\/texaschickenmalaysia.placeorder.my\/#?outletid=960d84ee11124474aa45f1bd1a4a79e2"
  },
  {
    "name":"TEXAS CHICKEN THE ENVICTUS, PJ",
    "address":"UNIT G-1, GROUND FLOOR. LOT 11, JALAN 225, SECTION 51A, 46100 PETALING JAYA, SELANGOR",
    "hours":"Opening Daily: 8.00am -10.00pm",
    "features":"Delivery, Breakfast",
    "maps_url":"https:\/\/goo.gl\/maps\/zPshV9F8DQEFkHw16",
    "pickup_url":"https:\/\/texaschickenmalaysia.placeorder.my\/#?outletid=82091d85a9cb466eaff56735d6da7941"
  },
  {
    "name":"TEXAS CHICKEN SHELL JALAN SIMPANG DT, TAIPING",
    "address":"STESEN MINYAK SHELL, 7807, JALAN SUSUR SIMPANG, 34000 TAIPING, PERAK DARUL RIDZUAN",
    "hours":"Opening Daily: 24Hours",
    "features":"Delivery, Drive-Thru, 24 Hours, Breakfast",
    "maps_url":"https:\/\/goo.gl\/maps\/ihoZew8CfxVbuK786",
    "pickup_url":null
  },
  {
    "name":"TEXAS CHICKEN KUANTAN DT, PAHANG",
    "address":"BANGUNAN LAMA MPK, MAJLIS BANDARAYA KUANTAN, JALAN TANAH PUTIH, 25100 KUANTAN, PAHANG DARUL MAKMUR",
    "hours":"Opening Daily: 24Hours",
    "features":"Delivery, Drive-Thru, 24 Hours, Breakfast",
    "maps_url":"https:\/\/goo.gl\/maps\/1daEqK1D9K4PQnoa9",
    "pickup_url":null
  },
  {
    "name":"TEXAS CHICKEN AWANA SKYCENTRAL, GENTING HIGHLANDS",
    "address":"LOT NO. 2-7 & 2-8, LEVEL 2, AWANA SKYWAY STATION, GENTING HIGHLANDS RESORT, 69000 GENTING HIGHLANDS, PAHANG.",
    "hours":"Opening Daily: 10.00am - 10.00pm",
    "features":"Mall, Breakfast, Dessert",
    "maps_url":"https:\/\/maps.app.goo.gl\/tP4f1rZipkUC8yBX8",
    "pickup_url":null
  },
  {
    "name":"TEXAS CHICKEN MELAWATI MALL",
    "address":"UNIT LG-22\/23A, LOWER GROUND, MELAWATI MALL, 355, JALAN BANDAR MELAWATI, PUSAT BANDAR MELAWATI, 53100 KUALA  LUMPUR",
    "hours":"Opening Daily: 10.00am - 10.00pm",
    "features":"Delivery, Mall, Dessert",
    "maps_url":"https:\/\/maps.app.goo.gl\/6D3C6TS6AbvegZbv5",
    "pickup_url":null
  },
  {
    "name":"TEXAS CHICKEN CALTEX KUALA SELANGOR DT",
    "address":"CALTEX PETROL STATION, LOT 139, BATU 2 JALAN KLANG, 45000 KUALA SELANGOR, SELANGOR DARUL EHSAN.",
    "hours":"Opening Daily: 8.00am - 02.00am",
    "features":"Delivery, Drive-Thru, Breakfast",
    "maps_url":"https:\/\/goo.gl\/maps\/RrKraaRBADVXAMPT9",
    "pickup_url":null
  },
  {
    "name":"TEXAS CHICKEN JALAN PENGKALAN CHEPA DT, KOTA BHARU",
    "address":"LOT 11487 & 11491, SEKSYEN 27, JALAN PENGKALAN CHEPA, 15000 KOTA BHARU, KELANTAN",
    "hours":"Opening Daily: 24Hours",
    "features":"Drive-Thru, Delivery, 24 Hours, Kids Area, Breakfast",
    "maps_url":"https:\/\/goo.gl\/maps\/MTzUeatZLky7LMF59",
    "pickup_url":null
  },
  {
    "name":"TEXAS CHICKEN 1 UTAMA SHOPPING CENTRE",
    "address":"NO.1, LEBUH BANDAR UTAMA   47800 SELANGOR",
    "hours":"Opening Daily: 8.00am - 10.00pm",
    "features":"Delivery, Mall, Breakfast, Dessert",
    "maps_url":"https:\/\/maps.app.goo.gl\/ChVNL2xEbX9cEJEx6",
    "pickup_url":"https:\/\/texaschickenmalaysia.placeorder.my\/#?outletid=6ce1ca3983704121a72f2218c016c85e"
  },
  {
    "name":"TEXAS CHICKEN JALAN GAMBANG, KUANTAN",
    "address":"NO. B2 AND B4, JALAN SG. ISAP MAJU 1, 25150 KUANTAN, PAHANG DARUL MAKMUR",
    "hours":"Opening Daily: 10.00am - 11.00pm",
    "features":"Delivery",
    "maps_url":"https:\/\/goo.gl\/maps\/agnhmg4Hx9YYNwMy5",
    "pickup_url":null
  },
  {
    "name":"TEXAS CHICKEN PRIMA 11 CYBERJAYA DT",
    "address":"NO. 2B, GROUND FLOOR, JALAN TEKNOKRAT 6, 63000 CYBERJAYA, SELANGOR.",
    "hours":"Opening Daily:  24 hours",
    "features":"Drive-Thru, Delivery, Breakfast, Kids Area",
    "maps_url":"https:\/\/goo.gl\/maps\/1AaGvKbBmmPk51U69",
    "pickup_url":null
  },
  {
    "name":"TEXAS CHICKEN PETRON JERANTUT DT",
    "address":"PETRON TEMIN PETROL STATION, PT 190635, TAMAN SAUJANA UTAMA, 27000 JERANTUT, PAHANG DARUL MAKMUR.",
    "hours":"Opening Daily:  24 Hours",
    "features":"Drive-Thru, Delivery, Kids Area",
    "maps_url":"https:\/\/goo.gl\/maps\/xmLiAmyUUxLfSKaQ9",
    "pickup_url":null
  },
  {
    "name":"TEXAS CHICKEN KTCC MALL, KUALA TERENGGANU",
    "address":"LOT 1-03A, FIRST FLOOR, KTCC MALL, 219, JALAN SULTAN ZAINAL ABIDIN, 0200 KUALA TERENGGANU, TERENGGANU",
    "hours":"Opening Daily: 10.00am - 10.00pm",
    "features":"Delivery, Mall, Dessert",
    "maps_url":"https:\/\/maps.app.goo.gl\/x2ziTHxSxdCMaFiJ8",
    "pickup_url":null
  },
  {
    "name":"TEXAS CHICKEN AMAN CENTRAL, ALOR SETAR",
    "address":"UNIT NO. 1-47 & 1-50, FIRST FLOOR, AMAN CENTRAL, NO.1, DARUL AMAN HIGHWAY, KAMPUNG LUBOK PERINGGI, 05100 ALOR SETAR, KEDAH",
    "hours":"Opening Daily: 10.00am - 10.00pm",
    "features":"Delivery, Mall, Dessert",
    "maps_url":"https:\/\/goo.gl\/maps\/m4y8RXXNMLiVic9G7",
    "pickup_url":null
  },
  {
    "name":"TEXAS CHICKEN KLUANG MALL, JOHOR",
    "address":"LOT NO. LG-08, LOWER GROUND FLOOR, KLUANG MALL, JALAN RAMBUTAN, TAMAN SURIA, 86000 KLUANG, JOHOR",
    "hours":"Opening Daily: 10.00am - 10.00pm",
    "features":"Delivery, Mall, Dessert",
    "maps_url":"https:\/\/goo.gl\/maps\/2XsWvXrkxEGQgKia8",
    "pickup_url":null
  },
  {
    "name":"TEXAS CHICKEN SOHO IPOH",
    "address":"NO. E-G-2, MENARA SSI, SOHO IPOH 2, JALAN SULTAN IDRIS SHAH,  30000 PERAK",
    "hours":"Opening Daily:  8am \u2013 11pm",
    "features":"Delivery, Mall, Breakfast",
    "maps_url":"https:\/\/goo.gl\/maps\/GaNHMfL6ERyiGvJx7",
    "pickup_url":null
  },
  {
    "name":"TEXAS CHICKEN AEON MALL, KOTA BHARU",
    "address":"LOT G41, GROUND FLOOR, AEON MALL KOTA BHARU, PUSAT BELI-BELAH KOTA BHARU   15050 KELANTAN",
    "hours":"Opening Daily: \n10.00am - 10.00pm",
    "features":"Delivery, Mall, Dessert",
    "maps_url":"https:\/\/goo.gl\/maps\/eJ7igz9Fd6gu8HwT7",
    "pickup_url":null
  },
  {
    "name":"TEXAS CHICKEN PKNS BANGI",
    "address":"LOT G.02 & G.02E, TINGKAT BAWAH KOMPLEK PKNS BANGI   43650 SELANGOR",
    "hours":"Opening Daily:  24 Hours",
    "features":"Delivery, Breakfast",
    "maps_url":"https:\/\/goo.gl\/maps\/YPkuCxGwY6JXDLg78",
    "pickup_url":"https:\/\/texaschickenmalaysia.placeorder.my\/#?outletid=d361081b0f184a3ba2e1a9b9e6425ea0"
  },
  {
    "name":"TEXAS CHICKEN AEON MALL RAWANG",
    "address":"G47, GROUND FLOOR, NO. 1, KOMPLEKS BELI-BELAH AEON RAWANG ANGGUN PERSIARAN ANGGUN, TAMAN ANGGUN  48000 SELANGOR",
    "hours":"Opening Daily: 10.00am - 10.00pm",
    "features":"Delivery, Mall, Dessert",
    "maps_url":"https:\/\/goo.gl\/maps\/Mk4yRWZ28PbVnMV38",
    "pickup_url":null
  },
  {
    "name":"TEXAS CHICKEN SUNSHINE SQUARE, BAYAN BARU",
    "address":"LOT 1.02 & 1.03, GROUND FLOOR, SUNSHINE SQUARE COMPLEX, NO. 1, JALAN MAYANG PASIR  11950 PULAU PINANG",
    "hours":"Opening Daily: 24 Hours",
    "features":"Delivery, Mall, Breakfast, 24 Hours",
    "maps_url":"https:\/\/goo.gl\/maps\/sJTRqBjzF75JzLFi9",
    "pickup_url":null
  },
  {
    "name":"TEXAS CHICKEN JOHOR BAHRU CITY SQUARE",
    "address":"LOT J3-21, LEVEL 3, JOHOR BAHRU CITY SQUARE, 106-108, JALAN WONG AH FOOK  80000 JOHOR",
    "hours":"Opening Daily: 10.00am - 8.00pm",
    "features":"Delivery, Mall",
    "maps_url":"https:\/\/goo.gl\/maps\/5iZR87ohtpdU3Dvg7",
    "pickup_url":null
  },
  {
    "name":"TEXAS CHICKEN ALL SEASONS PLACE, PENANG",
    "address":"6H-1-7 & 6H-AF1-7, 6H-1-8 & 6H-AF1-8 LEVEL 1, ALL SEASONS PLACE, LEBUHRAYA THEAN TEIK  11500 PULAU PINANG",
    "hours":"Opening Daily:  24 Hours",
    "features":"Delivery, Mall, Breakfast",
    "maps_url":"https:\/\/goo.gl\/maps\/qTg4R1m9oNaj2qF87",
    "pickup_url":null
  },
  {
    "name":"TEXAS CHICKEN D'CATTLEYA, SENAWANG",
    "address":"NO.1, JALAN CATTLEYA 2, PERSADA CATTLEYA   70450 NEGERI SEMBILAN",
    "hours":"Opening Daily:  24 Hours",
    "features":"Delivery",
    "maps_url":"https:\/\/goo.gl\/maps\/FqLz9ywp5DZdZRJm8",
    "pickup_url":null
  },
  {
    "name":"TEXAS CHICKEN STESEN CALTEX, SUNGAI PETANI",
    "address":"LOT 7880, JALAN BAKAR SAMPAH   08000 KEDAH",
    "hours":"Opening Daily: 24Hours",
    "features":"24 Hours, Drive-Thru, Delivery, Breakfast",
    "maps_url":"https:\/\/goo.gl\/maps\/kQDb2cnSYToQHsix6",
    "pickup_url":null
  },
  {
    "name":"TEXAS CHICKEN NSK MELAKA",
    "address":"LOT 1 & 5, NSK TRADE CITY (MELAKA) SDN. BHD. NO. 19395, JALAN TTC 26 TAMAN TEKNOLOGI CHENG  75250 MELAKA",
    "hours":"Opening Daily: 10.00am - 10.00pm",
    "features":"Delivery, Mall, Dessert",
    "maps_url":"https:\/\/goo.gl\/maps\/ZtcY3i9TStnzDEj97",
    "pickup_url":null
  },
  {
    "name":"TEXAS CHICKEN MID VALLEY SOUTHKEY",
    "address":"LG-034, THE MALL, MID VALLEY SOUTHKEY, PERSIARAN SOUTHKEY 1   80180 JOHOR",
    "hours":"Opening Daily: 10.00am - 10.00pm",
    "features":"Delivery, Mall",
    "maps_url":"https:\/\/goo.gl\/maps\/xcFWfdjTcpshD5FU6",
    "pickup_url":null
  },
  {
    "name":"TEXAS CHICKEN PETRONAS WAKAF BHARU, TERENGGANU",
    "address":"LOT PT 36982, HS(M)25510, WAKAF BHARU   21300 TERENGGANU",
    "hours":"Opening Daily: 24Hours",
    "features":"24 Hours, Drive-Thru, Delivery, Breakfast",
    "maps_url":"https:\/\/goo.gl\/maps\/qYqjP6BhGHWg8piKA",
    "pickup_url":null
  },
  {
    "name":"TEXAS CHICKEN SUNWAY PUTRA MALL",
    "address":"LG-13A, LOWER GROUND FLOOR, SUNWAY PUTRA MALL, NO. 100, JALAN PUTRA   50350 KUALA LUMPUR",
    "hours":"Opening Daily: 10.00am - 10.00pm",
    "features":"Delivery, Mall",
    "maps_url":"https:\/\/goo.gl\/maps\/Mn1tfcWXgCDSc3dz6",
    "pickup_url":null
  },
  {
    "name":"TEXAS CHICKEN WISMA FUI CHIU, KL",
    "address":"LOT G.02, GROUND FLOOR, WISMA FUI CHIU NO. 32, JALAN TUN TAN CHENG LOCK  50050 KUALA LUMPUR",
    "hours":"Opening Daily: 8.00am - 9.00pm",
    "features":"Delivery, Breakfast",
    "maps_url":"https:\/\/goo.gl\/maps\/Lqjh7twDgYZjgekU8",
    "pickup_url":"https:\/\/texaschickenmalaysia.placeorder.my\/#?outletid=42c84cf5131c4331bc6a0a0048965c06"
  },
  {
    "name":"TEXAS CHICKEN TOPPEN SHOPPING CENTRE, JOHOR BAHRU",
    "address":"L2.118, LEVEL 2, TOPPEN SHOPPING CENTRE, NO. 33, JALAN HARMONIUM   81100 JOHOR",
    "hours":"Opening Daily: 10.00am - 10.00pm",
    "features":"Delivery, Mall, Dessert",
    "maps_url":"https:\/\/goo.gl\/maps\/Hx1NzgsU6k6jgbTT9",
    "pickup_url":null
  },
  {
    "name":"TEXAS CHICKEN CENTRAL I-CITY SHOPPING CENTRE",
    "address":"LG 10, LG 11 LOWER GROUND FLOOR, CENTRAL I-CITY NO.1, PERSIARAN MULTIMEDIA, SEKSYEN 7  40000 SELANGOR",
    "hours":"Opening Daily: 10.00am - 10.00pm",
    "features":"Delivery, Mall, Dessert",
    "maps_url":"https:\/\/maps.app.goo.gl\/3VEA52ALoMZCunGQ7",
    "pickup_url":null
  },
  {
    "name":"TEXAS CHICKEN SHELL STATION, SUNWAY MENTARI",
    "address":"JALAN PJS 8\/9   46510 SELANGOR",
    "hours":"Opening Daily: 24 hours",
    "features":"Drive-Thru, Delivery, 24 Hours, Breakfast",
    "maps_url":"https:\/\/goo.gl\/maps\/WP3ubaMH6vDRJewBA",
    "pickup_url":null
  },
  {
    "name":"TEXAS CHICKEN TASEK CENTRAL, JOHOR BAHRU",
    "address":"NO.2-30, LEVEL 2, TASEK CENTRAL NO.2 JALAN PENDEKAR 16, TAMAN UNGKU TUN AMINAH, 81300 SKUDAI, JOHOR BAHRU  81300 JOHOR",
    "hours":"Opening Daily: 10.00am - 10.00pm",
    "features":"Delivery, Mall, Dessert, Breakfast",
    "maps_url":"https:\/\/goo.gl\/maps\/W7V7NHaFhUQdCWkP7",
    "pickup_url":null
  },
  {
    "name":"TEXAS CHICKEN PLAZA MERDEKA",
    "address":"NO. 1336C & 1336C-1, JALAN MERDEKA   75000 MELAKA",
    "hours":"Opening Daily: 24 Hours",
    "features":"Delivery",
    "maps_url":"https:\/\/maps.app.goo.gl\/3MBMaF9K57hNfh3E6",
    "pickup_url":null
  },
  {
    "name":"TEXAS CHICKEN AEON MALL STATION 18, IPOH",
    "address":"LOT G53, GROUND FLOOR, AEON IPOH STATION 18 SHOPPING CENTRE NO.2, SUSURAN STESEN 18, STATION 18  31650 PERAK",
    "hours":"Opening Daily: 10.00am - 10.00pm",
    "features":"Delivery, Mall, Dessert",
    "maps_url":"https:\/\/goo.gl\/maps\/95kuYoPxQseqtLxk9",
    "pickup_url":null
  },
  {
    "name":"TEXAS CHICKEN QUEENSBAY MALL, PENANG",
    "address":"LG-87\/88 (POSTAL NO LG-72\/82) LOWER GROUND FLOOR, QUEENSBAY MALL, 100, PERSIARAN BAYAN INDAH  11900 PULAU PINANG",
    "hours":"Opening Daily: 10.00am - 10.00pm",
    "features":"Delivery, Mall, Dessert",
    "maps_url":"https:\/\/maps.app.goo.gl\/nxKvKWDFYjiiwzv29",
    "pickup_url":null
  },
  {
    "name":"TEXAS CHICKEN SHELL SUNGAI BESI, KL",
    "address":"SHELL MINT HOTEL, LEBUHRAYA KUALA LUMPUR   57000 KUALA LUMPUR",
    "hours":"Opening Daily: 24 Hours",
    "features":"Delivery, Drive-Thru, Breakfast, 24 Hours",
    "maps_url":"https:\/\/maps.app.goo.gl\/3j7AyE2tXg2KjK8v9",
    "pickup_url":"https:\/\/texaschickenmalaysia.placeorder.my\/#?outletid=81bfd846575149888914144fae45a0f1"
  },
  {
    "name":"TEXAS CHICKEN CENTREPOINT, SEGAMAT",
    "address":"NO. 143 & 144, GROUND FLOOR, PLAZA CENTRE POINT, JALAN DATO SIA HER YAM   85000 JOHOR",
    "hours":"Opening Daily: 10.00am - 10.00pm",
    "features":"Delivery, Mall",
    "maps_url":"https:\/\/goo.gl\/maps\/pKnTwwHTHNrzfrwU7",
    "pickup_url":null
  },
  {
    "name":"TEXAS CHICKEN CALTEX PUTRAJAYA",
    "address":"CALTEX PUTRAJAYA, LOT 333, JALAN P8H, PRESINT 8   62250 PUTRAJAYA",
    "hours":"Opening Daily:  24 hours",
    "features":"Delivery, Drive-Thru, Breakfast",
    "maps_url":"https:\/\/goo.gl\/maps\/FxP2RcGzH9du6cK7A",
    "pickup_url":null
  },
  {
    "name":"TEXAS CHICKEN AEON TAMAN MALURI",
    "address":"G10A, GROUND FLOOR, AEON MALL TAMAN MALURI SHOPPING CENTRE, 52, JALAN JEJAKA   55100 KUALA LUMPUR",
    "hours":"Opening Daily: 10.00am - 10.00pm",
    "features":"Delivery, Mall",
    "maps_url":"https:\/\/goo.gl\/maps\/AAbbqMsMGktRGm298",
    "pickup_url":"https:\/\/texaschickenmalaysia.placeorder.my\/#?outletid=df4506572ab8442a97b3ce01c0cc680c"
  },
  {
    "name":"TEXAS CHICKEN BATU PAHAT MALL, JOHOR",
    "address":"LOT G77 & G78, GROUND FLOOR, BATU PAHAT MALL, JALAN KLUANG   83000 JOHOR",
    "hours":"Opening Daily: 10.00am - 10.00pm",
    "features":"Delivery, Mall, Dessert",
    "maps_url":"https:\/\/maps.app.goo.gl\/g6UBVQiZHBJ77ruS7",
    "pickup_url":null
  },
  {
    "name":"TEXAS CHICKEN WETEX PARADE, MUAR",
    "address":"LOT 1-27 & 28, LEVEL 1, WETEX PARADE SHOPPING CENTRE, 69, JALAN ALI   84000 JOHOR",
    "hours":"Opening Daily: 10.00am - 10.00pm",
    "features":"Delivery, Mall",
    "maps_url":"https:\/\/goo.gl\/maps\/3qggnmvdJQgBmXjR9",
    "pickup_url":null
  },
  {
    "name":"TEXAS CHICKEN TAMAN CANNING IPOH",
    "address":"NO. 6, JALAN TASEK   31400 PERAK",
    "hours":"Opening Daily: 24 hours",
    "features":"Delivery, Drive-Thru, Breakfast",
    "maps_url":"https:\/\/goo.gl\/maps\/xpUjQa6Qy3u597wK8",
    "pickup_url":null
  },
  {
    "name":"TEXAS CHICKEN MID VALLEY MEGAMALL",
    "address":"LG-012, LOWER GROUND FLOOR, MID VALLEY MEGAMALL LINGKARAN SYED PUTRA  59200 KUALA LUMPUR",
    "hours":"Opening Daily: 8.00am - 10.00pm",
    "features":"Delivery, Mall, Breakfast",
    "maps_url":"https:\/\/goo.gl\/maps\/t44kN5gTCJ8usWzc8",
    "pickup_url":null
  },
  {
    "name":"TEXAS CHICKEN UPTOWN DAMANSARA",
    "address":"NO 1G, JALAN SS21 \/1A, DAMANSARA UTAMA,   47400 SELANGOR",
    "hours":"Opening Daily:  24 hours",
    "features":"Delivery, Breakfast",
    "maps_url":"https:\/\/goo.gl\/maps\/C6AhePiiTiVEdA38A",
    "pickup_url":"https:\/\/texaschickenmalaysia.placeorder.my\/#?outletid=2beb913e6b514ea1b10e8bc712aa0086"
  },
  {
    "name":"TEXAS CHICKEN AEON BANDARAYA MELAKA",
    "address":"Lot G-79, Ground Floor, AEON Mall Bandaraya Melaka, No.2 Jalan Lagenda, Taman 1 \u2013 Lagenda, 75400, Melaka",
    "hours":"Opening Daily: 10am \u2013 10pm",
    "features":"Mall, Delivery, Dessert",
    "maps_url":"https:\/\/goo.gl\/maps\/r5vp9ro8231Mx9ci8",
    "pickup_url":null
  },
  {
    "name":"TEXAS CHICKEN ECO GRANDEUR DT, SELANGOR",
    "address":"Lot No.36, Ruang Niaga Eco Grandeur,  Persiaran Mokhtar Dahari, 42300, Bandar  Puncak Alam, Selangor",
    "hours":"Opening Daily: 24 Hours",
    "features":"Delivery, Drive-Thru, Breakfast",
    "maps_url":"https:\/\/goo.gl\/maps\/kkdgvUjtqXe7o5zq5",
    "pickup_url":null
  },
  {
    "name":"TEXAS CHICKEN GOLDEN TRIANGLE DT, PENANG",
    "address":"37-01-01, Ideal Golden Triangle, Jalan Dato\u2019  Ismail Hashim, 11900 Penang .",
    "hours":"Opening Daily: 24 Hours",
    "features":"Delivery, Drive-Thru, Breakfast, 24 Hours",
    "maps_url":"https:\/\/goo.gl\/maps\/FuU4ZTnUv6KPAhqM6",
    "pickup_url":null
  },
  {
    "name":"TEXAS CHICKEN BENTONG, PAHANG",
    "address":"P10-g, P10-1 & P11-G, Jalan Prima 1, Taman  Bentong Prima, 28700 Bentong, Pahang",
    "hours":"Opening Daily: 10am \u2013 11pm",
    "features":"Delivery, Breakfast",
    "maps_url":"https:\/\/goo.gl\/maps\/Sy8N4NPTRJavtxUZ6",
    "pickup_url":null
  },
  {
    "name":"TEXAS CHICKEN LOTUS SETIA ALAM",
    "address":"LOT NO. G17, NO.2 JALAN SETIA PRIMA U13\/S, SETIA ALAM,   40170 SELANGOR",
    "hours":"Opening Daily: 10.00am - 10.00pm",
    "features":"Delivery, Mall",
    "maps_url":"https:\/\/goo.gl\/maps\/mebCa6P5jQe3EZa28",
    "pickup_url":null
  },
  {
    "name":"TEXAS CHICKEN TUNJONG DT, KELANTAN",
    "address":"PT 1680 (LOT 2171), JALAN KUALA KRAI, TUNJONG, 16100, KOTA BHARU, KELANTAN.",
    "hours":"Opening Daily: 24 Hours",
    "features":"Delivery, Drive-Thru, Breakfast",
    "maps_url":"https:\/\/goo.gl\/maps\/Wz2jpgZmx4PcKuHz9",
    "pickup_url":null
  },
  {
    "name":"TEXAS CHICKEN CALTEX KAPAR DT",
    "address":"PT 1714, Batu 13 \u00bd , Jalan Kapar \/ KU 14, Pekan Kapar, 42200 Kapar, Selangor",
    "hours":"Opening Daily: 24 Hours",
    "features":"Drive-Thru",
    "maps_url":"https:\/\/maps.app.goo.gl\/9mt1hJ15mrAZDCNg8",
    "pickup_url":null
  },
  {
    "name":"TEXAS CHICKEN KANGAR JAYA DT",
    "address":"Lot PT 2188, Mukim Seriab",
    "hours":"Opening Daily: 10.00am - 11.00pm",
    "features":"Delivery, Drive-Thru",
    "maps_url":"https:\/\/maps.app.goo.gl\/yxtQAe3kTo2aYxf38",
    "pickup_url":null
  },
  {
    "name":"TEXAS CHICKEN AMANJAYA DT, SUNGAI PETANI",
    "address":"BLOCK F, PUSAT PERNIAGAAN AMANJAYA, PT 60651, Jalan Jati 1\/1, Amanjaya, 08000 Sungai Petani, Kedah",
    "hours":"Opening Daily: 24 Hours",
    "features":"Breakfast, Drive-Thru",
    "maps_url":"https:\/\/maps.app.goo.gl\/MwsNgnkvzWprSNty5",
    "pickup_url":null
  },
  {
    "name":"TEXAS CHICKEN KAMUNTING DRIVE-THRU, TAIPING",
    "address":"No. 1B, Persiaran Kamunting 2, Jalan Kamunting, 34600 Kamunting, Perak Coordinates : 4.885470 100.730140",
    "hours":"Opening Daily: 24 Hours",
    "features":"Drive-Thru",
    "maps_url":"https:\/\/maps.app.goo.gl\/R45uXQopNP5jg9G57",
    "pickup_url":null
  },
  {
    "name":"TEXAS CHICKEN BERJAYA TIMES SQUARE",
    "address":"Lot No. LG-73, LG-74, LG-74A & LG-74B, Lower Ground Floor, Berjaya Times Square, No.1, Jalan Imbi, 55100 Kuala Lumpur.",
    "hours":"Opening Daily: 10.00am - 10.00pm",
    "features":"Mall",
    "maps_url":"javascript:void(0);",
    "pickup_url":null
  },
  {
    "name":"TEXAS CHICKEN SELAYANG 168 PARK",
    "address":"168 Park Selayang, LG-09, 168 Residensi Selayang, KM12, Jalan Ipoh \u2013 Rawang, 68100 Batu Caves, Selangor Darul Ehsan",
    "hours":null,
    "features":"Delivery, Drive-Thru, Breakfast",
    "maps_url":"https:\/\/www.google.com\/maps\/dir\/\/168+selayang+texas+chicken\/data=!4m6!4m5!1m1!4e2!1m2!1m1!1s0x31cc47",
    "pickup_url":null
  },
  {
    "name":"TEXAS CHICKEN AEON BUKIT MERTAJAM",
    "address":"Lot G09, Ground Floor, Aeon Mall Bukit Mertajam, Lot No. 30908, Jalan Rozhan Alma, Seberang Perai Tengah, 14000 Bukit Mertajam, Pulau Pinang",
    "hours":null,
    "features":"Delivery, Breakfast",
    "maps_url":"https:\/\/www.google.cm\/maps\/dir\/\/Texas+Chicken+AEON+Mall+Bukit+Mertajam,+Lot+G09,+Ground+Floor,+Aeon+",
    "pickup_url":null
  },
  {
    "name":"TEXAS CHICKEN CALTEX PRESINT 14 DRIVE-THRU, PUTRAJAYA",
    "address":"5, Jalan P14, Presint 14, 62050 Putrajaya, Wilayah Persekutuan Putrajaya",
    "hours":"Opening Daily:  24 hours",
    "features":"Drive-Thru, Breakfast",
    "maps_url":"https:\/\/www.google.com\/maps\/dir\/\/Texas+Chicken+Caltex+Presint+14+Drive-Thru,+Putrajaya,+5,+Jalan+P14",
    "pickup_url":null
  },
  {
    "name":"TEXAS CHICKEN CALTEX JITRA",
    "address":"Lot 131, Jalan Bandar Darul Aman - Jitra, Bandar, Bandar Darul Aman, 06000 Jitra, Kedah",
    "hours":"Opening Daily: 24 Hours",
    "features":"Delivery",
    "maps_url":"https:\/\/maps.app.goo.gl\/HrAFCGY2smS1BQ9b7",
    "pickup_url":null
  },
  {
    "name":"TEXAS CHICKEN AEON MALL SERI MANJUNG",
    "address":"Lot G62 & G63, Ground Floor, AEON Seri Manjung Shopping Centre, Pusat Perniagaan Manjung Point 3, 32040 Seri Manjung, Perak",
    "hours":"Opening Daily: 10.00am - 10.00pm",
    "features":"Mall, Delivery",
    "maps_url":"https:\/\/maps.app.goo.gl\/Qw5uwrzSPseag1hu9",
    "pickup_url":"https:\/\/texaschickenmalaysia.placeorder.my\/#?outletid=3211be35371e402aa4ef7dcfedf8b75f"
  },
  {
    "name":"TEXAS CHICKEN ARA DAMANSARA DT",
    "address":"16, Jalan PJU 1A\/42A, Ara Damansara, 47301 Petaling Jaya, Selangor",
    "hours":"Opening Daily: 24 Hours",
    "features":"Delivery, Drive-Thru, 24 Hours",
    "maps_url":"https:\/\/maps.app.goo.gl\/zNwnk2mM6yvy5aLq7",
    "pickup_url":null
  },
  {
    "name":"TEXAS CHICKEN TANAH MERAH",
    "address":"Lot 10010 & 10011, Jalan Ismail Petra, Tanah Merah, 17500 Kelantan",
    "hours":"Opening Daily: 24 Hours",
    "features":"Delivery, Drive-Thru, 24 Hours",
    "maps_url":"https:\/\/maps.app.goo.gl\/Yqw5Fr4HfcXf5AgP9",
    "pickup_url":null
  },
  {
    "name":"TEXAS CHICKEN SETIA TROPIKA",
    "address":"Lot GF-01, Ground Floor, Tropika Welcome Centre, No. 10, Jalan Setia Tropika 1\/21, Taman Setia Tropika, 81200 Kempas, Johor Bahru, Johor Darul Takzim.",
    "hours":"Opening Daily: 10:00am - 10:00pm",
    "features":"Delivery, Drive-Thru",
    "maps_url":"https:\/\/maps.app.goo.gl\/eahwzgJMiLv2euhA7",
    "pickup_url":null
  }
]