[
  {
    "country":"MY",
    "parent_chain":"The Chicken Rice Shop",
    "chain":"The Chicken Rice Shop",
    "state":"Johor",
    "store_name":"TCRS AEON Mall Tebrau City",
    "address":"The Chicken Rice Shop, Lot S49, 2nd Floor, Jusco Tebrau City Shopping Centre, No. 1, Jalan Desa Tebrau, Taman Desa Tebrau, 81100 Johor Bahru, Johor",
    "phone":"call",
    "latitude":null,
    "longitude":null,
    "source":"https:\/\/order.thechickenriceshop.com\/store-locations",
    "scraped_at":"2025-12-21T15:25:14.830638+00:00"
  },
  {
    "country":"MY",
    "parent_chain":"The Chicken Rice Shop",
    "chain":"The Chicken Rice Shop",
    "state":"Johor",
    "store_name":"TCRS Paradigm Mall Johor Bahru",
    "address":"The Chicken Rice Shop, Lot 4F-35, Fourth Floor Paradigm Mall Johor Bharu No. 76, Jalan Mewah Ria 2\/2, Taman Bukit Mewah, 81200 Johor Bahru, Johor",
    "phone":"call",
    "latitude":null,
    "longitude":null,
    "source":"https:\/\/order.thechickenriceshop.com\/store-locations",
    "scraped_at":"2025-12-21T15:25:14.830888+00:00"
  },
  {
    "country":"MY",
    "parent_chain":"The Chicken Rice Shop",
    "chain":"The Chicken Rice Shop",
    "state":"Johor",
    "store_name":"TCRS The Mall, Mid Valley Southkey",
    "address":"The Chicken Rice Shop, LG-024, The Mall Mid Valley Southkey No 1, Persiaran Southkey 1, 80150 Johor Bahru, Johor",
    "phone":"call",
    "latitude":null,
    "longitude":null,
    "source":"https:\/\/order.thechickenriceshop.com\/store-locations",
    "scraped_at":"2025-12-21T15:25:14.831095+00:00"
  },
  {
    "country":"MY",
    "parent_chain":"The Chicken Rice Shop",
    "chain":"The Chicken Rice Shop",
    "state":"Johor",
    "store_name":"TCRS JB City Square",
    "address":"The Chicken Rice Shop, Lot No. J2-14 &15, Level 2, Johor Bahru City Square, 106-108 Jalan Wong Ah Fook, 80000 Johor Bahru, Johor",
    "phone":"call",
    "latitude":null,
    "longitude":null,
    "source":"https:\/\/order.thechickenriceshop.com\/store-locations",
    "scraped_at":"2025-12-21T15:25:14.831299+00:00"
  },
  {
    "country":"MY",
    "parent_chain":"The Chicken Rice Shop",
    "chain":"The Chicken Rice Shop",
    "state":"Johor",
    "store_name":"TCRS AEON Mall Bandar Dato' Onn",
    "address":"The Chicken Rice Shop, Lot S09, Second Floor AEON Mall Bandar Datoâ€™ Onn No. 3, Jalan Dato' Onn 3, Bandar Dato' Onn, 81100 Johor Bahru, Johor",
    "phone":"call",
    "latitude":null,
    "longitude":null,
    "source":"https:\/\/order.thechickenriceshop.com\/store-locations",
    "scraped_at":"2025-12-21T15:25:14.831510+00:00"
  },
  {
    "country":"MY",
    "parent_chain":"The Chicken Rice Shop",
    "chain":"The Chicken Rice Shop",
    "state":"Johor",
    "store_name":"TCRS Kluang Mall",
    "address":"The Chicken Rice Shop, Lot G-15, Ground Floor, Kluang Mall, Jalan Rambutan, 86000 Kluang, Johor",
    "phone":"call",
    "latitude":null,
    "longitude":null,
    "source":"https:\/\/order.thechickenriceshop.com\/store-locations",
    "scraped_at":"2025-12-21T15:25:14.831714+00:00"
  },
  {
    "country":"MY",
    "parent_chain":"The Chicken Rice Shop",
    "chain":"The Chicken Rice Shop",
    "state":"Johor",
    "store_name":"TCRS AEON Mall Kulaijaya",
    "address":"The Chicken Rice Shop, Lot G73, Ground Floor, Aeon Mall Kulaijaya, Persiaran Indahpura Utama, Bandar Indahpura, 81000 Kulaijaya, Johor",
    "phone":"call",
    "latitude":null,
    "longitude":null,
    "source":"https:\/\/order.thechickenriceshop.com\/store-locations",
    "scraped_at":"2025-12-21T15:25:14.831921+00:00"
  },
  {
    "country":"MY",
    "parent_chain":"The Chicken Rice Shop",
    "chain":"The Chicken Rice Shop",
    "state":"Johor",
    "store_name":"TCRS TF Value Mart Muar",
    "address":"The Chicken Rice Shop, Lot No. FB 1, TF-Value Mart, No. 2, Jalan Perniagaan Jaya 3 Pusat Perniagaan Mas Jaya Jalan Salleh, 84000 Muar, Johor",
    "phone":"call",
    "latitude":null,
    "longitude":null,
    "source":"https:\/\/order.thechickenriceshop.com\/store-locations",
    "scraped_at":"2025-12-21T15:25:14.832122+00:00"
  },
  {
    "country":"MY",
    "parent_chain":"The Chicken Rice Shop",
    "chain":"The Chicken Rice Shop",
    "state":"Johor",
    "store_name":"TCRS Batu Pahat Mall",
    "address":"The Chicken Rice Shop, Lot G75, Ground Floor, Batu Pahat Mall, Lot 2566, Jalan Kluang, 83000 Batu Pahat, Johor",
    "phone":"call",
    "latitude":null,
    "longitude":null,
    "source":"https:\/\/order.thechickenriceshop.com\/store-locations",
    "scraped_at":"2025-12-21T15:25:14.832323+00:00"
  },
  {
    "country":"MY",
    "parent_chain":"The Chicken Rice Shop",
    "chain":"The Chicken Rice Shop",
    "state":"Johor",
    "store_name":"TCRS Segamat Central Shopping Centre",
    "address":"The Chicken Rice Shop, Lot G39-41, Ground Floor Segamat Central Shopping Centre Jalan Kolam Air, 85000 Segamat, Johor",
    "phone":"call",
    "latitude":null,
    "longitude":null,
    "source":"https:\/\/order.thechickenriceshop.com\/store-locations",
    "scraped_at":"2025-12-21T15:25:14.832531+00:00"
  },
  {
    "country":"MY",
    "parent_chain":"The Chicken Rice Shop",
    "chain":"The Chicken Rice Shop",
    "state":"Johor",
    "store_name":"TCRS Johor Premium Outlets",
    "address":"The Chicken Rice Shop, Lot 504, First Floor, Johor Premium Outlets, Jalan Premium Outlets, Bandar Indahpura, 81000 Kulai, Johor",
    "phone":"call",
    "latitude":null,
    "longitude":null,
    "source":"https:\/\/order.thechickenriceshop.com\/store-locations",
    "scraped_at":"2025-12-21T15:25:14.832736+00:00"
  },
  {
    "country":"MY",
    "parent_chain":"The Chicken Rice Shop",
    "chain":"The Chicken Rice Shop",
    "state":"Johor",
    "store_name":"TCRS Mydin Hypermarket Pelangi Indah",
    "address":"The Chicken Rice Shop, G10 & G11, Ground Floor, Pasar Raya Besar Mydin Pelangi Indah, PTD 120470 Persiaran Pelangi Indah, Taman Pelangi Indah, 81800 Ulu Tiram, Johor",
    "phone":"call",
    "latitude":null,
    "longitude":null,
    "source":"https:\/\/order.thechickenriceshop.com\/store-locations",
    "scraped_at":"2025-12-21T15:25:14.832936+00:00"
  },
  {
    "country":"MY",
    "parent_chain":"The Chicken Rice Shop",
    "chain":"The Chicken Rice Shop",
    "state":"Johor",
    "store_name":"TCRS Pontian",
    "address":"The Chicken Rice Shop, Lot No. 49-G, Jalan Emas 2, Pusat Perniagaan Kota Emas, 82000 Pontian, Johor",
    "phone":"call",
    "latitude":null,
    "longitude":null,
    "source":"https:\/\/order.thechickenriceshop.com\/store-locations",
    "scraped_at":"2025-12-21T15:25:14.833137+00:00"
  },
  {
    "country":"MY",
    "parent_chain":"The Chicken Rice Shop",
    "chain":"The Chicken Rice Shop",
    "state":"Johor",
    "store_name":"TCRS KIP Mall Masai",
    "address":"The Chicken Rice Shop, NC002 & NC003, Kip Mall Masai, Jalan Persiaran Dahlia 2, Taman Bukit Dahlia, 81700 Masai, Johor",
    "phone":"call",
    "latitude":null,
    "longitude":null,
    "source":"https:\/\/order.thechickenriceshop.com\/store-locations",
    "scraped_at":"2025-12-21T15:25:14.833338+00:00"
  },
  {
    "country":"MY",
    "parent_chain":"The Chicken Rice Shop",
    "chain":"The Chicken Rice Shop",
    "state":"Johor",
    "store_name":"TCRS KIP Mall Kota Tinggi",
    "address":"The Chicken Rice Shop, Lot FC003, S80, S81-S82, KIPMall Kota Tinggi, Jalan Maju, Taman Mawai Jaya, 81900 Kota Tinggi, Johor",
    "phone":"call",
    "latitude":null,
    "longitude":null,
    "source":"https:\/\/order.thechickenriceshop.com\/store-locations",
    "scraped_at":"2025-12-21T15:25:14.833541+00:00"
  },
  {
    "country":"MY",
    "parent_chain":"The Chicken Rice Shop",
    "chain":"The Chicken Rice Shop",
    "state":"Johor",
    "store_name":"TCRS Toppen, JB",
    "address":"Lot No. L2. 102 & L2.103 Level 2, Toppen Shopping Centre, No. 33a, Jalan Harmonium, Taman Desa Tebrau, 81100 Johor Bahru, Johor",
    "phone":"call",
    "latitude":null,
    "longitude":null,
    "source":"https:\/\/order.thechickenriceshop.com\/store-locations",
    "scraped_at":"2025-12-21T15:25:14.833739+00:00"
  },
  {
    "country":"MY",
    "parent_chain":"The Chicken Rice Shop",
    "chain":"The Chicken Rice Shop",
    "state":"Johor",
    "store_name":"TCRS Lotus's Parit Raja",
    "address":"The Chicken Rice Shop, Lot No. L4, Ground Floor, Lotus's Parit Raja, 1, Jalan Universiti, Taman Universiti, 86400 Parit Raja, Johor",
    "phone":"call",
    "latitude":null,
    "longitude":null,
    "source":"https:\/\/order.thechickenriceshop.com\/store-locations",
    "scraped_at":"2025-12-21T15:25:14.833940+00:00"
  },
  {
    "country":"MY",
    "parent_chain":"The Chicken Rice Shop",
    "chain":"The Chicken Rice Shop",
    "state":"Johor",
    "store_name":"TCRS IOI Kulai",
    "address":"The Chicken Rice Shop, Lot No. G-29\/30\/30a\/G-K-15, Ground Floor, IOI Mall, Lebuh Putra utama Bandar Putra, 85000 Kulai, Johor",
    "phone":"call",
    "latitude":null,
    "longitude":null,
    "source":"https:\/\/order.thechickenriceshop.com\/store-locations",
    "scraped_at":"2025-12-21T15:25:14.834141+00:00"
  },
  {
    "country":"MY",
    "parent_chain":"The Chicken Rice Shop",
    "chain":"The Chicken Rice Shop",
    "state":"Johor",
    "store_name":"TCRS Sunway Big Box",
    "address":"The Chicken Rice Shop, Lot No. G-L-16, Ground Floor Pusat Komersial Sunway Marketplace, Persiaran Medini 6, Sunway Iskandar Bandar Medini Iskandar, 79250 Nusajaya, Johor",
    "phone":"call",
    "latitude":null,
    "longitude":null,
    "source":"https:\/\/order.thechickenriceshop.com\/store-locations",
    "scraped_at":"2025-12-21T15:25:14.834343+00:00"
  },
  {
    "country":"MY",
    "parent_chain":"The Chicken Rice Shop",
    "chain":"The Chicken Rice Shop",
    "state":"Johor",
    "store_name":"TCRS AEON Bukit Indah",
    "address":"The Chicken Rice Shop, Lot F17, First Floor, Aeon Bukit Indah Shopping Centre, No 8, Jalan Indah 15\/2, Bukit Indah, 81200 Johor Bahru, Johor",
    "phone":"call",
    "latitude":null,
    "longitude":null,
    "source":"https:\/\/order.thechickenriceshop.com\/store-locations",
    "scraped_at":"2025-12-21T15:25:14.834545+00:00"
  },
  {
    "country":"MY",
    "parent_chain":"The Chicken Rice Shop",
    "chain":"The Chicken Rice Shop",
    "state":"Kedah",
    "store_name":"TCRS Aman Central",
    "address":"The Chicken Rice Shop, Lot LG-13 & LG-13A Lower Ground Floor, Aman Central Mall, No 1, Lebuhraya Darul Aman, 05100 Alor Setar, Kedah",
    "phone":"call",
    "latitude":null,
    "longitude":null,
    "source":"https:\/\/order.thechickenriceshop.com\/store-locations",
    "scraped_at":"2025-12-21T15:25:14.835422+00:00"
  },
  {
    "country":"MY",
    "parent_chain":"The Chicken Rice Shop",
    "chain":"The Chicken Rice Shop",
    "state":"Kedah",
    "store_name":"TCRS C-Mart Jitra",
    "address":"The Chicken Rice Shop, G35, No.21, Jalan Industri Darulaman 1, Kawasan Perindustrian Bandar Darulaman, 06000 Jitra, Kedah",
    "phone":"call",
    "latitude":null,
    "longitude":null,
    "source":"https:\/\/order.thechickenriceshop.com\/store-locations",
    "scraped_at":"2025-12-21T15:25:14.835631+00:00"
  },
  {
    "country":"MY",
    "parent_chain":"The Chicken Rice Shop",
    "chain":"The Chicken Rice Shop",
    "state":"Kedah",
    "store_name":"TCRS C-Mart Serai Wangi",
    "address":"The Chicken Rice Shop, Lot 57 & 58, C Mart Serai Wangi, No 2500, Lorong Serai Wangi, 4\/10 Taman Serai Wangi III & IV, 09400 Kulim, Kedah",
    "phone":"call",
    "latitude":null,
    "longitude":null,
    "source":"https:\/\/order.thechickenriceshop.com\/store-locations",
    "scraped_at":"2025-12-21T15:25:14.835829+00:00"
  },
  {
    "country":"MY",
    "parent_chain":"The Chicken Rice Shop",
    "chain":"The Chicken Rice Shop",
    "state":"Kedah",
    "store_name":"TCRS Kulim Landmark Central",
    "address":"The Chicken Rice Shop, GF-36(a)& 37, Ground Floor, Landmark Central Shopping Centre, No. 1, Jalan KLC Satu (1), 09000 Kulim, Kedah",
    "phone":"call",
    "latitude":null,
    "longitude":null,
    "source":"https:\/\/order.thechickenriceshop.com\/store-locations",
    "scraped_at":"2025-12-21T15:25:14.836024+00:00"
  },
  {
    "country":"MY",
    "parent_chain":"The Chicken Rice Shop",
    "chain":"The Chicken Rice Shop",
    "state":"Kedah",
    "store_name":"TCRS Village Mall Sungai Petani",
    "address":"The Chicken Rice Shop, Lot G-29 & G30, Ground Floor, Legenda Village Mall, Jalan Legenda 1, Legenda Heights, 08000 Sungai Petani, Kedah",
    "phone":"call",
    "latitude":null,
    "longitude":null,
    "source":"https:\/\/order.thechickenriceshop.com\/store-locations",
    "scraped_at":"2025-12-21T15:25:14.836221+00:00"
  },
  {
    "country":"MY",
    "parent_chain":"The Chicken Rice Shop",
    "chain":"The Chicken Rice Shop",
    "state":"Kedah",
    "store_name":"TCRS Kompleks BDI Changlun",
    "address":"The Chicken Rice Shop, G10, G11 and G12, Kompleks Changloon, No. 1, Pekan Changlun, 06010 Changlun, Kedah",
    "phone":"call",
    "latitude":null,
    "longitude":null,
    "source":"https:\/\/order.thechickenriceshop.com\/store-locations",
    "scraped_at":"2025-12-21T15:25:14.836419+00:00"
  },
  {
    "country":"MY",
    "parent_chain":"The Chicken Rice Shop",
    "chain":"The Chicken Rice Shop",
    "state":"Kedah",
    "store_name":"TCRS Amanjaya Mall",
    "address":"The Chicken Rice Shop, Lot 15, Ground Floor, Amanjaya Mall, No. 1, Jalan Jati 1, 08000 Sungai Petani, Kedah",
    "phone":"call",
    "latitude":null,
    "longitude":null,
    "source":"https:\/\/order.thechickenriceshop.com\/store-locations",
    "scraped_at":"2025-12-21T15:25:14.836623+00:00"
  },
  {
    "country":"MY",
    "parent_chain":"The Chicken Rice Shop",
    "chain":"The Chicken Rice Shop",
    "state":"Kedah",
    "store_name":"TCRS Alor Star Mall",
    "address":"The Chicken Rice Shop, Lot G15, Ground Floor, Alor Star Mall, Kawasan Perusahaan Tandop Baru, 05400 Alor Setar, Kedah",
    "phone":"call",
    "latitude":null,
    "longitude":null,
    "source":"https:\/\/order.thechickenriceshop.com\/store-locations",
    "scraped_at":"2025-12-21T15:25:14.836819+00:00"
  },
  {
    "country":"MY",
    "parent_chain":"The Chicken Rice Shop",
    "chain":"The Chicken Rice Shop",
    "state":"Kelantan",
    "store_name":"TCRS Lotus's Kota Bharu",
    "address":"The Chicken Rice Shop, Lot No. G7, Ground Floor, Lotus's Kota Bharu, Lot 1828, Seksyen 17, Bandar Kota Bahru, 15050 Kota Bharu, Kelantan",
    "phone":"call",
    "latitude":null,
    "longitude":null,
    "source":"https:\/\/order.thechickenriceshop.com\/store-locations",
    "scraped_at":"2025-12-21T15:25:14.837548+00:00"
  },
  {
    "country":"MY",
    "parent_chain":"The Chicken Rice Shop",
    "chain":"The Chicken Rice Shop",
    "state":"Kelantan",
    "store_name":"TCRS Gua Musang",
    "address":"The Chicken Rice Shop, Lot 9 &10, G-Orange Gua Musang,Lot 13200 Jalan Chengal, 18300 Gua Musang, Kelantan",
    "phone":"call",
    "latitude":null,
    "longitude":null,
    "source":"https:\/\/order.thechickenriceshop.com\/store-locations",
    "scraped_at":"2025-12-21T15:25:14.837745+00:00"
  },
  {
    "country":"MY",
    "parent_chain":"The Chicken Rice Shop",
    "chain":"The Chicken Rice Shop",
    "state":"Kelantan",
    "store_name":"TCRS KB Mall, Kota Bahru",
    "address":"The Chicken Rice Shop, Lot G28 & G29, Ground Floor, KB Mall, Jalan Hamzah, 15050 Kota Bharu, Kelantan",
    "phone":"call",
    "latitude":null,
    "longitude":null,
    "source":"https:\/\/order.thechickenriceshop.com\/store-locations",
    "scraped_at":"2025-12-21T15:25:14.837945+00:00"
  },
  {
    "country":"MY",
    "parent_chain":"The Chicken Rice Shop",
    "chain":"The Chicken Rice Shop",
    "state":"Kelantan",
    "store_name":"TCRS G-Orange Tunjung",
    "address":"The Chicken Rice Shop, GF-2, G-Orange Mall, Lot 2138, Wisma G-Orange, Tunjung, Batu 4 1\/2, Jalan Kuala Krai, 15050 Kota Bharu, Kelantan",
    "phone":"call",
    "latitude":null,
    "longitude":null,
    "source":"https:\/\/order.thechickenriceshop.com\/store-locations",
    "scraped_at":"2025-12-21T15:25:14.838143+00:00"
  },
  {
    "country":"MY",
    "parent_chain":"The Chicken Rice Shop",
    "chain":"The Chicken Rice Shop",
    "state":"Kelantan",
    "store_name":"TCRS Tanah Merah",
    "address":"The Chicken Rice Shop, No.94, Jalan Taman Hiburan, 17500 Tanah Merah, Kelantan",
    "phone":"call",
    "latitude":null,
    "longitude":null,
    "source":"https:\/\/order.thechickenriceshop.com\/store-locations",
    "scraped_at":"2025-12-21T15:25:14.838338+00:00"
  },
  {
    "country":"MY",
    "parent_chain":"The Chicken Rice Shop",
    "chain":"The Chicken Rice Shop",
    "state":"Kelantan",
    "store_name":"TCRS AEON Kota Bharu",
    "address":"The Chicken Rice Shop, Lot S43, Second Floor, Aeon Mall Kota Bharu, Kampung Sireh, Jalan Jambatan, Sultan Yahya Petra, 15050 Kota Bharu, Kelantan",
    "phone":"call",
    "latitude":null,
    "longitude":null,
    "source":"https:\/\/order.thechickenriceshop.com\/store-locations",
    "scraped_at":"2025-12-21T15:25:14.838564+00:00"
  },
  {
    "country":"MY",
    "parent_chain":"The Chicken Rice Shop",
    "chain":"The Chicken Rice Shop",
    "state":"Kuala Lumpur",
    "store_name":"TCRS AEON Mall Taman Maluri",
    "address":"The Chicken Rice Shop, Lot F11, First Floor, Aeon Mall Taman Maluri, Jalan Jejaka, Taman Maluri, Cheras, 55100 Kuala Lumpur, Kuala Lumpur",
    "phone":"call",
    "latitude":null,
    "longitude":null,
    "source":"https:\/\/order.thechickenriceshop.com\/store-locations",
    "scraped_at":"2025-12-21T15:25:14.840971+00:00"
  },
  {
    "country":"MY",
    "parent_chain":"The Chicken Rice Shop",
    "chain":"The Chicken Rice Shop",
    "state":"Kuala Lumpur",
    "store_name":"TCRS KL SOGO",
    "address":"The Chicken Rice Shop, L6-R7 & L6-R7A, Level 6, Sogo (KL) Department Store, Kompleks SOGO, 190, Jalan Tuanku Abdul Rahman, 50100 Kuala Lumpur, Kuala Lumpur",
    "phone":"call",
    "latitude":null,
    "longitude":null,
    "source":"https:\/\/order.thechickenriceshop.com\/store-locations",
    "scraped_at":"2025-12-21T15:25:14.841170+00:00"
  },
  {
    "country":"MY",
    "parent_chain":"The Chicken Rice Shop",
    "chain":"The Chicken Rice Shop",
    "state":"Kuala Lumpur",
    "store_name":"TCRS Melawati Mall",
    "address":"The Chicken Rice Shop, Lot L3-10 & L3-11, Third Floor Melawati Mall, Jalan Sabah, Taman Melawati, 53100 Kuala Lumpur, Kuala Lumpur",
    "phone":"call",
    "latitude":null,
    "longitude":null,
    "source":"https:\/\/order.thechickenriceshop.com\/store-locations",
    "scraped_at":"2025-12-21T15:25:14.841368+00:00"
  },
  {
    "country":"MY",
    "parent_chain":"The Chicken Rice Shop",
    "chain":"The Chicken Rice Shop",
    "state":"Kuala Lumpur",
    "store_name":"TCRS Wangsa Walk Mall",
    "address":"The Chicken Rice Shop, Lot G-51 Ground Floor, Wangsa Walk Mall, Wangsa Avenue, No 9 Jalan Wangsa Perdana 1, Bandar Wangsa Maju, 53300 Kuala Lumpur, Kuala Lumpur",
    "phone":"call",
    "latitude":null,
    "longitude":null,
    "source":"https:\/\/order.thechickenriceshop.com\/store-locations",
    "scraped_at":"2025-12-21T15:25:14.841573+00:00"
  },
  {
    "country":"MY",
    "parent_chain":"The Chicken Rice Shop",
    "chain":"The Chicken Rice Shop",
    "state":"Kuala Lumpur",
    "store_name":"TCRS Sunway Putra Mall",
    "address":"The Chicken Rice Shop, LG-23, Lower Ground Two, Sunway Putra Mall, 100, Jalan Putra, 50350 Kuala Lumpur, Kuala Lumpur",
    "phone":"call",
    "latitude":null,
    "longitude":null,
    "source":"https:\/\/order.thechickenriceshop.com\/store-locations",
    "scraped_at":"2025-12-21T15:25:14.841774+00:00"
  },
  {
    "country":"MY",
    "parent_chain":"The Chicken Rice Shop",
    "chain":"The Chicken Rice Shop",
    "state":"Kuala Lumpur",
    "store_name":"TCRS Nu Sentral Mall",
    "address":"The Chicken Rice Shop, L4.16 & L4.17, Level 4, Nu Sentral, Jalan Tun Sambanthan, 50470 Kuala Lumpur, Kuala Lumpur",
    "phone":"call",
    "latitude":null,
    "longitude":null,
    "source":"https:\/\/order.thechickenriceshop.com\/store-locations",
    "scraped_at":"2025-12-21T15:25:14.841973+00:00"
  },
  {
    "country":"MY",
    "parent_chain":"The Chicken Rice Shop",
    "chain":"The Chicken Rice Shop",
    "state":"Kuala Lumpur",
    "store_name":"TCRS AEON AU2",
    "address":"The Chicken Rice Shop, Lot G57, Ground Floor, AEON AU2 Shopping Centre, No 6 Jalan Taman Setiawangsa (Jalan 37\/56), AU2, 54200 Kuala Lumpur, Kuala Lumpur",
    "phone":"call",
    "latitude":null,
    "longitude":null,
    "source":"https:\/\/order.thechickenriceshop.com\/store-locations",
    "scraped_at":"2025-12-21T15:25:14.842173+00:00"
  },
  {
    "country":"MY",
    "parent_chain":"The Chicken Rice Shop",
    "chain":"The Chicken Rice Shop",
    "state":"Kuala Lumpur",
    "store_name":"TCRS Berjaya Times Square",
    "address":"The Chicken Rice Shop, Lot 03-98A, 3rd Floor, Berjaya Times Square, No. 1 Jalan Imbi, 55100 Kuala Lumpur, Kuala Lumpur",
    "phone":"call",
    "latitude":null,
    "longitude":null,
    "source":"https:\/\/order.thechickenriceshop.com\/store-locations",
    "scraped_at":"2025-12-21T15:25:14.842370+00:00"
  },
  {
    "country":"MY",
    "parent_chain":"The Chicken Rice Shop",
    "chain":"The Chicken Rice Shop",
    "state":"Kuala Lumpur",
    "store_name":"TCRS MyTOWN",
    "address":"The Chicken Rice Shop, Lot B1-026, Basement 1, MyTOWN Shopping Centre, Jalan Cochrane, Taman Maluri, 55100 Kuala Lumpur, Kuala Lumpur",
    "phone":"call",
    "latitude":null,
    "longitude":null,
    "source":"https:\/\/order.thechickenriceshop.com\/store-locations",
    "scraped_at":"2025-12-21T15:25:14.842574+00:00"
  },
  {
    "country":"MY",
    "parent_chain":"The Chicken Rice Shop",
    "chain":"The Chicken Rice Shop",
    "state":"Kuala Lumpur",
    "store_name":"TCRS Great Eastern Mall",
    "address":"The Chicken Rice Shop, Lot 14, 15 & 16, Level 3, Great Eastern Mall, 303 Jalan Ampang, 50450 Kuala Lumpur, Kuala Lumpur",
    "phone":"call",
    "latitude":null,
    "longitude":null,
    "source":"https:\/\/order.thechickenriceshop.com\/store-locations",
    "scraped_at":"2025-12-21T15:25:14.842773+00:00"
  },
  {
    "country":"MY",
    "parent_chain":"The Chicken Rice Shop",
    "chain":"The Chicken Rice Shop",
    "state":"Kuala Lumpur",
    "store_name":"TCRS Pavilion Elite, KL",
    "address":"The Chicken Rice Shop, Lot 1.104.00 & E1.104.0, Level 1 Elite Pavilion Kuala Lumpur, 168, Jalan Bukit Bintang, 55100 Kuala Lumpur, Kuala Lumpur",
    "phone":"call",
    "latitude":null,
    "longitude":null,
    "source":"https:\/\/order.thechickenriceshop.com\/store-locations",
    "scraped_at":"2025-12-21T15:25:14.842972+00:00"
  },
  {
    "country":"MY",
    "parent_chain":"The Chicken Rice Shop",
    "chain":"The Chicken Rice Shop",
    "state":"Kuala Lumpur",
    "store_name":"TCRS KL Gateway Mall",
    "address":"The Chicken Rice Shop, Unit G20 & G21, Ground Floor KL Gateway Shopping Mall No 2, Jalan Kerinchi, Gerbang Kerinchi Lestari, 59200 Kuala Lumpur, Kuala Lumpur",
    "phone":"call",
    "latitude":null,
    "longitude":null,
    "source":"https:\/\/order.thechickenriceshop.com\/store-locations",
    "scraped_at":"2025-12-21T15:25:14.843174+00:00"
  },
  {
    "country":"MY",
    "parent_chain":"The Chicken Rice Shop",
    "chain":"The Chicken Rice Shop",
    "state":"Kuala Lumpur",
    "store_name":"TCRS Pantai Hospital Kuala Lumpur",
    "address":"The Chicken Rice Shop, Retail 1, Ground Floor, Block C, Pantai Hospital KL, No 8 Jalan Bukit Pantai, 59100 Kuala Lumpur, Kuala Lumpur",
    "phone":"call",
    "latitude":null,
    "longitude":null,
    "source":"https:\/\/order.thechickenriceshop.com\/store-locations",
    "scraped_at":"2025-12-21T15:25:14.843374+00:00"
  },
  {
    "country":"MY",
    "parent_chain":"The Chicken Rice Shop",
    "chain":"The Chicken Rice Shop",
    "state":"Kuala Lumpur",
    "store_name":"TCRS Lotus's Extra Cheras",
    "address":"The Chicken Rice Shop, Lot 37, Ground Floor, No. 2, Jalan Midah 2, Taman Midah, 56000 Kuala Lumpur, Kuala Lumpur",
    "phone":"call",
    "latitude":null,
    "longitude":null,
    "source":"https:\/\/order.thechickenriceshop.com\/store-locations",
    "scraped_at":"2025-12-21T15:25:14.843584+00:00"
  },
  {
    "country":"MY",
    "parent_chain":"The Chicken Rice Shop",
    "chain":"The Chicken Rice Shop",
    "state":"Kuala Lumpur",
    "store_name":"TCRS Avenue K",
    "address":"The Chicken Rice Shop, Lot No. L1-19 & SAC-L1-1, Level 1 Avenue K, 156 Jalan Ampang, 50450 Kuala Lumpur, Kuala Lumpur",
    "phone":"call",
    "latitude":null,
    "longitude":null,
    "source":"https:\/\/order.thechickenriceshop.com\/store-locations",
    "scraped_at":"2025-12-21T15:25:14.843785+00:00"
  },
  {
    "country":"MY",
    "parent_chain":"The Chicken Rice Shop",
    "chain":"The Chicken Rice Shop",
    "state":"Kuala Lumpur",
    "store_name":"TCRS Sungei Wang Plaza",
    "address":"The Chicken Rice Shop, Unit No C29-32, Concourse Level Sungei Wang Plaza Lot 6F-11, Jalan Bukit Bintang, 55100 Kuala Lumpur, Kuala Lumpur",
    "phone":"call",
    "latitude":null,
    "longitude":null,
    "source":"https:\/\/order.thechickenriceshop.com\/store-locations",
    "scraped_at":"2025-12-21T15:25:14.843984+00:00"
  },
  {
    "country":"MY",
    "parent_chain":"The Chicken Rice Shop",
    "chain":"The Chicken Rice Shop",
    "state":"Kuala Lumpur",
    "store_name":"TCRS Setapak Central",
    "address":"The Chicken Rice Shop, Lot G-05, Ground Floor, Setapak Central Mall, No 67 Jalan Taman Ibu Kota, Taman Danau Kota, 53300 Setapak, Kuala Lumpur",
    "phone":"call",
    "latitude":null,
    "longitude":null,
    "source":"https:\/\/order.thechickenriceshop.com\/store-locations",
    "scraped_at":"2025-12-21T15:25:14.844187+00:00"
  },
  {
    "country":"MY",
    "parent_chain":"The Chicken Rice Shop",
    "chain":"The Chicken Rice Shop",
    "state":"Kuala Lumpur",
    "store_name":"TCRS AEON Alpha Angle",
    "address":"The Chicken Rice Shop, Lot G12B, Ground Floor AEON Alpha Angle Shopping Centre, Jalan R1, Seksyen 1, 53300 Wangsa Maju, Kuala Lumpur",
    "phone":"call",
    "latitude":null,
    "longitude":null,
    "source":"https:\/\/order.thechickenriceshop.com\/store-locations",
    "scraped_at":"2025-12-21T15:25:14.844388+00:00"
  },
  {
    "country":"MY",
    "parent_chain":"The Chicken Rice Shop",
    "chain":"The Chicken Rice Shop",
    "state":"Kuala Lumpur",
    "store_name":"TCRS Sunway Velocity Mall",
    "address":"The Chicken Rice Shop, Unit No. B23, Basement One, Sunway Velocity Mall, Lingkaran SV, Sunway Velocit, 55100 Kuala Lumpur, Kuala Lumpur",
    "phone":"call",
    "latitude":null,
    "longitude":null,
    "source":"https:\/\/order.thechickenriceshop.com\/store-locations",
    "scraped_at":"2025-12-21T15:25:14.844599+00:00"
  },
  {
    "country":"MY",
    "parent_chain":"The Chicken Rice Shop",
    "chain":"The Chicken Rice Shop",
    "state":"Kuala Lumpur",
    "store_name":"TCRS AEON Big Wangsa Maju",
    "address":"Lot F1-61, First Floor, Aeon Big Shopping Centre Wangsa Maju, No 6 Jalan 8\/27A, Seksyen 5, Wangsa Maju, 53300 Wangsa Maju, Kuala Lumpur",
    "phone":"call",
    "latitude":null,
    "longitude":null,
    "source":"https:\/\/order.thechickenriceshop.com\/store-locations",
    "scraped_at":"2025-12-21T15:25:14.844799+00:00"
  },
  {
    "country":"MY",
    "parent_chain":"The Chicken Rice Shop",
    "chain":"The Chicken Rice Shop",
    "state":"Kuala Lumpur",
    "store_name":"TCRS AEON Metro Prima Kepong",
    "address":"Lot F21, 1st Floor AEON Metro Prima Store & Shopping Centre, No. 1, Jalan Metro Prima, 51200 Kuala Lumpur, Kuala Lumpur",
    "phone":"call",
    "latitude":null,
    "longitude":null,
    "source":"https:\/\/order.thechickenriceshop.com\/store-locations",
    "scraped_at":"2025-12-21T15:25:14.845000+00:00"
  },
  {
    "country":"MY",
    "parent_chain":"The Chicken Rice Shop",
    "chain":"The Chicken Rice Shop",
    "state":"Kuala Lumpur",
    "store_name":"TCRS Quill City Mall",
    "address":"LG09 & LG10, Lower Ground Floor, Quill City Mall, No. 1018, Jalan Sultan Ismail, 55100 Kuala Lumpur, Kuala Lumpur",
    "phone":"call",
    "latitude":null,
    "longitude":null,
    "source":"https:\/\/order.thechickenriceshop.com\/store-locations",
    "scraped_at":"2025-12-21T15:25:14.845204+00:00"
  },
  {
    "country":"MY",
    "parent_chain":"The Chicken Rice Shop",
    "chain":"The Chicken Rice Shop",
    "state":"Kuala Lumpur",
    "store_name":"TCRS The Gardens, Mid Valley",
    "address":"Lot LG 213, Lower Ground Floor, The Gardens, Mid Valley City, Lingkaran Syed Putra, 59200 Kuala Lumpur, Kuala Lumpur",
    "phone":"call",
    "latitude":null,
    "longitude":null,
    "source":"https:\/\/order.thechickenriceshop.com\/store-locations",
    "scraped_at":"2025-12-21T15:25:14.845404+00:00"
  },
  {
    "country":"MY",
    "parent_chain":"The Chicken Rice Shop",
    "chain":"The Chicken Rice Shop",
    "state":"Kuala Lumpur",
    "store_name":"TCRS KL East Mall, KL",
    "address":"The Chicken Rice Shop, LG-61, Lower Ground Floor KL East Mall No.823 Jalan Lingkaran Tengah 2, 53100 Kuala Lumpur, Kuala Lumpur",
    "phone":"call",
    "latitude":null,
    "longitude":null,
    "source":"https:\/\/order.thechickenriceshop.com\/store-locations",
    "scraped_at":"2025-12-21T15:25:14.845611+00:00"
  },
  {
    "country":"MY",
    "parent_chain":"The Chicken Rice Shop",
    "chain":"The Chicken Rice Shop",
    "state":"Kuala Lumpur",
    "store_name":"TCRS Pavilion Bukit Jalil",
    "address":"The Chicken Rice Shop, Lot 1.09.00, Level 1, Pavilion Bukit Jalil, No.2, Persiaran Jalil 8, Bandar Bukit Jalil, 57000 Kuala Lumpur, Kuala Lumpur",
    "phone":"call",
    "latitude":null,
    "longitude":null,
    "source":"https:\/\/order.thechickenriceshop.com\/store-locations",
    "scraped_at":"2025-12-21T15:25:14.845807+00:00"
  },
  {
    "country":"MY",
    "parent_chain":"The Chicken Rice Shop",
    "chain":"The Chicken Rice Shop",
    "state":"Kuala Lumpur",
    "store_name":"TCRS LaLaport Mitsui",
    "address":"The Chicken Rice Shop, Unit No. LG1-R-02, Lower Ground Floor, Mitsui Shopping Park LaLaport Bukit Bintang City Centre, No. 2 Jalan Hang Tuah, 55100 Kuala Lumpur, Kuala Lumpur",
    "phone":"call",
    "latitude":null,
    "longitude":null,
    "source":"https:\/\/order.thechickenriceshop.com\/store-locations",
    "scraped_at":"2025-12-21T15:25:14.846002+00:00"
  },
  {
    "country":"MY",
    "parent_chain":"The Chicken Rice Shop",
    "chain":"The Chicken Rice Shop",
    "state":"Kuala Lumpur",
    "store_name":"TCRS Datum Jelatek, Ampang",
    "address":"The Chicken Rice Shop, Lot LG-03A & LG-AL-03A, Lower Ground Floor, Datum Jelatek Shopping Centre, Datum Jelatek, Jalan Jelatek, 54200 Kuala Lumpur, Kuala Lumpur",
    "phone":"call",
    "latitude":null,
    "longitude":null,
    "source":"https:\/\/order.thechickenriceshop.com\/store-locations",
    "scraped_at":"2025-12-21T15:25:14.846202+00:00"
  },
  {
    "country":"MY",
    "parent_chain":"The Chicken Rice Shop",
    "chain":"The Chicken Rice Shop",
    "state":"Melaka",
    "store_name":"TCRS Kip Mall Melaka",
    "address":"The Chicken Rice Shop, Lot L1-S009A & L1-S009B, Kip Mall Melaka, Jalan Tun Fatimah, 75350 Batu Berendam, Melaka",
    "phone":"call",
    "latitude":null,
    "longitude":null,
    "source":"https:\/\/order.thechickenriceshop.com\/store-locations",
    "scraped_at":"2025-12-21T15:25:14.846933+00:00"
  },
  {
    "country":"MY",
    "parent_chain":"The Chicken Rice Shop",
    "chain":"The Chicken Rice Shop",
    "state":"Melaka",
    "store_name":"TCRS Freeport A Famosa Melaka",
    "address":"The Chicken Rice Shop, Lot F&B 42, Freeport A'Famosa Outlet, Jalan Kemus \/ Sempang Ampat, 78000 Alor Gajah, Melaka",
    "phone":"call",
    "latitude":null,
    "longitude":null,
    "source":"https:\/\/order.thechickenriceshop.com\/store-locations",
    "scraped_at":"2025-12-21T15:25:14.847131+00:00"
  },
  {
    "country":"MY",
    "parent_chain":"The Chicken Rice Shop",
    "chain":"The Chicken Rice Shop",
    "state":"Melaka",
    "store_name":"TCRS Aeon Ayer Keroh",
    "address":"The Chicken Rice Shop, Lot G7 & G8, Aeon Melaka Shopping Centre, Lebuh Ayer Keroh, 75450 Ayer Keroh, Melaka",
    "phone":"call",
    "latitude":null,
    "longitude":null,
    "source":"https:\/\/order.thechickenriceshop.com\/store-locations",
    "scraped_at":"2025-12-21T15:25:14.847329+00:00"
  },
  {
    "country":"MY",
    "parent_chain":"The Chicken Rice Shop",
    "chain":"The Chicken Rice Shop",
    "state":"Melaka",
    "store_name":"TCRS AEON Mall Bandaraya Melaka",
    "address":"The Chicken Rice Shop, Lot G41, Ground Floor, Aeon Melaka Bandaraya Shopping Centre, 2, Jalan Lagenda, Taman 1 - Lagenda, 75400 Bandaraya Melaka, Melaka",
    "phone":"call",
    "latitude":null,
    "longitude":null,
    "source":"https:\/\/order.thechickenriceshop.com\/store-locations",
    "scraped_at":"2025-12-21T15:25:14.847533+00:00"
  },
  {
    "country":"MY",
    "parent_chain":"The Chicken Rice Shop",
    "chain":"The Chicken Rice Shop",
    "state":"Melaka",
    "store_name":"TCRS Mahkota Parade",
    "address":"The Chicken Rice Shop, Lot No. F15 & F16, 1st Floor, Mahkota Parade, No. 1, Jalan Merdeka, 75000 Bandaraya Melaka, Melaka",
    "phone":"call",
    "latitude":null,
    "longitude":null,
    "source":"https:\/\/order.thechickenriceshop.com\/store-locations",
    "scraped_at":"2025-12-21T15:25:14.847730+00:00"
  },
  {
    "country":"MY",
    "parent_chain":"The Chicken Rice Shop",
    "chain":"The Chicken Rice Shop",
    "state":"Melaka",
    "store_name":"TCRS NSK Melaka Cheng",
    "address":"The Chicken Rice Shop, Lot 11, NSK Cheng, Jalan TTC 26, Taman Teknologi Cheng, 75250 Cheng, Melaka",
    "phone":"call",
    "latitude":null,
    "longitude":null,
    "source":"https:\/\/order.thechickenriceshop.com\/store-locations",
    "scraped_at":"2025-12-21T15:25:14.847930+00:00"
  },
  {
    "country":"MY",
    "parent_chain":"The Chicken Rice Shop",
    "chain":"The Chicken Rice Shop",
    "state":"Negeri Sembilan",
    "store_name":"TCRS Mydin Mall Seremban 2",
    "address":"The Chicken Rice Shop, Ground Floor Mydin Hypermarket Seremban 2 Lot 31156, Persiaran S2 B7, Seremban 2, 70300 Seremban, Negeri Sembilan",
    "phone":"call",
    "latitude":null,
    "longitude":null,
    "source":"https:\/\/order.thechickenriceshop.com\/store-locations",
    "scraped_at":"2025-12-21T15:25:14.848896+00:00"
  },
  {
    "country":"MY",
    "parent_chain":"The Chicken Rice Shop",
    "chain":"The Chicken Rice Shop",
    "state":"Negeri Sembilan",
    "store_name":"TCRS KIP Mall Senawang",
    "address":"The Chicken Rice Shop, F&B 03A & 05, Kipmall Lavendar Height Senawang, Taman Seri Paroi, 70400 Seremban, Negeri Sembilan",
    "phone":"call",
    "latitude":null,
    "longitude":null,
    "source":"https:\/\/order.thechickenriceshop.com\/store-locations",
    "scraped_at":"2025-12-21T15:25:14.849093+00:00"
  },
  {
    "country":"MY",
    "parent_chain":"The Chicken Rice Shop",
    "chain":"The Chicken Rice Shop",
    "state":"Negeri Sembilan",
    "store_name":"TCRS Giant Senawang",
    "address":"The Chicken Rice Shop, A01-A05, Giant Hypermarket Senawang, Lot 1571, Jalan Senawang, 70450 Seremban, Negeri Sembilan",
    "phone":"call",
    "latitude":null,
    "longitude":null,
    "source":"https:\/\/order.thechickenriceshop.com\/store-locations",
    "scraped_at":"2025-12-21T15:25:14.849291+00:00"
  },
  {
    "country":"MY",
    "parent_chain":"The Chicken Rice Shop",
    "chain":"The Chicken Rice Shop",
    "state":"Negeri Sembilan",
    "store_name":"TCRS Seremban Prima Mall",
    "address":"The Chicken Rice Shop, G-12 Ground Floor, Seremban Prima Mall Lot 4973, Jalan Dato Bandar Tunggal, 70000 Seremban, Negeri Sembilan",
    "phone":"call",
    "latitude":null,
    "longitude":null,
    "source":"https:\/\/order.thechickenriceshop.com\/store-locations",
    "scraped_at":"2025-12-21T15:25:14.849498+00:00"
  },
  {
    "country":"MY",
    "parent_chain":"The Chicken Rice Shop",
    "chain":"The Chicken Rice Shop",
    "state":"Negeri Sembilan",
    "store_name":"TCRS Palm Mall",
    "address":"The Chicken Rice Shop, Shop Unit No 1, Ground Floor, Palm Mall, Jalan Sungai Ujong, 70200 Seremban, Negeri Sembilan",
    "phone":"call",
    "latitude":null,
    "longitude":null,
    "source":"https:\/\/order.thechickenriceshop.com\/store-locations",
    "scraped_at":"2025-12-21T15:25:14.849695+00:00"
  },
  {
    "country":"MY",
    "parent_chain":"The Chicken Rice Shop",
    "chain":"The Chicken Rice Shop",
    "state":"Negeri Sembilan",
    "store_name":"TCRS AEON Seremban 2",
    "address":"The Chicken Rice Shop, Lot G39, Ground Floor, AEON Seremban 2 Shopping Centre, 112, Persiaran S2 B1, Seremban 2, 70300 Seremban, Negeri Sembilan",
    "phone":"call",
    "latitude":null,
    "longitude":null,
    "source":"https:\/\/order.thechickenriceshop.com\/store-locations",
    "scraped_at":"2025-12-21T15:25:14.849894+00:00"
  },
  {
    "country":"MY",
    "parent_chain":"The Chicken Rice Shop",
    "chain":"The Chicken Rice Shop",
    "state":"Negeri Sembilan",
    "store_name":"TCRS Kuala Pilah Gateway",
    "address":"The Chicken Rice Shop, Kuala Pilah (Shoplot), PT82, Ground Floor, Pilah Gateway, Jalan Melang, 72000 Kuala Pilah, Negeri Sembilan",
    "phone":"call",
    "latitude":null,
    "longitude":null,
    "source":"https:\/\/order.thechickenriceshop.com\/store-locations",
    "scraped_at":"2025-12-21T15:25:14.850090+00:00"
  },
  {
    "country":"MY",
    "parent_chain":"The Chicken Rice Shop",
    "chain":"The Chicken Rice Shop",
    "state":"Negeri Sembilan",
    "store_name":"TCRS AEON Nilai",
    "address":"The Chicken Rice Shop, Lot S06, 2nd Floor AEON Mall Nilai, No. 2, Persiaran Pusat Bandar, Putra Point, Putra Nilai, 71800 Nilai, Negeri Sembilan",
    "phone":"call",
    "latitude":null,
    "longitude":null,
    "source":"https:\/\/order.thechickenriceshop.com\/store-locations",
    "scraped_at":"2025-12-21T15:25:14.850289+00:00"
  },
  {
    "country":"MY",
    "parent_chain":"The Chicken Rice Shop",
    "chain":"The Chicken Rice Shop",
    "state":"Negeri Sembilan",
    "store_name":"TCRS Giant Nilai",
    "address":"Unit Shop 27, Ground Floor, 9th Avenue Nilai,Taman Koporat, Putra Nilai, Jalan BBN 3\/1, Bandar Baru Nilai, 71800 Nilai, Negeri Sembilan",
    "phone":"call",
    "latitude":null,
    "longitude":null,
    "source":"https:\/\/order.thechickenriceshop.com\/store-locations",
    "scraped_at":"2025-12-21T15:25:14.850499+00:00"
  },
  {
    "country":"MY",
    "parent_chain":"The Chicken Rice Shop",
    "chain":"The Chicken Rice Shop",
    "state":"Pahang",
    "store_name":"TCRS Raub",
    "address":"The Chicken Rice Shop, Lot 9, Lorong Putra Raub 1, Pusat Perniagaan Putra Raub, 27600 Raub, Pahang",
    "phone":"call",
    "latitude":null,
    "longitude":null,
    "source":"https:\/\/order.thechickenriceshop.com\/store-locations",
    "scraped_at":"2025-12-21T15:25:14.851319+00:00"
  },
  {
    "country":"MY",
    "parent_chain":"The Chicken Rice Shop",
    "chain":"The Chicken Rice Shop",
    "state":"Pahang",
    "store_name":"TCRS Temerloh",
    "address":"The Chicken Rice Shop, No.13, Ground Floor, Jalan Sudirman, Bandar Sri Semantan, 28000 Temerloh, Pahang",
    "phone":"call",
    "latitude":null,
    "longitude":null,
    "source":"https:\/\/order.thechickenriceshop.com\/store-locations",
    "scraped_at":"2025-12-21T15:25:14.851528+00:00"
  },
  {
    "country":"MY",
    "parent_chain":"The Chicken Rice Shop",
    "chain":"The Chicken Rice Shop",
    "state":"Pahang",
    "store_name":"TCRS Mydin Jengka",
    "address":"The Chicken Rice Shop, Lot G03, Bandar Jengka, 24600 Jengka, Pahang",
    "phone":"call",
    "latitude":null,
    "longitude":null,
    "source":"https:\/\/order.thechickenriceshop.com\/store-locations",
    "scraped_at":"2025-12-21T15:25:14.851725+00:00"
  },
  {
    "country":"MY",
    "parent_chain":"The Chicken Rice Shop",
    "chain":"The Chicken Rice Shop",
    "state":"Pahang",
    "store_name":"TCRS Jerantut",
    "address":"The Chicken Rice Shop, No.102, Jalan Inderapura 1, Bandar Inderapura, 27000 Jerantut, Pahang",
    "phone":"call",
    "latitude":null,
    "longitude":null,
    "source":"https:\/\/order.thechickenriceshop.com\/store-locations",
    "scraped_at":"2025-12-21T15:25:14.851923+00:00"
  },
  {
    "country":"MY",
    "parent_chain":"The Chicken Rice Shop",
    "chain":"The Chicken Rice Shop",
    "state":"Pahang",
    "store_name":"TCRS East Coast Mall",
    "address":"The Chicken Rice Shop, L2-45, L2-46 & L2-47, Level 2, East Coast Mall, Jalan Putra Square 6, Putra Square, 25200 Kuantan, Pahang",
    "phone":"call",
    "latitude":null,
    "longitude":null,
    "source":"https:\/\/order.thechickenriceshop.com\/store-locations",
    "scraped_at":"2025-12-21T15:25:14.852128+00:00"
  },
  {
    "country":"MY",
    "parent_chain":"The Chicken Rice Shop",
    "chain":"The Chicken Rice Shop",
    "state":"Pahang",
    "store_name":"TCRS Bentong Prima",
    "address":"No P17, Jln Prima 1, Pusat Komersial Bentong Prima, 28700 Bentong, Pahang",
    "phone":"call",
    "latitude":null,
    "longitude":null,
    "source":"https:\/\/order.thechickenriceshop.com\/store-locations",
    "scraped_at":"2025-12-21T15:25:14.852327+00:00"
  },
  {
    "country":"MY",
    "parent_chain":"The Chicken Rice Shop",
    "chain":"The Chicken Rice Shop",
    "state":"Pahang",
    "store_name":"TCRS Lotus's Indera Mahkota",
    "address":"The Chicken Rice Shop, G06, Ground Floor, Lotus's Indera Mahkota Kuantan, Lorong IM 8\/3, Bandar Indera Mahkota, 25200 Kuantan, Pahang",
    "phone":"call",
    "latitude":null,
    "longitude":null,
    "source":"https:\/\/order.thechickenriceshop.com\/store-locations",
    "scraped_at":"2025-12-21T15:25:14.852533+00:00"
  },
  {
    "country":"MY",
    "parent_chain":"The Chicken Rice Shop",
    "chain":"The Chicken Rice Shop",
    "state":"Penang",
    "store_name":"TCRS Queensbay Mall",
    "address":"The Chicken Rice Shop, LG-113A, Queensbay Mall, 100, Persiaran Bayan Indah, 11900 Bayan Lepas, Penang",
    "phone":"call",
    "latitude":null,
    "longitude":null,
    "source":"https:\/\/order.thechickenriceshop.com\/store-locations",
    "scraped_at":"2025-12-21T15:25:14.852950+00:00"
  },
  {
    "country":"MY",
    "parent_chain":"The Chicken Rice Shop",
    "chain":"The Chicken Rice Shop",
    "state":"Penang",
    "store_name":"TCRS 1st Avenue Mall",
    "address":"The Chicken Rice Shop, Unit No. LG18, Lower Ground Floor, 1st Avenue Mall, 182, Jalan Magazine, 10300 George Town, Penang",
    "phone":"call",
    "latitude":null,
    "longitude":null,
    "source":"https:\/\/order.thechickenriceshop.com\/store-locations",
    "scraped_at":"2025-12-21T15:25:14.853146+00:00"
  },
  {
    "country":"MY",
    "parent_chain":"The Chicken Rice Shop",
    "chain":"The Chicken Rice Shop",
    "state":"Perak",
    "store_name":"TCRS Tanjung Malim",
    "address":"The Chicken Rice Shop, Lot No.3, Bangunan Akasia Lot 14748, Jalan Tanjung Malim- Proton City, 35900 Tanjung Malim, Perak",
    "phone":"call",
    "latitude":null,
    "longitude":null,
    "source":"https:\/\/order.thechickenriceshop.com\/store-locations",
    "scraped_at":"2025-12-21T15:25:14.853976+00:00"
  },
  {
    "country":"MY",
    "parent_chain":"The Chicken Rice Shop",
    "chain":"The Chicken Rice Shop",
    "state":"Perak",
    "store_name":"TCRS Sentral Ipoh Klebang",
    "address":"The Chicken Rice Shop, Lot No S08, Second Floor, Lot 12080, Klebang Perdana, 31200 Chemor, Perak",
    "phone":"call",
    "latitude":null,
    "longitude":null,
    "source":"https:\/\/order.thechickenriceshop.com\/store-locations",
    "scraped_at":"2025-12-21T15:25:14.854178+00:00"
  },
  {
    "country":"MY",
    "parent_chain":"The Chicken Rice Shop",
    "chain":"The Chicken Rice Shop",
    "state":"Perak",
    "store_name":"TCRS AEON Mall Seri Manjung",
    "address":"The Chicken Rice Shop, Lot G56, Ground Floor, Aeon Seri Manjung Shopping Centre, Pusat Perniagaan Manjung, Point 3, 32040 Seri Manjung, Perak",
    "phone":"call",
    "latitude":null,
    "longitude":null,
    "source":"https:\/\/order.thechickenriceshop.com\/store-locations",
    "scraped_at":"2025-12-21T15:25:14.854375+00:00"
  },
  {
    "country":"MY",
    "parent_chain":"The Chicken Rice Shop",
    "chain":"The Chicken Rice Shop",
    "state":"Perak",
    "store_name":"TCRS AEON Mall Taiping",
    "address":"The Chicken Rice Shop, G03,Ground Floor, Pusat Membeli-Belah AEON, Lot 8576 & 8577 Jalan Kamunting, 34000 Taiping, Perak",
    "phone":"call",
    "latitude":null,
    "longitude":null,
    "source":"https:\/\/order.thechickenriceshop.com\/store-locations",
    "scraped_at":"2025-12-21T15:25:14.854614+00:00"
  },
  {
    "country":"MY",
    "parent_chain":"The Chicken Rice Shop",
    "chain":"The Chicken Rice Shop",
    "state":"Perak",
    "store_name":"TCRS Rapid Mall",
    "address":"The Chicken Rice Shop, Lot No. G26, Ground Floor, Rapid Mall Seri Intan, Jalan Changkat Jong, 36000 Teluk Intan, Perak",
    "phone":"call",
    "latitude":null,
    "longitude":null,
    "source":"https:\/\/order.thechickenriceshop.com\/store-locations",
    "scraped_at":"2025-12-21T15:25:14.854817+00:00"
  },
  {
    "country":"MY",
    "parent_chain":"The Chicken Rice Shop",
    "chain":"The Chicken Rice Shop",
    "state":"Perak",
    "store_name":"TCRS Kuala Kangsar",
    "address":"No. 7, Ground Floor, Persiaran Medan Mutiara 1, Medan Mutiara, 33000 Kuala Kangsar, Perak",
    "phone":"call",
    "latitude":null,
    "longitude":null,
    "source":"https:\/\/order.thechickenriceshop.com\/store-locations",
    "scraped_at":"2025-12-21T15:25:14.855041+00:00"
  },
  {
    "country":"MY",
    "parent_chain":"The Chicken Rice Shop",
    "chain":"The Chicken Rice Shop",
    "state":"Perak",
    "store_name":"TCRS Ipoh Parade",
    "address":"The Chicken Rice Shop, Lot G20, Ground Floor, Ipoh Parade, No. 105, Jalan Sultan Abdul Jalil, Greentown, 30450 Ipoh, Perak",
    "phone":"call",
    "latitude":null,
    "longitude":null,
    "source":"https:\/\/order.thechickenriceshop.com\/store-locations",
    "scraped_at":"2025-12-21T15:25:14.855239+00:00"
  },
  {
    "country":"MY",
    "parent_chain":"The Chicken Rice Shop",
    "chain":"The Chicken Rice Shop",
    "state":"Perlis",
    "store_name":"TCRS Kangar Perlis",
    "address":"No. 2 (GF), Jalan Kangar Jaya 1, Kangar Jaya, Jalan Tuanku Syed Putra, 01000 Kangar, Perlis",
    "phone":"call",
    "latitude":null,
    "longitude":null,
    "source":"https:\/\/order.thechickenriceshop.com\/store-locations",
    "scraped_at":"2025-12-21T15:25:14.855583+00:00"
  },
  {
    "country":"MY",
    "parent_chain":"The Chicken Rice Shop",
    "chain":"The Chicken Rice Shop",
    "state":"Pulau Pinang",
    "store_name":"TCRS Gurney Plaza Penang",
    "address":"The Chicken Rice Shop, Unit 170-B1-05B, Basement 1, Plaza Gurney, Persiaran Gurney, 10250 George Town, Pulau Pinang",
    "phone":"call",
    "latitude":null,
    "longitude":null,
    "source":"https:\/\/order.thechickenriceshop.com\/store-locations",
    "scraped_at":"2025-12-21T15:25:14.856154+00:00"
  },
  {
    "country":"MY",
    "parent_chain":"The Chicken Rice Shop",
    "chain":"The Chicken Rice Shop",
    "state":"Pulau Pinang",
    "store_name":"TCRS AEON Mall Bukit Mertajam",
    "address":"The Chicken Rice Shop, Lot No. S03, Second Floor, AEON Mall Bukit Mertajam, Jalan Rozhan, Alma, 14000 Bukit Mertajam, Pulau Pinang",
    "phone":"call",
    "latitude":null,
    "longitude":null,
    "source":"https:\/\/order.thechickenriceshop.com\/store-locations",
    "scraped_at":"2025-12-21T15:25:14.856354+00:00"
  },
  {
    "country":"MY",
    "parent_chain":"The Chicken Rice Shop",
    "chain":"The Chicken Rice Shop",
    "state":"Pulau Pinang",
    "store_name":"TCRS Sunway Carnival Mall",
    "address":"The Chicken Rice Shop, Lot LG-68, Sunway Carnival Mall, 3068, Jalan Todak, Pusat Bandar Seberang Jaya, 13700 Seberang Jaya, Pulau Pinang",
    "phone":"call",
    "latitude":null,
    "longitude":null,
    "source":"https:\/\/order.thechickenriceshop.com\/store-locations",
    "scraped_at":"2025-12-21T15:25:14.856562+00:00"
  },
  {
    "country":"MY",
    "parent_chain":"The Chicken Rice Shop",
    "chain":"The Chicken Rice Shop",
    "state":"Pulau Pinang",
    "store_name":"TCRS Mydin Bukit Mertajam",
    "address":"The Chicken Rice Shop, G01, Ground Floor, Mydin Mall Bukit Mertajam Mukim 06, Jalan Baru, Daerah Seberang Perai Tengah, 13600 Seberang Perai, Pulau Pinang",
    "phone":"call",
    "latitude":null,
    "longitude":null,
    "source":"https:\/\/order.thechickenriceshop.com\/store-locations",
    "scraped_at":"2025-12-21T15:25:14.856760+00:00"
  },
  {
    "country":"MY",
    "parent_chain":"The Chicken Rice Shop",
    "chain":"The Chicken Rice Shop",
    "state":"Selangor",
    "store_name":"TCRS AEON Mall Bukit Tinggi",
    "address":"The Chicken Rice Shop, Lot F06, 1st Floor, Aeon Bukit Tinggi Shopping Complex, No 1 Persiaran Batu Nilam 1\/KS6, Bandar Bukit Tinggi 2, 41200 Klang, Selangor",
    "phone":"call",
    "latitude":null,
    "longitude":null,
    "source":"https:\/\/order.thechickenriceshop.com\/store-locations",
    "scraped_at":"2025-12-21T15:25:14.860234+00:00"
  },
  {
    "country":"MY",
    "parent_chain":"The Chicken Rice Shop",
    "chain":"The Chicken Rice Shop",
    "state":"Selangor",
    "store_name":"TCRS Mitsui Outlet Park",
    "address":"The Chicken Rice Shop, Suite No. F60, First Floor, Mitsui Outlet Park KLIA, Persiaran Komersial, 64000 Sepang, Selangor",
    "phone":"call",
    "latitude":null,
    "longitude":null,
    "source":"https:\/\/order.thechickenriceshop.com\/store-locations",
    "scraped_at":"2025-12-21T15:25:14.860430+00:00"
  },
  {
    "country":"MY",
    "parent_chain":"The Chicken Rice Shop",
    "chain":"The Chicken Rice Shop",
    "state":"Selangor",
    "store_name":"TCRS Central i-City",
    "address":"The Chicken Rice Shop, L3-08 & L3-09, Level 3 Central i-City Plot 1, i-City, Persiaran Multimedia Seksyen 7, 40000 Shah Alam, Selangor",
    "phone":"call",
    "latitude":null,
    "longitude":null,
    "source":"https:\/\/order.thechickenriceshop.com\/store-locations",
    "scraped_at":"2025-12-21T15:25:14.860625+00:00"
  },
  {
    "country":"MY",
    "parent_chain":"The Chicken Rice Shop",
    "chain":"The Chicken Rice Shop",
    "state":"Selangor",
    "store_name":"TCRS Thomson Hospital Kota Damansara",
    "address":"The Chicken Rice Shop, GF- Unit 1109-1, Thomson Hospital, 11 Jalan Teknologi PJU 5, Kota Damansara, 47810 Petaling Jaya, Selangor",
    "phone":"call",
    "latitude":null,
    "longitude":null,
    "source":"https:\/\/order.thechickenriceshop.com\/store-locations",
    "scraped_at":"2025-12-21T15:25:14.860825+00:00"
  },
  {
    "country":"MY",
    "parent_chain":"The Chicken Rice Shop",
    "chain":"The Chicken Rice Shop",
    "state":"Selangor",
    "store_name":"TCRS SB Mall",
    "address":"The Chicken Rice Shop, LG-3, SB Mall, Lot 2-18, 2, Seksyen U20, Bandar Baru Sungai Buloh, 40160 Shah Alam, Selangor",
    "phone":"call",
    "latitude":null,
    "longitude":null,
    "source":"https:\/\/order.thechickenriceshop.com\/store-locations",
    "scraped_at":"2025-12-21T15:25:14.861033+00:00"
  },
  {
    "country":"MY",
    "parent_chain":"The Chicken Rice Shop",
    "chain":"The Chicken Rice Shop",
    "state":"Selangor",
    "store_name":"TCRS AEON Mall Equine Park",
    "address":"The Chicken Rice Shop, Lot LG 20, Lower Ground Floor, Aeon 2, Jalan Equine, Pusat Bandar Permai, 43300 Seri Kembangan, Selangor",
    "phone":"call",
    "latitude":null,
    "longitude":null,
    "source":"https:\/\/order.thechickenriceshop.com\/store-locations",
    "scraped_at":"2025-12-21T15:25:14.861243+00:00"
  },
  {
    "country":"MY",
    "parent_chain":"The Chicken Rice Shop",
    "chain":"The Chicken Rice Shop",
    "state":"Selangor",
    "store_name":"TCRS 168 Park Selayang",
    "address":"The Chicken Rice Shop, Lot G-03A, No. B-01, Pejabat Pengurusan, 168 Residensi Selayang, KM12, Jalan Ipoh-Rawang, 68100 Batu Caves, Selangor",
    "phone":"call",
    "latitude":null,
    "longitude":null,
    "source":"https:\/\/order.thechickenriceshop.com\/store-locations",
    "scraped_at":"2025-12-21T15:25:14.861443+00:00"
  },
  {
    "country":"MY",
    "parent_chain":"The Chicken Rice Shop",
    "chain":"The Chicken Rice Shop",
    "state":"Selangor",
    "store_name":"TCRS Giant Kota Damansara",
    "address":"The Chicken Rice Shop, Lot F61 & F62, 1st Floor, Giant Hypermarket Kota Damansara, No.16, Jalan PJU 5\/1, Kota Damansara, 47810 Petaling Jaya, Selangor",
    "phone":"call",
    "latitude":null,
    "longitude":null,
    "source":"https:\/\/order.thechickenriceshop.com\/store-locations",
    "scraped_at":"2025-12-21T15:25:14.861641+00:00"
  },
  {
    "country":"MY",
    "parent_chain":"The Chicken Rice Shop",
    "chain":"The Chicken Rice Shop",
    "state":"Selangor",
    "store_name":"TCRS One Utama",
    "address":"The Chicken Rice Shop, Lot G211, Ground Floor, One Utama Shopping Centre, Lebuh Bandar Utama,Bandar Utama, 47800 Petaling Jaya, Selangor",
    "phone":"call",
    "latitude":null,
    "longitude":null,
    "source":"https:\/\/order.thechickenriceshop.com\/store-locations",
    "scraped_at":"2025-12-21T15:25:14.861840+00:00"
  },
  {
    "country":"MY",
    "parent_chain":"The Chicken Rice Shop",
    "chain":"The Chicken Rice Shop",
    "state":"Selangor",
    "store_name":"TCRS Paradigm Mall Kelana Jaya",
    "address":"The Chicken Rice Shop, Lot. No. LG -38B(P), Lower Ground Floor Paradigm Mall No1, Jalan SS 7A\/26A, 47301 Petaling Jaya, Selangor",
    "phone":"call",
    "latitude":null,
    "longitude":null,
    "source":"https:\/\/order.thechickenriceshop.com\/store-locations",
    "scraped_at":"2025-12-21T15:25:14.862042+00:00"
  },
  {
    "country":"MY",
    "parent_chain":"The Chicken Rice Shop",
    "chain":"The Chicken Rice Shop",
    "state":"Selangor",
    "store_name":"TCRS IOI City Mall",
    "address":"The Chicken Rice Shop, Lot No. LG-61, Lower Ground Floor, IOI City Mall, Lebuh IRC, IOI Resort City, 62000 Putrajaya, Selangor",
    "phone":"call",
    "latitude":null,
    "longitude":null,
    "source":"https:\/\/order.thechickenriceshop.com\/store-locations",
    "scraped_at":"2025-12-21T15:25:14.862239+00:00"
  },
  {
    "country":"MY",
    "parent_chain":"The Chicken Rice Shop",
    "chain":"The Chicken Rice Shop",
    "state":"Selangor",
    "store_name":"TCRS Sunway Pyramid",
    "address":"Lot LG2.97, Lower Ground 2, Sunway Pyramid, No. 3, Jalan PJS 11\/15, Bandar Sunway, 46150 Petaling Jaya Petaling Jaya, Selangor",
    "phone":"call",
    "latitude":null,
    "longitude":null,
    "source":"https:\/\/order.thechickenriceshop.com\/store-locations",
    "scraped_at":"2025-12-21T15:25:14.862440+00:00"
  },
  {
    "country":"MY",
    "parent_chain":"The Chicken Rice Shop",
    "chain":"The Chicken Rice Shop",
    "state":"Selangor",
    "store_name":"TCRS KSL Esplanade",
    "address":"The Chicken Rice Shop, Lot No G066, Ground Floor, KSL Esplanade Mall, Jalan Langat KS9, Bandar Bestari, 41200 Klang, Selangor",
    "phone":"call",
    "latitude":null,
    "longitude":null,
    "source":"https:\/\/order.thechickenriceshop.com\/store-locations",
    "scraped_at":"2025-12-21T15:25:14.862637+00:00"
  },
  {
    "country":"MY",
    "parent_chain":"The Chicken Rice Shop",
    "chain":"The Chicken Rice Shop",
    "state":"Selangor",
    "store_name":"TCRS Dpulze",
    "address":"The Chicken Rice Shop, Lot LG-13a, Lower Ground Floor, Dpulze Shopping Centre, Lingkaran Cyber Point Timur, Cyber12, 63000 Cyberjaya, Selangor",
    "phone":"call",
    "latitude":null,
    "longitude":null,
    "source":"https:\/\/order.thechickenriceshop.com\/store-locations",
    "scraped_at":"2025-12-21T15:25:14.862836+00:00"
  },
  {
    "country":"MY",
    "parent_chain":"The Chicken Rice Shop",
    "chain":"The Chicken Rice Shop",
    "state":"Selangor",
    "store_name":"TCRS Jaya Shopping Centre",
    "address":"The Chicken Rice Shop, Lot LG26, Lower Ground Floor, Jaya Shopping centre, Jalan Semangat, 46100 Petaling Jaya, Selangor",
    "phone":"call",
    "latitude":null,
    "longitude":null,
    "source":"https:\/\/order.thechickenriceshop.com\/store-locations",
    "scraped_at":"2025-12-21T15:25:14.863039+00:00"
  },
  {
    "country":"MY",
    "parent_chain":"The Chicken Rice Shop",
    "chain":"The Chicken Rice Shop",
    "state":"Selangor",
    "store_name":"TCRS The Mines",
    "address":"The Chicken Rice Shop, Lot L1-104\/Lot L1-105, Level 1, Mines Shopping Fair, 228, Jalan Dulang, Mines Resort City, 43300 Seri Kembangan Seri Kembangan, Selangor",
    "phone":"call",
    "latitude":null,
    "longitude":null,
    "source":"https:\/\/order.thechickenriceshop.com\/store-locations",
    "scraped_at":"2025-12-21T15:25:14.863236+00:00"
  },
  {
    "country":"MY",
    "parent_chain":"The Chicken Rice Shop",
    "chain":"The Chicken Rice Shop",
    "state":"Selangor",
    "store_name":"TCRS Plaza Shah Alam",
    "address":"The Chicken Rice Shop, Lot no. LB-1B, Lower Ground Floor, Plaza Shah Alam 2,Jalan Tengku Ampuan Zabedah, Seksyen 9, 40100 Shah Alam, Selangor",
    "phone":"call",
    "latitude":null,
    "longitude":null,
    "source":"https:\/\/order.thechickenriceshop.com\/store-locations",
    "scraped_at":"2025-12-21T15:25:14.863432+00:00"
  },
  {
    "country":"MY",
    "parent_chain":"The Chicken Rice Shop",
    "chain":"The Chicken Rice Shop",
    "state":"Selangor",
    "store_name":"TCRS Subang Jaya Medical Centre",
    "address":"The Chicken Rice Shop, Lot G6, Ground Floor, Mediplex (North Tower Annexe), Subang Jaya Medical Centre, 1, Jalan SS12\/1A, 47500,  Subang Jaya, Selangor",
    "phone":"call",
    "latitude":null,
    "longitude":null,
    "source":"https:\/\/order.thechickenriceshop.com\/store-locations",
    "scraped_at":"2025-12-21T15:25:14.863628+00:00"
  },
  {
    "country":"MY",
    "parent_chain":"The Chicken Rice Shop",
    "chain":"The Chicken Rice Shop",
    "state":"Selangor",
    "store_name":"TCRS KIP Mall Desa Coalfields, Sg Buloh",
    "address":"The Chicken Rice Shop, Lot No. UG04, Ground Floor, KIP Mall Desa Coalfields, Jalan DC 4\/5, Desa Coalfields, 47000 Sungai Buloh, Selangor",
    "phone":"call",
    "latitude":null,
    "longitude":null,
    "source":"https:\/\/order.thechickenriceshop.com\/store-locations",
    "scraped_at":"2025-12-21T15:25:14.863822+00:00"
  },
  {
    "country":"MY",
    "parent_chain":"The Chicken Rice Shop",
    "chain":"The Chicken Rice Shop",
    "state":"Selangor",
    "store_name":"TCRS Plaza Bangi Perdana",
    "address":"The Chicken Rice Shop, Lot No. G19, Ground Floor Plaza Bangi Perdana, Seksyen 15, Jalan Gerbang Wawasan 1, 43650 Bangi, Selangor",
    "phone":"call",
    "latitude":null,
    "longitude":null,
    "source":"https:\/\/order.thechickenriceshop.com\/store-locations",
    "scraped_at":"2025-12-21T15:25:14.864022+00:00"
  },
  {
    "country":"MY",
    "parent_chain":"The Chicken Rice Shop",
    "chain":"The Chicken Rice Shop",
    "state":"Selangor",
    "store_name":"TCRS AEON Mall Shah Alam",
    "address":"The Chicken Rice Shop, Lot S17, Second Floor, Aeon Mall Shah Alam 1, Jalan Akuatik 13\/64, Persiaran Akuatik, Seksyen 13, 40100 Shah Alam, Selangor",
    "phone":"call",
    "latitude":null,
    "longitude":null,
    "source":"https:\/\/order.thechickenriceshop.com\/store-locations",
    "scraped_at":"2025-12-21T15:25:14.864220+00:00"
  },
  {
    "country":"MY",
    "parent_chain":"The Chicken Rice Shop",
    "chain":"The Chicken Rice Shop",
    "state":"Selangor",
    "store_name":"TCRS Kip Mall Bangi",
    "address":"The Chicken Rice Shop, Lot G-034, G-05A, G-05B & G-05C, Kipmall Bangi, Bangi Utama Shopping Centre, No 1, Jalan Medan Bangi, Off Persiaran Kemajuan, Seksyen 6, 43650 Bandar Baru Bangi, Selangor",
    "phone":"call",
    "latitude":null,
    "longitude":null,
    "source":"https:\/\/order.thechickenriceshop.com\/store-locations",
    "scraped_at":"2025-12-21T15:25:14.864417+00:00"
  },
  {
    "country":"MY",
    "parent_chain":"The Chicken Rice Shop",
    "chain":"The Chicken Rice Shop",
    "state":"Selangor",
    "store_name":"TCRS Tropicana Gardens Mall",
    "address":"The Chicken Rice Shop, Lot CC-48, Concourse Floor, No.2A, Persiaran Surian, Tropicana Indah, 47810 Petaling Jaya, Selangor",
    "phone":"call",
    "latitude":null,
    "longitude":null,
    "source":"https:\/\/order.thechickenriceshop.com\/store-locations",
    "scraped_at":"2025-12-21T15:25:14.864613+00:00"
  },
  {
    "country":"MY",
    "parent_chain":"The Chicken Rice Shop",
    "chain":"The Chicken Rice Shop",
    "state":"Selangor",
    "store_name":"TCRS Subang Parade",
    "address":"Lot LG 10G (1), Lower Ground Floor, 5, Jalan SS16\/1, 47500  Subang Jaya, Selangor",
    "phone":"call",
    "latitude":null,
    "longitude":null,
    "source":"https:\/\/order.thechickenriceshop.com\/store-locations",
    "scraped_at":"2025-12-21T15:25:14.864812+00:00"
  },
  {
    "country":"MY",
    "parent_chain":"The Chicken Rice Shop",
    "chain":"The Chicken Rice Shop",
    "state":"Selangor",
    "store_name":"TCRS AEON Rawang",
    "address":"Lot G48, Ground Floor, Aeon Anggun Rawang Shopping Centre, No 1 Persiaran Anggun, Taman Anggun, 48000 Rawang, Selangor",
    "phone":"call",
    "latitude":null,
    "longitude":null,
    "source":"https:\/\/order.thechickenriceshop.com\/store-locations",
    "scraped_at":"2025-12-21T15:25:14.865017+00:00"
  },
  {
    "country":"MY",
    "parent_chain":"The Chicken Rice Shop",
    "chain":"The Chicken Rice Shop",
    "state":"Selangor",
    "store_name":"TCRS AEON Big Tun Hussein Onn",
    "address":"Lot G.06, Ground Floor, AEON Big Tun Hussein Onn, Jalan Suarasa 2, 43200 Cheras, Selangor",
    "phone":"call",
    "latitude":null,
    "longitude":null,
    "source":"https:\/\/order.thechickenriceshop.com\/store-locations",
    "scraped_at":"2025-12-21T15:25:14.865215+00:00"
  },
  {
    "country":"MY",
    "parent_chain":"The Chicken Rice Shop",
    "chain":"The Chicken Rice Shop",
    "state":"Selangor",
    "store_name":"TCRS Giant Klang",
    "address":"Lot no. A9, A10 & A 11, Lot 83191-83192, Persiaran Batu Nilam, Bandar Bukit Tinggi Pandamaran, 42000  Klang, Selangor",
    "phone":"call",
    "latitude":null,
    "longitude":null,
    "source":"https:\/\/order.thechickenriceshop.com\/store-locations",
    "scraped_at":"2025-12-21T15:25:14.865410+00:00"
  },
  {
    "country":"MY",
    "parent_chain":"The Chicken Rice Shop",
    "chain":"The Chicken Rice Shop",
    "state":"Selangor",
    "store_name":"TCRS Citta Mall",
    "address":"Lot G39, Ground Floor, Citta Mall, Jalan PJU 1a\/48, PJU 1A, Ara Damansara, 47301 Petaling Jaya, Selangor",
    "phone":"call",
    "latitude":null,
    "longitude":null,
    "source":"https:\/\/order.thechickenriceshop.com\/store-locations",
    "scraped_at":"2025-12-21T15:25:14.865605+00:00"
  },
  {
    "country":"MY",
    "parent_chain":"The Chicken Rice Shop",
    "chain":"The Chicken Rice Shop",
    "state":"Selangor",
    "store_name":"TCRS Lotus's Mutiara Damansara",
    "address":"Lot 23, Ground Floor, Tesco Mutiara Damansara, No. 8, Jalan PJU 7\/4, Mutiara Damansara, 47800 Petaling Jaya, Selangor",
    "phone":"call",
    "latitude":null,
    "longitude":null,
    "source":"https:\/\/order.thechickenriceshop.com\/store-locations",
    "scraped_at":"2025-12-21T15:25:14.865803+00:00"
  },
  {
    "country":"MY",
    "parent_chain":"The Chicken Rice Shop",
    "chain":"The Chicken Rice Shop",
    "state":"Selangor",
    "store_name":"TCRS The Curve",
    "address":"Lot G50, Ground Floor, The Curve, Mutiara Damansara, No 6 Jalan PJU7\/3, Mutiara Damansara, 47810  Petaling Jaya, Selangor",
    "phone":"call",
    "latitude":null,
    "longitude":null,
    "source":"https:\/\/order.thechickenriceshop.com\/store-locations",
    "scraped_at":"2025-12-21T15:25:14.866007+00:00"
  },
  {
    "country":"MY",
    "parent_chain":"The Chicken Rice Shop",
    "chain":"The Chicken Rice Shop",
    "state":"Selangor",
    "store_name":"TCRS IOI Mall Puchong",
    "address":"Lot FS01 â€“ FS02, First Floor, IOI Mall, Batu 9, Jalan Puchong, Bandar Puchong Jaya, 47170 Puchong, Selangor",
    "phone":"call",
    "latitude":null,
    "longitude":null,
    "source":"https:\/\/order.thechickenriceshop.com\/store-locations",
    "scraped_at":"2025-12-21T15:25:14.866206+00:00"
  },
  {
    "country":"MY",
    "parent_chain":"The Chicken Rice Shop",
    "chain":"The Chicken Rice Shop",
    "state":"Selangor",
    "store_name":"TCRS KIP Mall Kota Warisan, Sepang",
    "address":"Lot G53A, KIP Mall Kota Warisan, 43900  Sepang, Selangor",
    "phone":"call",
    "latitude":null,
    "longitude":null,
    "source":"https:\/\/order.thechickenriceshop.com\/store-locations",
    "scraped_at":"2025-12-21T15:25:14.866403+00:00"
  },
  {
    "country":"MY",
    "parent_chain":"The Chicken Rice Shop",
    "chain":"The Chicken Rice Shop",
    "state":"Selangor",
    "store_name":"TCRS AEON Big Bukit Rimau",
    "address":"Lot G.05, G.06 & G.07, Ground Floor, AEON Big Bukit Rimau, No.2 Jalan Sungai Burung 32\/68, Seksyen 32, Bukit Rimau, 40460 Shah Alam, Selangor",
    "phone":"call",
    "latitude":null,
    "longitude":null,
    "source":"https:\/\/order.thechickenriceshop.com\/store-locations",
    "scraped_at":"2025-12-21T15:25:14.866604+00:00"
  },
  {
    "country":"MY",
    "parent_chain":"The Chicken Rice Shop",
    "chain":"The Chicken Rice Shop",
    "state":"Selangor",
    "store_name":"TCRS Giant Shah Alam",
    "address":"Lot No. A1-A3, Giant Hypermarket Shah Alam Stadium, Lot 2, Persiaran Sukan, Seksyen 13, 40100 Shah Alam, Selangor",
    "phone":"call",
    "latitude":null,
    "longitude":null,
    "source":"https:\/\/order.thechickenriceshop.com\/store-locations",
    "scraped_at":"2025-12-21T15:25:14.866802+00:00"
  },
  {
    "country":"MY",
    "parent_chain":"The Chicken Rice Shop",
    "chain":"The Chicken Rice Shop",
    "state":"Selangor",
    "store_name":"TCRS Setia City Mall",
    "address":"Lot LG-03, Lower Ground Floor, Setia City Mall, Setia Alam, 40170 Shah Alam, Selangor",
    "phone":"call",
    "latitude":null,
    "longitude":null,
    "source":"https:\/\/order.thechickenriceshop.com\/store-locations",
    "scraped_at":"2025-12-21T15:25:14.867002+00:00"
  },
  {
    "country":"MY",
    "parent_chain":"The Chicken Rice Shop",
    "chain":"The Chicken Rice Shop",
    "state":"Selangor",
    "store_name":"TCRS Lotus's Shah Alam",
    "address":"Lot No. 1, Ground Floor, Tesco Shah Alam, No.3 Jalan Aerobik 13\/43, Seksyen 13, 40100  Shah Alam, Selangor",
    "phone":"call",
    "latitude":null,
    "longitude":null,
    "source":"https:\/\/order.thechickenriceshop.com\/store-locations",
    "scraped_at":"2025-12-21T15:25:14.867201+00:00"
  },
  {
    "country":"MY",
    "parent_chain":"The Chicken Rice Shop",
    "chain":"The Chicken Rice Shop",
    "state":"Selangor",
    "store_name":"TCRS Kuala Selangor",
    "address":"No.78, Ground Floor, Jalan Melati 3\/1, Bandar Melawati, 45000 Kuala Selangor, Selangor",
    "phone":"call",
    "latitude":null,
    "longitude":null,
    "source":"https:\/\/order.thechickenriceshop.com\/store-locations",
    "scraped_at":"2025-12-21T15:25:14.867395+00:00"
  },
  {
    "country":"MY",
    "parent_chain":"The Chicken Rice Shop",
    "chain":"The Chicken Rice Shop",
    "state":"Selangor",
    "store_name":"TCRS Metro Point Kajang",
    "address":"Lot G10 & G11, Ground Floor Metro Point Complex, Jalan Jelok 8, 43000  Kajang, Selangor",
    "phone":"call",
    "latitude":null,
    "longitude":null,
    "source":"https:\/\/order.thechickenriceshop.com\/store-locations",
    "scraped_at":"2025-12-21T15:25:14.867592+00:00"
  },
  {
    "country":"MY",
    "parent_chain":"The Chicken Rice Shop",
    "chain":"The Chicken Rice Shop",
    "state":"Selangor",
    "store_name":"TCRS Lotus's Kajang",
    "address":"Lot 7, Ground Floor, Tesco Kajang, KM 22, Persiaran Saujana Impian, 43000 Kajang, Selangor",
    "phone":"call",
    "latitude":null,
    "longitude":null,
    "source":"https:\/\/order.thechickenriceshop.com\/store-locations",
    "scraped_at":"2025-12-21T15:25:14.867787+00:00"
  },
  {
    "country":"MY",
    "parent_chain":"The Chicken Rice Shop",
    "chain":"The Chicken Rice Shop",
    "state":"Selangor",
    "store_name":"TCRS Quayside Mall",
    "address":"The Chicken Rice Shop, GF-08, Ground Floor, Quayside Mall, Kompleks Perniagaan Gamuda, Persiaran Freesia, Gamuda Kemuning 25.7,  Telok Panglima Garang, 42500 Kuala Langat, Selangor",
    "phone":"call",
    "latitude":null,
    "longitude":null,
    "source":"https:\/\/order.thechickenriceshop.com\/store-locations",
    "scraped_at":"2025-12-21T15:25:14.867981+00:00"
  },
  {
    "country":"MY",
    "parent_chain":"The Chicken Rice Shop",
    "chain":"The Chicken Rice Shop",
    "state":"Selangor",
    "store_name":"TCRS Sg Besar",
    "address":"The Chicken Rice Shop, No . 8, Jalan SBBC 6, Sungai Besar Business Center, 45300 Sungai Besar, Selangor",
    "phone":"call",
    "latitude":null,
    "longitude":null,
    "source":"https:\/\/order.thechickenriceshop.com\/store-locations",
    "scraped_at":"2025-12-21T15:25:14.868182+00:00"
  },
  {
    "country":"MY",
    "parent_chain":"The Chicken Rice Shop",
    "chain":"The Chicken Rice Shop",
    "state":"Selangor",
    "store_name":"TCRS Setia Eco Hill",
    "address":"The Chicken Rice Shop, L1-11, Level 1, Ecohill Mall, Jalan Ecohill 1\/2, Setia Ecohill, 43500 Semenyih, Selangor",
    "phone":"call",
    "latitude":null,
    "longitude":null,
    "source":"https:\/\/order.thechickenriceshop.com\/store-locations",
    "scraped_at":"2025-12-21T15:25:14.868375+00:00"
  },
  {
    "country":"MY",
    "parent_chain":"The Chicken Rice Shop",
    "chain":"The Chicken Rice Shop",
    "state":"Terengganu",
    "store_name":"TCRS Mesra Mall",
    "address":"The Chicken Rice Shop, Lot 07, Ground Floor, Mesra Mall, Lot 6490, Jalan Kemaman - Dungun, Daerah Kemaman, 24200 Kemasik, Terengganu",
    "phone":"call",
    "latitude":null,
    "longitude":null,
    "source":"https:\/\/order.thechickenriceshop.com\/store-locations",
    "scraped_at":"2025-12-21T15:25:14.868939+00:00"
  },
  {
    "country":"MY",
    "parent_chain":"The Chicken Rice Shop",
    "chain":"The Chicken Rice Shop",
    "state":"Terengganu",
    "store_name":"TCRS Giant Kuala Terengganu",
    "address":"The Chicken Rice Shop, Lot F12-F15, Giant Hypermarket Kuala Terengganu, H.S. (D) 6917, Lot PT1485, Jalan Padang Hiliran, 21100 Kuala Terengganu, Terengganu",
    "phone":"call",
    "latitude":null,
    "longitude":null,
    "source":"https:\/\/order.thechickenriceshop.com\/store-locations",
    "scraped_at":"2025-12-21T15:25:14.869163+00:00"
  },
  {
    "country":"MY",
    "parent_chain":"The Chicken Rice Shop",
    "chain":"The Chicken Rice Shop",
    "state":"Terengganu",
    "store_name":"TCRS Mayang Mall",
    "address":"The Chicken Rice Shop, Lot No LG22, Lower Ground, Nu Mayang Mall, Kuala Terengganu, 2000 Kuala Terengganu, Terengganu",
    "phone":"call",
    "latitude":null,
    "longitude":null,
    "source":"https:\/\/order.thechickenriceshop.com\/store-locations",
    "scraped_at":"2025-12-21T15:25:14.869362+00:00"
  },
  {
    "country":"MY",
    "parent_chain":"The Chicken Rice Shop",
    "chain":"The Chicken Rice Shop",
    "state":"Terengganu",
    "store_name":"TCRS Mydin Gong Badak",
    "address":"The Chicken Rice Shop, G-06&G-07, Ground Floor, Mydin Mall Gong Badak, Lot PT35511, Kampung Banggol, Jalan Gong Pak Damat, 21200 Kuala Terengganu, Terengganu",
    "phone":"call",
    "latitude":null,
    "longitude":null,
    "source":"https:\/\/order.thechickenriceshop.com\/store-locations",
    "scraped_at":"2025-12-21T15:25:14.869556+00:00"
  },
  {
    "country":"MY",
    "parent_chain":"The Chicken Rice Shop",
    "chain":"The Chicken Rice Shop",
    "state":"Wilayah Persekutuan",
    "store_name":"TCRS Alamanda Putrajaya",
    "address":"Lot P03B, Plaza Level, Alamanda Putrajaya Shopping Centre Jalan Alamanda, 62000 Putrajaya Putrajaya, Wilayah Persekutuan",
    "phone":"call",
    "latitude":null,
    "longitude":null,
    "source":"https:\/\/order.thechickenriceshop.com\/store-locations",
    "scraped_at":"2025-12-21T15:25:14.869888+00:00"
  }
]